{"type":"Feature","geometry":{"type":"Point","coordinates":[130.9392745,33.3084767]},"properties":{"name":"竹田公園草滑り台","natural":"peak"}}
{"type":"Feature","geometry":{"type":"Point","coordinates":[130.9473977,33.3239209]},"properties":{"name":"堤城山","natural":"peak"}}
{"type":"Feature","geometry":{"type":"Point","coordinates":[130.9234335,33.3088129]},"properties":{"name":"鏡坂展望台","natural":"peak"}}
{"type":"Feature","geometry":{"type":"Point","coordinates":[130.9455089,33.3109155]},"properties":{"name":"鬼塚","natural":"peak"}}
{"type":"Feature","geometry":{"type":"Point","coordinates":[128.5659705,35.8531824]},"properties":{"natural":"peak"}}
{"type":"Feature","geometry":{"type":"Point","coordinates":[118.7917479,30.2354433]},"properties":{"ele":"553","name":"千山岭","natural":"peak"}}
{"type":"Feature","geometry":{"type":"Point","coordinates":[118.7580754,30.2430336]},"properties":{"ele":"736.2","name":"梓棚山","natural":"peak"}}
{"type":"Feature","geometry":{"type":"Point","coordinates":[118.8696069,30.1414719]},"properties":{"alt_name":"窑降","ele":"1021","name":"窑鿍","natural":"peak"}}
{"type":"Feature","geometry":{"type":"Point","coordinates":[118.8797284,30.1447276]},"properties":{"ele":"1105","name":"高岭头","natural":"peak"}}
{"type":"Feature","geometry":{"type":"Point","coordinates":[127.0785712,37.0694019]},"properties":{"ele":"149.4","name":"부락산","natural":"peak"}}
{"type":"Feature","geometry":{"type":"Point","coordinates":[-178.2564354,67.0599575]},"properties":{"ele":"821","name":"г. Плоская","natural":"peak"}}
{"type":"Feature","geometry":{"type":"Point","coordinates":[-178.1977702,67.0534499]},"properties":{"ele":"892","name":"г. Колотый Валун","natural":"peak"}}
{"type":"Feature","geometry":{"type":"Point","coordinates":[-178.2188416,66.885582]},"properties":{"ele":"1118","natural":"peak"}}
{"type":"Feature","geometry":{"type":"Point","coordinates":[79.7852897,30.675088]},"properties":{"name":"Phulanga Parbat","natural":"peak"}}
{"type":"Feature","geometry":{"type":"Point","coordinates":[79.7119045,30.6494318]},"properties":{"name":"Dhanesh Parbat","natural":"peak"}}
{"type":"Feature","geometry":{"type":"Point","coordinates":[79.4304335,30.3429264]},"properties":{"name":"Aera","natural":"peak"}}
{"type":"Feature","geometry":{"type":"Point","coordinates":[79.6671009,30.4210333]},"properties":{"name":"Bugyalkoti","natural":"peak"}}
{"type":"Feature","geometry":{"type":"Point","coordinates":[118.6844204,30.2011504]},"properties":{"ele":"605","name":"许家坟","natural":"peak"}}
{"type":"Feature","geometry":{"type":"Point","coordinates":[118.7144841,30.2100623]},"properties":{"ele":"725.8","name":"大冲石","natural":"peak"}}
{"type":"Feature","geometry":{"type":"Point","coordinates":[140.9004843,39.5328262]},"properties":{"ele":"860","name":"ナメトコ山","natural":"peak","source":"GSImaps/std","wikidata":"Q11324041","wikipedia":"ja:ナメトコ山"}}
{"type":"Feature","geometry":{"type":"Point","coordinates":[138.8047242,35.831723]},"properties":{"ele":"1672.9","name":"石保戸山","natural":"peak","source":"GSImaps/std"}}
{"type":"Feature","geometry":{"type":"Point","coordinates":[109.4174026,24.2711881]},"properties":{"name":"轿顶山","natural":"peak"}}
{"type":"Feature","geometry":{"type":"Point","coordinates":[39.7310984,21.8198569]},"properties":{"name":"شَخَر","natural":"peak"}}
{"type":"Feature","geometry":{"type":"Point","coordinates":[44.2999863,42.6977028]},"properties":{"ele":"3732.7","natural":"peak"}}
{"type":"Feature","geometry":{"type":"Point","coordinates":[111.0341084,36.8213182]},"properties":{"natural":"peak"}}
{"type":"Feature","geometry":{"type":"Point","coordinates":[120.5684665,23.1859092]},"properties":{"ele":"1024.9","name":"福光山","natural":"peak","source":"NLSC"}}
{"type":"Feature","geometry":{"type":"Point","coordinates":[119.2680904,29.6287798]},"properties":{"ele":"640","name":"红坞头","natural":"peak"}}
{"type":"Feature","geometry":{"type":"Point","coordinates":[130.9054173,33.3111033]},"properties":{"name":"石井里山公園展望台","natural":"peak"}}
{"type":"Feature","geometry":{"type":"Point","coordinates":[119.300195,29.6539615]},"properties":{"ele":"994","name":"田平岭","natural":"peak"}}
{"type":"Feature","geometry":{"type":"Point","coordinates":[120.3860779,28.7406273]},"properties":{"ele":"850","name":"肿肿岩","natural":"peak"}}
{"type":"Feature","geometry":{"type":"Point","coordinates":[120.366112,28.7444726]},"properties":{"ele":"1195.5","name":"海脑尖","natural":"peak"}}
{"type":"Feature","geometry":{"type":"Point","coordinates":[120.3509934,28.7135374]},"properties":{"ele":"814","name":"沙紫山","natural":"peak"}}
{"type":"Feature","geometry":{"type":"Point","coordinates":[120.4801787,28.8269922]},"properties":{"ele":"1090","name":"枫树岗尖","natural":"peak"}}
{"type":"Feature","geometry":{"type":"Point","coordinates":[120.472101,28.8328907]},"properties":{"ele":"1132","name":"大湾岗尖","natural":"peak"}}
{"type":"Feature","geometry":{"type":"Point","coordinates":[87.0575985,28.1572098]},"properties":{"ele":"6753","name":"德生峰 / 切弄日","name:zh":"德生峰 / 切弄日","natural":"peak"}}
{"type":"Feature","geometry":{"type":"Point","coordinates":[87.0799148,28.1530633]},"properties":{"ele":"6474","name":"加朗","name:en":"Gyalang","natural":"peak"}}
{"type":"Feature","geometry":{"type":"Point","coordinates":[42.1238135,37.7101031]},"properties":{"natural":"peak"}}
{"type":"Feature","geometry":{"type":"Point","coordinates":[42.1830368,37.683209]},"properties":{"natural":"peak"}}
{"type":"Feature","geometry":{"type":"Point","coordinates":[42.1323966,37.7403134]},"properties":{"name":"Cin Tepesi","natural":"peak","wikidata":"Q31539200"}}
{"type":"Feature","geometry":{"type":"Point","coordinates":[87.0202372,28.1796499]},"properties":{"ele":"6267","name":"虾布热","name:en":"Xarbura","name:zh":"虾布热","natural":"peak"}}
{"type":"Feature","geometry":{"type":"Point","coordinates":[86.9516426,28.0674479]},"properties":{"ele":"7018","name":"向东峰","name:en":"Xiangdong","name:zh":"向东峰","natural":"peak"}}
{"type":"Feature","geometry":{"type":"Point","coordinates":[120.6273133,28.6549642]},"properties":{"ele":"1110","name":"公盂岩","natural":"peak"}}
{"type":"Feature","geometry":{"type":"Point","coordinates":[120.5913918,28.832263]},"properties":{"ele":"1239.7","name":"张母山","natural":"peak"}}
{"type":"Feature","geometry":{"type":"Point","coordinates":[87.0500084,28.2169733]},"properties":{"ele":"5828","name":"壳涨","name:en":"Kezhang","name:zh":"壳张","natural":"peak"}}
{"type":"Feature","geometry":{"type":"Point","coordinates":[86.9851821,28.2250356]},"properties":{"ele":"5803","name":"确玛哇绒","name:en":"Quemar Ogrong","name:zh":"确玛哇绒","natural":"peak"}}
{"type":"Feature","geometry":{"type":"Point","coordinates":[86.9697483,28.0380978]},"properties":{"ele":"6986","name":"拉克巴日 ལྷག་པ་རི","name:bo":"ལྷག་པ་རི","name:en":"Lhakpa Ri","name:zh":"拉克巴日","natural":"peak"}}
{"type":"Feature","geometry":{"type":"Point","coordinates":[86.9457355,28.1347542]},"properties":{"ele":"6617","name":"前进峰","name:en":"Qianjin","name:zh":"前进峰","natural":"peak"}}
{"type":"Feature","geometry":{"type":"Point","coordinates":[87.0191774,28.2244113]},"properties":{"ele":"5252","name":"北弄","name:en":"Bailong","name:zh":"北弄","natural":"peak"}}
{"type":"Feature","geometry":{"type":"Point","coordinates":[87.0003316,28.2244266]},"properties":{"ele":"5797","name":"雅嘎穷","name:en":"Yarkaqung","name:zh":"雅嘎穷","natural":"peak"}}
{"type":"Feature","geometry":{"type":"Point","coordinates":[86.9093442,28.0263224]},"properties":{"ele":"7541","name":"章子西峰 བྱང་རྩེ་ནུབ","name:bo":"བྱང་རྩེ་ནུབ","name:en":"Changtse West","name:ru":"пик Чангцзе-Нуп","natural":"peak"}}
{"type":"Feature","geometry":{"type":"Point","coordinates":[86.8642649,28.0460093]},"properties":{"ele":"6485","name":"光明峰","name:en":"Guangming","natural":"peak"}}
{"type":"Feature","geometry":{"type":"Point","coordinates":[86.8608487,28.035865]},"properties":{"ele":"6497","name":"向阳峰","name:en":"Xiangyang","natural":"peak"}}
{"type":"Feature","geometry":{"type":"Point","coordinates":[86.7141008,28.1070013]},"properties":{"alt_name":"Hillary Peak","ele":"7664","name":"俄宗巴岗 III (希拉里峰)","name:en":"Ngozumpa Kang III","name:zh":"俄宗巴岗 III (希拉里峰)","natural":"peak"}}
{"type":"Feature","geometry":{"type":"Point","coordinates":[86.6355487,28.070525]},"properties":{"alt_name":"Nangpai Gosum","ele":"7321","name":"Cho Aui II","name:zh":"乔乌衣 II / 兰巴格松","natural":"peak"}}
{"type":"Feature","geometry":{"type":"Point","coordinates":[86.5625411,28.1577237]},"properties":{"ele":"6596/6666","name":"乔拉藏 / 卓那布桑","name:en":"Jobo Labzang","name:zh":"乔拉藏","natural":"peak"}}
{"type":"Feature","geometry":{"type":"Point","coordinates":[121.15369,24.1255826]},"properties":{"ele":"1242","name":"瑞岩北山","natural":"peak"}}
{"type":"Feature","geometry":{"type":"Point","coordinates":[100.2057615,24.8019227]},"properties":{"name":"大曲山","natural":"peak"}}
{"type":"Feature","geometry":{"type":"Point","coordinates":[42.0136069,37.7770243]},"properties":{"natural":"peak","source":"openTopoMap"}}
{"type":"Feature","geometry":{"type":"Point","coordinates":[79.8846817,30.188204]},"properties":{"name":"Batuni Dhar","natural":"peak"}}
{"type":"Feature","geometry":{"type":"Point","coordinates":[79.9608993,30.1990352]},"properties":{"name":"Rajpanthu","natural":"peak"}}
{"type":"Feature","geometry":{"type":"Point","coordinates":[79.9538612,30.2276653]},"properties":{"name":"Malla Panchel","natural":"peak"}}
{"type":"Feature","geometry":{"type":"Point","coordinates":[80.0727796,30.2432192]},"properties":{"name":"Laspa Dhuar","natural":"peak"}}
{"type":"Feature","geometry":{"type":"Point","coordinates":[80.0279546,30.2071578]},"properties":{"name":"Chepar Choti","natural":"peak"}}
{"type":"Feature","geometry":{"type":"Point","coordinates":[80.0296497,30.2366939]},"properties":{"name":"Lamchhir","natural":"peak"}}
{"type":"Feature","geometry":{"type":"Point","coordinates":[136.6198316,34.9991343]},"properties":{"ele":"74.7","name":"垂坂山","natural":"peak"}}
{"type":"Feature","geometry":{"type":"Point","coordinates":[120.6046137,28.8239713]},"properties":{"ele":"1008","name":"大风门","natural":"peak"}}
{"type":"Feature","geometry":{"type":"Point","coordinates":[120.5444124,28.8523199]},"properties":{"ele":"1038","name":"骑马岗","natural":"peak"}}
{"type":"Feature","geometry":{"type":"Point","coordinates":[120.5744605,28.8471241]},"properties":{"ele":"1125","name":"高尖头","natural":"peak"}}
{"type":"Feature","geometry":{"type":"Point","coordinates":[120.5395056,28.8295656]},"properties":{"ele":"747","name":"牛龙岗","natural":"peak"}}
{"type":"Feature","geometry":{"type":"Point","coordinates":[120.4391899,28.6848968]},"properties":{"ele":"568","name":"岩背山","natural":"peak"}}
{"type":"Feature","geometry":{"type":"Point","coordinates":[120.4664093,28.8145551]},"properties":{"ele":"875","name":"上平头尖","natural":"peak"}}
{"type":"Feature","geometry":{"type":"Point","coordinates":[120.4394666,28.8000025]},"properties":{"ele":"832","name":"黄坟岗","natural":"peak"}}
{"type":"Feature","geometry":{"type":"Point","coordinates":[120.3263178,28.6672123]},"properties":{"ele":"935","name":"十大尖","natural":"peak"}}
{"type":"Feature","geometry":{"type":"Point","coordinates":[120.4577621,28.6776615]},"properties":{"ele":"703","name":"官斗尖","natural":"peak"}}
{"type":"Feature","geometry":{"type":"Point","coordinates":[120.3672428,28.652747]},"properties":{"ele":"780","name":"白马山","natural":"peak"}}
{"type":"Feature","geometry":{"type":"Point","coordinates":[120.4279041,28.6505857]},"properties":{"ele":"935.1","name":"白洋岗","natural":"peak"}}
{"type":"Feature","geometry":{"type":"Point","coordinates":[109.7191608,36.6887729]},"properties":{"natural":"peak"}}
{"type":"Feature","geometry":{"type":"Point","coordinates":[109.7132277,36.6506548]},"properties":{"natural":"peak"}}
{"type":"Feature","geometry":{"type":"Point","coordinates":[109.7055888,36.6576998]},"properties":{"natural":"peak"}}
{"type":"Feature","geometry":{"type":"Point","coordinates":[73.1608771,38.6962288]},"properties":{"natural":"peak"}}
{"type":"Feature","geometry":{"type":"Point","coordinates":[72.3372459,38.8250652]},"properties":{"natural":"peak"}}
{"type":"Feature","geometry":{"type":"Point","coordinates":[72.6143503,38.9658824]},"properties":{"name":"Нанкальди","natural":"peak"}}
{"type":"Feature","geometry":{"type":"Point","coordinates":[72.8959608,39.0127483]},"properties":{"name":"Володарского","natural":"peak"}}
{"type":"Feature","geometry":{"type":"Point","coordinates":[87.6051835,28.0800393]},"properties":{"ele":"6625","name":"阿玛直米 II","name:en":"Ama Drime II","natural":"peak"}}
{"type":"Feature","geometry":{"type":"Point","coordinates":[87.6781609,28.269217]},"properties":{"ele":"5900","name":"确顶日","name:en":"Qoidêng Ri","natural":"peak"}}
{"type":"Feature","geometry":{"type":"Point","coordinates":[87.6621405,28.2425466]},"properties":{"ele":"5930","name":"其比东孜","name:en":"Qibidungzê","natural":"peak"}}
{"type":"Feature","geometry":{"type":"Point","coordinates":[87.6995892,28.2891865]},"properties":{"ele":"5672","name":"奇吾曲雄","name:en":"Qiog Quxong","natural":"peak"}}
{"type":"Feature","geometry":{"type":"Point","coordinates":[87.6559793,28.1824084]},"properties":{"ele":"5854","name":"亚扎","name:bo":"Yazhag","natural":"peak"}}
{"type":"Feature","geometry":{"type":"Point","coordinates":[87.4373603,28.2843528]},"properties":{"ele":"5458","name":"耀日 - Yo Ri","name:en":"Yo Ri","name:zh":"耀日","natural":"peak"}}
{"type":"Feature","geometry":{"type":"Point","coordinates":[87.6887286,28.3373972]},"properties":{"ele":"6219","name":"江嘎日","name:en":"Gyangkar Ri","natural":"peak"}}
{"type":"Feature","geometry":{"type":"Point","coordinates":[87.6624977,28.2098798]},"properties":{"ele":"6012","name":"亚木如","name:en":"Yamoru","natural":"peak"}}
{"type":"Feature","geometry":{"type":"Point","coordinates":[83.0079695,29.6826482]},"properties":{"ele":"6529","name":"巴穷哈姆","name:bo":"དཔའ་ཁྱུང་དབང་མོ།","name:en":"Baqung Ham","natural":"peak"}}
{"type":"Feature","geometry":{"type":"Point","coordinates":[87.7200115,28.4241779]},"properties":{"ele":"5576","name":"切龙","name:en":"Qêlung","natural":"peak"}}
{"type":"Feature","geometry":{"type":"Point","coordinates":[87.7112732,28.3275063]},"properties":{"ele":"5705","name":"亚痛加","name:en":"Yatonggya","natural":"peak"}}
{"type":"Feature","geometry":{"type":"Point","coordinates":[87.6793803,28.2557057]},"properties":{"ele":"5739","name":"普如日","name:en":"Phuru Ri","natural":"peak"}}
{"type":"Feature","geometry":{"type":"Point","coordinates":[87.4443038,28.1998073]},"properties":{"ele":"6470","name":"普日加 / 金格 - Phuriga / Khinge","name:en":"Phuriga / Khinge","name:zh":"普日加 / 金格","natural":"peak"}}
{"type":"Feature","geometry":{"type":"Point","coordinates":[87.7177596,28.3977611]},"properties":{"ele":"5690","name":"正嘎","name:en":"Zhingkar","natural":"peak"}}
{"type":"Feature","geometry":{"type":"Point","coordinates":[87.7244466,28.3613023]},"properties":{"ele":"5550","name":"且炯","name:en":"Qêjong","natural":"peak"}}
{"type":"Feature","geometry":{"type":"Point","coordinates":[87.4178152,28.1228093]},"properties":{"ele":"5810","name":"那玛日","name:en":"Nama Ri","name:zh":"那玛日","natural":"peak"}}
{"type":"Feature","geometry":{"type":"Point","coordinates":[87.7349595,28.3934752]},"properties":{"ele":"5370","name":"扎顶","name:en":"Zhadêng","natural":"peak"}}
{"type":"Feature","geometry":{"type":"Point","coordinates":[87.6762834,28.3570683]},"properties":{"ele":"5705","name":"冷多","name:en":"Lingdo","natural":"peak"}}
{"type":"Feature","geometry":{"type":"Point","coordinates":[87.7732059,28.352052]},"properties":{"ele":"4533","name":"吓窝日","name:en":"Xar'og Ri","natural":"peak"}}
{"type":"Feature","geometry":{"type":"Point","coordinates":[87.4623,28.2324801]},"properties":{"ele":"6273","name":"扎日 - Zhag Ri","name:en":"Zhag Ri","name:zh":"扎日","natural":"peak"}}
{"type":"Feature","geometry":{"type":"Point","coordinates":[87.7027092,28.3864856]},"properties":{"ele":"5728","name":"索琼","name:en":"Soqung","natural":"peak"}}
{"type":"Feature","geometry":{"type":"Point","coordinates":[87.4932006,28.1767534]},"properties":{"ele":"5897","name":"普毡","name:en":"Puzhan","name:zh":"普毡","natural":"peak"}}
{"type":"Feature","geometry":{"type":"Point","coordinates":[87.4140113,28.1537184]},"properties":{"ele":"5850","name":"贡巴子日","name:en":"Goinbazê Ri","name:zh":"贡巴子日","natural":"peak"}}
{"type":"Feature","geometry":{"type":"Point","coordinates":[135.216815,35.0885478]},"properties":{"name":"城山","natural":"peak"}}
{"type":"Feature","geometry":{"type":"Point","coordinates":[86.7898112,28.0190339]},"properties":{"ele":"6822","name":"琼布北峰","name:en":"Chumbu North","name:zh":"琼布北峰","natural":"peak"}}
{"type":"Feature","geometry":{"type":"Point","coordinates":[86.8082299,28.0348067]},"properties":{"alt_name:zh":"林禅西峰","ele":"6376","name":"西林禅峰","name:en":"West Lingtren","name:zh":"西林禅峰","natural":"peak"}}
{"type":"Feature","geometry":{"type":"Point","coordinates":[86.7910019,27.9932726]},"properties":{"ele":"6027","name":"Changri","name:en":"Changri","name:zh":"章里","natural":"peak"}}
{"type":"Feature","geometry":{"type":"Point","coordinates":[86.8008551,28.0232747]},"properties":{"ele":"6658","name":"康里西峰","name:en":"Khangri West","name:zh":"康里西峰","natural":"peak"}}
{"type":"Feature","geometry":{"type":"Point","coordinates":[86.697773,28.2088662]},"properties":{"ele":"6622","name":"军民西峰","name:en":"Junmin West Peak","natural":"peak"}}
{"type":"Feature","geometry":{"type":"Point","coordinates":[86.7152006,28.20642]},"properties":{"ele":"6605","name":"军民东峰","name:en":"Junmin East Peak","natural":"peak"}}
{"type":"Feature","geometry":{"type":"Point","coordinates":[86.7722317,28.1291508]},"properties":{"ele":"6711","name":"九大峰","name:en":"Jiuda","name:zh":"九大峰","natural":"peak"}}
{"type":"Feature","geometry":{"type":"Point","coordinates":[86.7888981,28.1733299]},"properties":{"ele":"6452","name":"纳木错里","name:en":"Namocoli","name:zh":"纳木错里","natural":"peak"}}
{"type":"Feature","geometry":{"type":"Point","coordinates":[86.7919642,28.1951595]},"properties":{"ele":"6036","name":"帕于曲堆侬宋","name:en":"Paryqudailungsum","name:zh":"帕于曲堆侬宋","natural":"peak"}}
{"type":"Feature","geometry":{"type":"Point","coordinates":[86.7955004,28.2126211]},"properties":{"ele":"6005","name":"那朗","name:en":"Nalang","name:zh":"那朗","natural":"peak"}}
{"type":"Feature","geometry":{"type":"Point","coordinates":[86.9399794,27.9599193]},"properties":{"ele":"8372","name":"洛子中二峰 ལྷོ་རྩེ་ཀྱི་༢","name:bo":"ལྷོ་རྩེ་ཀྱི་༢","name:en":"Lhotse Middle II","name:ru":"пик Лхоцзе-Кьи II","name:zh":"洛子中二峰","natural":"peak"}}
{"type":"Feature","geometry":{"type":"Point","coordinates":[87.169512,27.8225338]},"properties":{"ele":"6347","name":"塞尔迪姆","name:en":"Saldim","name:zh":"赛尔迪姆","natural":"peak"}}
{"type":"Feature","geometry":{"type":"Point","coordinates":[87.054382,27.9263224]},"properties":{"ele":"6893","name":"查戈","name:en":"Chago","name:zh":"查戈","natural":"peak"}}
{"type":"Feature","geometry":{"type":"Point","coordinates":[87.1002792,27.9442922]},"properties":{"ele":"7565","name":"拉玛朗卓","name:en":"Lhamalangcho","name:zh":"拉玛朗卓","natural":"peak"}}
{"type":"Feature","geometry":{"type":"Point","coordinates":[87.1003645,27.8908651]},"properties":{"ele":"7950","name":"马卡鲁东峰","name:en":"Makalu East","name:zh":"马卡鲁东峰","natural":"peak"}}
{"type":"Feature","geometry":{"type":"Point","coordinates":[109.5153708,19.5149092]},"properties":{"natural":"peak"}}
{"type":"Feature","geometry":{"type":"Point","coordinates":[61.5459814,27.3110337]},"properties":{"ele":"2210","natural":"peak"}}
{"type":"Feature","geometry":{"type":"Point","coordinates":[61.3269138,27.5923243]},"properties":{"ele":"2530","natural":"peak"}}
{"type":"Feature","geometry":{"type":"Point","coordinates":[105.0473132,34.9098004]},"properties":{"natural":"peak"}}
{"type":"Feature","geometry":{"type":"Point","coordinates":[105.0540571,34.9143975]},"properties":{"natural":"peak"}}
{"type":"Feature","geometry":{"type":"Point","coordinates":[105.058659,34.917828]},"properties":{"natural":"peak"}}
{"type":"Feature","geometry":{"type":"Point","coordinates":[105.0305106,34.9117157]},"properties":{"natural":"peak"}}
{"type":"Feature","geometry":{"type":"Point","coordinates":[105.0179171,34.8998856]},"properties":{"name":"九家山","natural":"peak"}}
{"type":"Feature","geometry":{"type":"Point","coordinates":[61.3846977,27.5004859]},"properties":{"ele":"2510","natural":"peak"}}
{"type":"Feature","geometry":{"type":"Point","coordinates":[61.5601359,27.283251]},"properties":{"ele":"2330","natural":"peak"}}
{"type":"Feature","geometry":{"type":"Point","coordinates":[61.3161264,27.6009853]},"properties":{"ele":"2500","natural":"peak"}}
{"type":"Feature","geometry":{"type":"Point","coordinates":[61.6476,27.1972197]},"properties":{"ele":"2050","natural":"peak"}}
{"type":"Feature","geometry":{"type":"Point","coordinates":[61.4593563,27.4031818]},"properties":{"ele":"2210","natural":"peak"}}
{"type":"Feature","geometry":{"type":"Point","coordinates":[61.3954111,27.4902029]},"properties":{"ele":"2620","natural":"peak"}}
{"type":"Feature","geometry":{"type":"Point","coordinates":[61.6028556,27.2333315]},"properties":{"ele":"2400","natural":"peak"}}
{"type":"Feature","geometry":{"type":"Point","coordinates":[61.4590909,27.4212603]},"properties":{"ele":"2210","natural":"peak"}}
{"type":"Feature","geometry":{"type":"Point","coordinates":[61.5775822,27.2689075]},"properties":{"ele":"2210","natural":"peak"}}
{"type":"Feature","geometry":{"type":"Point","coordinates":[61.4229597,27.4985973]},"properties":{"ele":"2480","natural":"peak"}}
{"type":"Feature","geometry":{"type":"Point","coordinates":[61.4617642,27.394251]},"properties":{"ele":"2100","natural":"peak"}}
{"type":"Feature","geometry":{"type":"Point","coordinates":[61.5893961,27.2367084]},"properties":{"ele":"2430","natural":"peak"}}
{"type":"Feature","geometry":{"type":"Point","coordinates":[61.3017179,27.6026179]},"properties":{"ele":"2450","natural":"peak"}}
{"type":"Feature","geometry":{"type":"Point","coordinates":[61.662268,27.1922209]},"properties":{"ele":"1850","natural":"peak"}}
{"type":"Feature","geometry":{"type":"Point","coordinates":[61.4462072,27.4381842]},"properties":{"ele":"2340","natural":"peak"}}
{"type":"Feature","geometry":{"type":"Point","coordinates":[61.5349666,27.3259201]},"properties":{"ele":"2260","natural":"peak"}}
{"type":"Feature","geometry":{"type":"Point","coordinates":[61.357626,27.5276437]},"properties":{"ele":"2410","natural":"peak"}}
{"type":"Feature","geometry":{"type":"Point","coordinates":[61.4114682,27.5228497]},"properties":{"ele":"2210","natural":"peak"}}
{"type":"Feature","geometry":{"type":"Point","coordinates":[86.9230454,27.9592043]},"properties":{"ele":"7942","name":"ल्होत्से नुप २","name:bo":"ལྷོ་རྩེ་ནུབ་༢","name:en":"Lhotse Nup II","name:ne":"ल्होत्से नुप २","name:ru":"пик Лхоцзе-Нуп II","name:zh":"洛子西二峰","natural":"peak"}}
{"type":"Feature","geometry":{"type":"Point","coordinates":[87.2838649,28.0160807]},"properties":{"ele":"5163","name":"班拉普","name:en":"Banlapu","name:zh":"班拉普","natural":"peak"}}
{"type":"Feature","geometry":{"type":"Point","coordinates":[87.205465,28.047197]},"properties":{"ele":"5723","name":"拉萨切","name:en":"Lasaqie","name:zh":"拉萨切","natural":"peak"}}
{"type":"Feature","geometry":{"type":"Point","coordinates":[87.1636005,28.0683316]},"properties":{"ele":"6135","name":"托拉抗波切","name:en":"Tolakangboqie","name:zh":"托拉抗波切","natural":"peak"}}
{"type":"Feature","geometry":{"type":"Point","coordinates":[87.292413,27.9796916]},"properties":{"ele":"5364","name":"拉巴日","natural":"peak"}}
{"type":"Feature","geometry":{"type":"Point","coordinates":[87.264456,28.0453402]},"properties":{"ele":"5090","name":"帮久","name:en":"Bamjiun","name:zh":"帮久","natural":"peak"}}
{"type":"Feature","geometry":{"type":"Point","coordinates":[87.188051,28.1208722]},"properties":{"ele":"5631","name":"哈加舌","name:en":"Hagyasêb","name:zh":"哈加舌","natural":"peak"}}
{"type":"Feature","geometry":{"type":"Point","coordinates":[87.2133064,28.1627838]},"properties":{"ele":"5556","name":"门家朱姆","name:en":"Maiqyaqom","name:zh":"门家朱姆","natural":"peak"}}
{"type":"Feature","geometry":{"type":"Point","coordinates":[87.3073476,27.9530998]},"properties":{"ele":"5264","name":"曲姆机时日","name:en":"Qumjishi Ri","name:zh":"曲姆机时日","natural":"peak"}}
{"type":"Feature","geometry":{"type":"Point","coordinates":[87.2307825,28.1878261]},"properties":{"ele":"5015","name":"索波热","name:en":"Sopora","name:zh":"索波热","natural":"peak"}}
{"type":"Feature","geometry":{"type":"Point","coordinates":[86.836268,28.2157641]},"properties":{"ele":"5704","name":"哼拉差","name:en":"Henglachag","name:zh":"哼拉差","natural":"peak"}}
{"type":"Feature","geometry":{"type":"Point","coordinates":[87.1653127,28.1788503]},"properties":{"ele":"5831","name":"根姆","name:en":"Gengmu","name:zh":"根姆","natural":"peak"}}
{"type":"Feature","geometry":{"type":"Point","coordinates":[87.274709,28.2636827]},"properties":{"ele":"5375","name":"浪巴加","name:en":"Langbagya","name:zh":"浪巴加","natural":"peak"}}
{"type":"Feature","geometry":{"type":"Point","coordinates":[86.9618437,28.1880094]},"properties":{"ele":"5938","name":"确玛孔","name:en":"Quemakung","name:zh":"确玛孔","natural":"peak"}}
{"type":"Feature","geometry":{"type":"Point","coordinates":[87.1250222,28.2751325]},"properties":{"ele":"6158","name":"加舌","name:en":"Gyasêb","name:zh":"加舌","natural":"peak"}}
{"type":"Feature","geometry":{"type":"Point","coordinates":[87.3004876,28.1891156]},"properties":{"ele":"5241","name":"绝麻日","name:en":"Jorma Ri","name:zh":"绝麻日","natural":"peak"}}
{"type":"Feature","geometry":{"type":"Point","coordinates":[86.8523899,28.2179573]},"properties":{"ele":"6157","name":"秋布桑日","name:en":"Qiupusang Ri","name:zh":"秋布桑日","natural":"peak"}}
{"type":"Feature","geometry":{"type":"Point","coordinates":[87.2187263,28.2800512]},"properties":{"ele":"5984","name":"岗吉杰","name:en":"Gang Gyigyai","name:zh":"岗吉杰","natural":"peak"}}
{"type":"Feature","geometry":{"type":"Point","coordinates":[87.3088315,28.2792463]},"properties":{"ele":"5498","name":"曲日","name:en":"Qu Ri","name:zh":"曲日","natural":"peak"}}
{"type":"Feature","geometry":{"type":"Point","coordinates":[120.7154303,22.8952506]},"properties":{"ele":"1329","name":"京大山西北峰","natural":"peak"}}
{"type":"Feature","geometry":{"type":"Point","coordinates":[86.9441481,28.2326942]},"properties":{"ele":"5340","name":"打格下","name:en":"Dagxar","name:zh":"打格下","natural":"peak"}}
{"type":"Feature","geometry":{"type":"Point","coordinates":[86.7523226,28.2469823]},"properties":{"ele":"6183","name":"哈辟削弄","name:en":"Hapixolung","name:zh":"哈辟削弄","natural":"peak"}}
{"type":"Feature","geometry":{"type":"Point","coordinates":[86.7630656,28.2824507]},"properties":{"ele":"5868","name":"强曲旦巴日","name:en":"Qangqu Danba Ri","name:zh":"强曲旦巴日","natural":"peak"}}
{"type":"Feature","geometry":{"type":"Point","coordinates":[86.7638132,28.2192344]},"properties":{"ele":"5825","name":"曲当","name:en":"Qudang","name:zh":"曲当","natural":"peak"}}
{"type":"Feature","geometry":{"type":"Point","coordinates":[86.911253,28.2294148]},"properties":{"ele":"5612","name":"桥满钟","name:en":"Qormanchong","name:zh":"桥满钟","natural":"peak"}}
{"type":"Feature","geometry":{"type":"Point","coordinates":[89.9344685,28.2278272]},"properties":{"ele":"6230","name":"康麦隆","name:en":"Kangmailung","name:zh":"康麦隆","natural":"peak"}}
{"type":"Feature","geometry":{"type":"Point","coordinates":[89.9494984,28.2226421]},"properties":{"ele":"6220","name":"格琼","name:en":"Gêqung","name:zh":"格琼","natural":"peak"}}
{"type":"Feature","geometry":{"type":"Point","coordinates":[89.9673512,28.2249613]},"properties":{"ele":"6116","name":"国雄","name:en":"Goxong","name:zh":"国雄","natural":"peak"}}
{"type":"Feature","geometry":{"type":"Point","coordinates":[89.9794796,28.2646454]},"properties":{"ele":"5500","name":"嘎朗","name:en":"Garlang","name:zh":"嘎朗","natural":"peak"}}
{"type":"Feature","geometry":{"type":"Point","coordinates":[120.3437061,28.6863199]},"properties":{"ele":"760","name":"大炮尖","natural":"peak"}}
{"type":"Feature","geometry":{"type":"Point","coordinates":[86.9751964,28.2494534]},"properties":{"ele":"5242","name":"薄助","name:en":"Bozhu","name:zh":"薄助","natural":"peak"}}
{"type":"Feature","geometry":{"type":"Point","coordinates":[120.4909059,28.6227497]},"properties":{"ele":"942","name":"板堂山","natural":"peak"}}
{"type":"Feature","geometry":{"type":"Point","coordinates":[120.4166603,28.779441]},"properties":{"ele":"875","name":"大爿山","natural":"peak"}}
{"type":"Feature","geometry":{"type":"Point","coordinates":[120.3343637,28.6794956]},"properties":{"ele":"750","name":"长老帽头","natural":"peak"}}
{"type":"Feature","geometry":{"type":"Point","coordinates":[120.4204884,28.6336526]},"properties":{"ele":"917","name":"高鹤头","natural":"peak"}}
{"type":"Feature","geometry":{"type":"Point","coordinates":[120.4242203,28.6407181]},"properties":{"ele":"915","name":"老虎头岩","natural":"peak"}}
{"type":"Feature","geometry":{"type":"Point","coordinates":[120.353096,28.6497143]},"properties":{"ele":"846","name":"平头沿岗","natural":"peak"}}
{"type":"Feature","geometry":{"type":"Point","coordinates":[120.4949705,28.5825501]},"properties":{"ele":"1123","name":"雷公岩","natural":"peak"}}
{"type":"Feature","geometry":{"type":"Point","coordinates":[120.3433958,28.5758034]},"properties":{"ele":"875","name":"大青山","natural":"peak"}}
{"type":"Feature","geometry":{"type":"Point","coordinates":[40.9486202,20.5998018]},"properties":{"name":"عُمَد","natural":"peak"}}
{"type":"Feature","geometry":{"type":"Point","coordinates":[40.9222374,20.5714335]},"properties":{"name":"الوصَال","natural":"peak"}}
{"type":"Feature","geometry":{"type":"Point","coordinates":[120.7426489,23.5584821]},"properties":{"ele":"1161.2","name":"太里往山","natural":"peak","source":"NLSC"}}
{"type":"Feature","geometry":{"type":"Point","coordinates":[120.7093698,22.2921842]},"properties":{"name":"825岩峰","natural":"peak"}}
{"type":"Feature","geometry":{"type":"Point","coordinates":[122.4205481,10.7998941]},"properties":{"description":"View of Mt. Napulak (Igbaras). Mt. Pinihakang Daraga, Guinobatan (Tubungan). Iloilo City","name":"DMTT View Point","natural":"peak"}}
{"type":"Feature","geometry":{"type":"Point","coordinates":[47.6838432,38.2357971]},"properties":{"ele":"3613","name":"آیقار","natural":"peak"}}
{"type":"Feature","geometry":{"type":"Point","coordinates":[121.0719017,24.1704266]},"properties":{"ele":"2975.3","name":"九仙山","natural":"peak","source":"NLSC","wikidata":"Q31612097"}}
{"type":"Feature","geometry":{"type":"Point","coordinates":[120.365873,28.5727982]},"properties":{"ele":"837","name":"麦磨心岗","natural":"peak"}}
{"type":"Feature","geometry":{"type":"Point","coordinates":[120.3627725,28.5096754]},"properties":{"ele":"961","name":"新路岙头","natural":"peak"}}
{"type":"Feature","geometry":{"type":"Point","coordinates":[120.4291856,28.5968301]},"properties":{"ele":"1131.3","name":"高寮岗","natural":"peak"}}
{"type":"Feature","geometry":{"type":"Point","coordinates":[120.4458841,28.5857674]},"properties":{"name":"上寮岗","natural":"peak"}}
{"type":"Feature","geometry":{"type":"Point","coordinates":[120.4312664,28.5691581]},"properties":{"ele":"1203","name":"天顶寺","natural":"peak"}}
{"type":"Feature","geometry":{"type":"Point","coordinates":[121.0965558,24.1222439]},"properties":{"ele":"1975","name":"八東山北峰","natural":"peak","was:natural":"peak"}}
{"type":"Feature","geometry":{"type":"Point","coordinates":[120.3431292,28.499965]},"properties":{"ele":"1184","name":"天堂尖","natural":"peak"}}
{"type":"Feature","geometry":{"type":"Point","coordinates":[120.3426895,28.5072415]},"properties":{"ele":"902","name":"羊角尖","natural":"peak"}}
{"type":"Feature","geometry":{"type":"Point","coordinates":[120.3627273,28.5155334]},"properties":{"ele":"1015","name":"月亮岙","natural":"peak"}}
{"type":"Feature","geometry":{"type":"Point","coordinates":[121.0916476,24.1045453]},"properties":{"ele":"1523.0","name":"八東山南峰","natural":"peak","source":"NLSC","was:natural":"peak"}}
{"type":"Feature","geometry":{"type":"Point","coordinates":[120.606694,28.6679706]},"properties":{"ele":"880","name":"毕锡岩","natural":"peak"}}
{"type":"Feature","geometry":{"type":"Point","coordinates":[120.5859353,28.6881068]},"properties":{"ele":"875.2","name":"犁冲岩","natural":"peak"}}
{"type":"Feature","geometry":{"type":"Point","coordinates":[47.1392096,34.3961332]},"properties":{"ele":"1880","name":"زرده بلین","name:ckb":"زەردە بلین","name:ku":"Zerdebilîn","natural":"peak"}}
{"type":"Feature","geometry":{"type":"Point","coordinates":[40.8653925,48.2129624]},"properties":{"natural":"peak"}}
{"type":"Feature","geometry":{"type":"Point","coordinates":[44.0059532,42.2541514]},"properties":{"name":"Вершина горы","name:en":"Mountain top","name:os":"Хохы цъупп","name:ru":"Верщины горы","natural":"peak"}}
{"type":"Feature","geometry":{"type":"Point","coordinates":[120.6391243,28.5600925]},"properties":{"ele":"1164","name":"大里山","natural":"peak"}}
{"type":"Feature","geometry":{"type":"Point","coordinates":[120.6199952,28.6165837]},"properties":{"ele":"780","name":"光岩背","natural":"peak"}}
{"type":"Feature","geometry":{"type":"Point","coordinates":[120.6576877,28.6107173]},"properties":{"ele":"850","name":"双柱岩","natural":"peak"}}
{"type":"Feature","geometry":{"type":"Point","coordinates":[120.6151998,28.6784436]},"properties":{"ele":"831","name":"高玉岩","natural":"peak"}}
{"type":"Feature","geometry":{"type":"Point","coordinates":[120.5778546,28.7124489]},"properties":{"ele":"481","name":"隐将岩","natural":"peak"}}
{"type":"Feature","geometry":{"type":"Point","coordinates":[120.6177094,28.7014086]},"properties":{"ele":"698","name":"岩门","natural":"peak"}}
{"type":"Feature","geometry":{"type":"Point","coordinates":[120.6204581,28.5610518]},"properties":{"ele":"1047","name":"石峰岭","natural":"peak"}}
{"type":"Feature","geometry":{"type":"Point","coordinates":[120.5585923,28.5992593]},"properties":{"ele":"1091.3","name":"天高尖","natural":"peak"}}
{"type":"Feature","geometry":{"type":"Point","coordinates":[120.6450493,28.672294]},"properties":{"ele":"740","name":"保将岩","natural":"peak"}}
{"type":"Feature","geometry":{"type":"Point","coordinates":[120.6457199,28.6975851]},"properties":{"ele":"703","name":"小岩","natural":"peak"}}
{"type":"Feature","geometry":{"type":"Point","coordinates":[120.6229376,28.6795351]},"properties":{"ele":"794","name":"岩屋","natural":"peak"}}
{"type":"Feature","geometry":{"type":"Point","coordinates":[120.6191536,28.7099948]},"properties":{"ele":"651","name":"西岩","natural":"peak"}}
{"type":"Feature","geometry":{"type":"Point","coordinates":[120.6506813,28.7307269]},"properties":{"ele":"475","name":"马岗岩","natural":"peak"}}
{"type":"Feature","geometry":{"type":"Point","coordinates":[120.5873424,28.6991224]},"properties":{"ele":"765","name":"苍岩背","natural":"peak"}}
{"type":"Feature","geometry":{"type":"Point","coordinates":[120.9062011,24.4676171]},"properties":{"alt_name":"蓮台山","ele":"749.6","name":"十一分山","natural":"peak","source":"NLSC","wikidata":"Q31618201"}}
{"type":"Feature","geometry":{"type":"Point","coordinates":[120.6370183,28.6780267]},"properties":{"ele":"713","name":"雪洞前","natural":"peak"}}
{"type":"Feature","geometry":{"type":"Point","coordinates":[120.8986239,24.4553802]},"properties":{"alt_name":"三寮坑山東峰","ele":"621.6","name":"三寮坑山","natural":"peak","source":"NLSC"}}
{"type":"Feature","geometry":{"type":"Point","coordinates":[120.6022791,28.696008]},"properties":{"ele":"707","name":"鸡冠岩","natural":"peak"}}
{"type":"Feature","geometry":{"type":"Point","coordinates":[120.632019,28.6745403]},"properties":{"ele":"776","name":"大爿腰","natural":"peak"}}
{"type":"Feature","geometry":{"type":"Point","coordinates":[120.6261692,28.6691757]},"properties":{"ele":"910","name":"光玉岩","natural":"peak"}}
{"type":"Feature","geometry":{"type":"Point","coordinates":[120.6209117,28.6904245]},"properties":{"ele":"726","name":"老虎岩","natural":"peak"}}
{"type":"Feature","geometry":{"type":"Point","coordinates":[121.5069009,22.6769571]},"properties":{"description":"無字基石V227","ele":"82","name":"牛頭山","natural":"peak"}}
{"type":"Feature","geometry":{"type":"Point","coordinates":[120.7395374,28.9682677]},"properties":{"ele":"809","name":"寺后山","natural":"peak"}}
{"type":"Feature","geometry":{"type":"Point","coordinates":[120.905828,28.7092549]},"properties":{"ele":"1042","name":"叫岩","natural":"peak"}}
{"type":"Feature","geometry":{"type":"Point","coordinates":[120.8811823,28.7187169]},"properties":{"ele":"810","name":"开口岩","natural":"peak"}}
{"type":"Feature","geometry":{"type":"Point","coordinates":[120.5231574,28.6439338]},"properties":{"ele":"795","name":"月坑尖","natural":"peak"}}
{"type":"Feature","geometry":{"type":"Point","coordinates":[120.5908248,28.6741845]},"properties":{"name":"天柱岩","natural":"peak"}}
{"type":"Feature","geometry":{"type":"Point","coordinates":[135.1527836,34.1931402]},"properties":{"name":"狐山","natural":"peak"}}
{"type":"Feature","geometry":{"type":"Point","coordinates":[120.9000126,28.784179]},"properties":{"ele":"987","name":"长岗山","natural":"peak"}}
{"type":"Feature","geometry":{"type":"Point","coordinates":[120.700484,28.8914068]},"properties":{"ele":"513","name":"水闸山","natural":"peak"}}
{"type":"Feature","geometry":{"type":"Point","coordinates":[120.7620137,28.9352959]},"properties":{"ele":"806","name":"冷水孔岗","natural":"peak"}}
{"type":"Feature","geometry":{"type":"Point","coordinates":[120.8391066,28.9233507]},"properties":{"ele":"984.1","name":"路田山","natural":"peak"}}
{"type":"Feature","geometry":{"type":"Point","coordinates":[120.8194996,28.9472223]},"properties":{"ele":"951","name":"跑马坪","natural":"peak"}}
{"type":"Feature","geometry":{"type":"Point","coordinates":[120.6872906,28.966108]},"properties":{"ele":"1029","name":"祝大坪岗","natural":"peak"}}
{"type":"Feature","geometry":{"type":"Point","coordinates":[120.7045736,28.9709157]},"properties":{"ele":"1129","name":"仰天岗","natural":"peak"}}
{"type":"Feature","geometry":{"type":"Point","coordinates":[120.7291196,28.9300755]},"properties":{"ele":"1092.3","name":"白雪背岗","natural":"peak"}}
{"type":"Feature","geometry":{"type":"Point","coordinates":[120.7589621,28.7450004]},"properties":{"ele":"793.4","name":"官山背","natural":"peak"}}
{"type":"Feature","geometry":{"type":"Point","coordinates":[120.7497179,28.6647092]},"properties":{"ele":"851.8","name":"马鞍山","natural":"peak"}}
{"type":"Feature","geometry":{"type":"Point","coordinates":[90.1266979,28.1245123]},"properties":{"ele":"6334","name":"康普岗 IV 峰","name:zh":"康普岗 IV 峰","natural":"peak"}}
{"type":"Feature","geometry":{"type":"Point","coordinates":[103.3033275,27.7289509]},"properties":{"natural":"peak"}}
{"type":"Feature","geometry":{"type":"Point","coordinates":[103.2896697,27.7193303]},"properties":{"natural":"peak"}}
{"type":"Feature","geometry":{"type":"Point","coordinates":[103.31249,27.6763074]},"properties":{"natural":"peak"}}
{"type":"Feature","geometry":{"type":"Point","coordinates":[103.3251393,27.682825]},"properties":{"natural":"peak"}}
{"type":"Feature","geometry":{"type":"Point","coordinates":[120.7130751,28.664457]},"properties":{"ele":"640","name":"石桥山","natural":"peak"}}
{"type":"Feature","geometry":{"type":"Point","coordinates":[70.6536779,39.5342984]},"properties":{"name":"Обрыв","natural":"peak"}}
{"type":"Feature","geometry":{"type":"Point","coordinates":[70.6847523,39.5267986]},"properties":{"natural":"peak"}}
{"type":"Feature","geometry":{"type":"Point","coordinates":[70.6277125,39.5798906]},"properties":{"name":"Цитадель","natural":"peak"}}
{"type":"Feature","geometry":{"type":"Point","coordinates":[70.565147,39.5916578]},"properties":{"name":"Землепроходцев","natural":"peak"}}
{"type":"Feature","geometry":{"type":"Point","coordinates":[70.5236435,39.5830025]},"properties":{"natural":"peak"}}
{"type":"Feature","geometry":{"type":"Point","coordinates":[70.4261728,39.6399748]},"properties":{"ele":"4948","int_name":"Ming-Teke","name":"Минг-Теке","name:ru":"Гора Минг-Теке","natural":"peak"}}
{"type":"Feature","geometry":{"type":"Point","coordinates":[70.4158159,39.6211461]},"properties":{"ele":"5278","name":"Гранитный","name:ru":"пик Гранитный","natural":"peak"}}
{"type":"Feature","geometry":{"type":"Point","coordinates":[70.3433132,39.5222337]},"properties":{"ele":"5013","int_name":"Gorniak","name":"Горняк","natural":"peak"}}
{"type":"Feature","geometry":{"type":"Point","coordinates":[70.3842973,39.5592175]},"properties":{"ele":"5050","natural":"peak"}}
{"type":"Feature","geometry":{"type":"Point","coordinates":[70.5210685,39.5878974]},"properties":{"natural":"peak"}}
{"type":"Feature","geometry":{"type":"Point","coordinates":[70.6839827,39.5454852]},"properties":{"name":"Матча","natural":"peak"}}
{"type":"Feature","geometry":{"type":"Point","coordinates":[102.1432614,36.9989711]},"properties":{"natural":"peak"}}
{"type":"Feature","geometry":{"type":"Point","coordinates":[102.2617721,37.0090471]},"properties":{"natural":"peak"}}
{"type":"Feature","geometry":{"type":"Point","coordinates":[102.2556996,37.0280643]},"properties":{"natural":"peak"}}
{"type":"Feature","geometry":{"type":"Point","coordinates":[90.1522678,28.1923994]},"properties":{"ele":"6461","name":"晓拉日 III 峰","name:en":"Xolha Ri III","name:zh":"晓拉日 III 峰","natural":"peak"}}
{"type":"Feature","geometry":{"type":"Point","coordinates":[90.2274157,28.1720989]},"properties":{"ele":"6766","natural":"peak"}}
{"type":"Feature","geometry":{"type":"Point","coordinates":[120.6058073,28.8566377]},"properties":{"ele":"900","name":"百丘岗","natural":"peak"}}
{"type":"Feature","geometry":{"type":"Point","coordinates":[120.6172234,28.863816]},"properties":{"ele":"843","name":"三迭岩","natural":"peak"}}
{"type":"Feature","geometry":{"type":"Point","coordinates":[90.1684548,28.1854719]},"properties":{"ele":"6728","name":"晓拉日 I 峰","name:en":"Xolha Ri I","name:zh":"晓拉日 I 峰","natural":"peak"}}
{"type":"Feature","geometry":{"type":"Point","coordinates":[90.1610148,28.1919339]},"properties":{"ele":"6524","name":"晓拉日 II 峰","name:en":"Xolha Ri II","name:zh":"晓拉日 II 峰","natural":"peak"}}
{"type":"Feature","geometry":{"type":"Point","coordinates":[120.886896,28.7299655]},"properties":{"ele":"1032","name":"五角尖","natural":"peak"}}
{"type":"Feature","geometry":{"type":"Point","coordinates":[90.1665509,28.2357486]},"properties":{"ele":"5893","name":"那木定日","name:en":"Namoding Ri","name:zh":"那木定日","natural":"peak"}}
{"type":"Feature","geometry":{"type":"Point","coordinates":[90.1989883,28.2697418]},"properties":{"ele":"5657","name":"底龙日","name:en":"Dilung Ri","name:zh":"底龙日","natural":"peak"}}
{"type":"Feature","geometry":{"type":"Point","coordinates":[90.1238569,28.2728962]},"properties":{"ele":"5650","name":"共巴新金","name:en":"Kongba Shinchen","name:zh":"共巴新金","natural":"peak"}}
{"type":"Feature","geometry":{"type":"Point","coordinates":[90.1977721,28.1560856]},"properties":{"ele":"6988","name":"增康布岗 II","name:en":"Zongophu Kang II","name:zh":"增康布岗 II","natural":"peak"}}
{"type":"Feature","geometry":{"type":"Point","coordinates":[120.6982663,28.7357832]},"properties":{"ele":"724","name":"马兰花尖","natural":"peak"}}
{"type":"Feature","geometry":{"type":"Point","coordinates":[120.8888531,28.7519223]},"properties":{"ele":"788","name":"双和尖","natural":"peak"}}
{"type":"Feature","geometry":{"type":"Point","coordinates":[120.6203406,28.8666582]},"properties":{"ele":"895","name":"十八郎","natural":"peak"}}
{"type":"Feature","geometry":{"type":"Point","coordinates":[120.8772517,28.7427062]},"properties":{"ele":"938","name":"白岩头岗","natural":"peak"}}
{"type":"Feature","geometry":{"type":"Point","coordinates":[120.7031687,28.6425683]},"properties":{"ele":"767","name":"沙溜尖","natural":"peak"}}
{"type":"Feature","geometry":{"type":"Point","coordinates":[90.3417977,28.1942476]},"properties":{"ele":"6944","name":"各贾岗日","name:en":"Gejag Kangri","name:zh":"各贾岗日","natural":"peak"}}
{"type":"Feature","geometry":{"type":"Point","coordinates":[90.4013172,28.188041]},"properties":{"ele":"6547","name":"巴里加岗日","name:en":"Baliga Kangri","name:zh":"巴里加岗日","natural":"peak"}}
{"type":"Feature","geometry":{"type":"Point","coordinates":[90.4053312,28.203921]},"properties":{"ele":"6180","name":"尚哥","name:en":"Shanggo","name:zh":"尚哥","natural":"peak"}}
{"type":"Feature","geometry":{"type":"Point","coordinates":[90.3925037,28.2224448]},"properties":{"ele":"5924","name":"底虫当","name:en":"Dichomdang","name:zh":"底虫当","natural":"peak"}}
{"type":"Feature","geometry":{"type":"Point","coordinates":[120.8758337,28.7497443]},"properties":{"ele":"808","name":"许山","natural":"peak"}}
{"type":"Feature","geometry":{"type":"Point","coordinates":[157.9637454,52.5709108]},"properties":{"ele":"1204","name":"г. Шпиль","natural":"peak"}}
{"type":"Feature","geometry":{"type":"Point","coordinates":[77.2983964,43.238928]},"properties":{"ele":"2487","int_name":"Kurtogay","name":"Куртогай","name:en":"Kurtogay","name:ru":"Куртогай","natural":"peak"}}
{"type":"Feature","geometry":{"type":"Point","coordinates":[105.8585241,32.2878822]},"properties":{"natural":"peak"}}
{"type":"Feature","geometry":{"type":"Point","coordinates":[105.9028056,32.2292747]},"properties":{"natural":"peak"}}
{"type":"Feature","geometry":{"type":"Point","coordinates":[105.8652967,32.237659]},"properties":{"natural":"peak"}}
{"type":"Feature","geometry":{"type":"Point","coordinates":[105.8875789,32.1709069]},"properties":{"natural":"peak"}}
{"type":"Feature","geometry":{"type":"Point","coordinates":[104.0431833,34.4032341]},"properties":{"natural":"peak"}}
{"type":"Feature","geometry":{"type":"Point","coordinates":[104.098573,34.4290093]},"properties":{"natural":"peak"}}
{"type":"Feature","geometry":{"type":"Point","coordinates":[104.0582519,34.4086758]},"properties":{"natural":"peak"}}
{"type":"Feature","geometry":{"type":"Point","coordinates":[33.8337419,28.54903]},"properties":{"description":"The mountain near St. Catherine, specifically in Wadi Baghbagh\n  The height of the mountain is 1769 m above sea level\n  The mountain was discovered by adventurer and mountaineer Mai Adel, and she named it her mother name, So it became Salwa Mountain","ele":"1769","name":"Salwa mountain","name:ar":"جبل سلوى","natural":"peak"}}
{"type":"Feature","geometry":{"type":"Point","coordinates":[117.1866633,31.1034615]},"properties":{"name":"岱鳌山","natural":"peak"}}
{"type":"Feature","geometry":{"type":"Point","coordinates":[90.6451263,28.2609351]},"properties":{"ele":"7216","name":"卡热疆 II 峰","name:en":"Karejiang II","name:zh":"卡热疆 II 峰","natural":"peak"}}
{"type":"Feature","geometry":{"type":"Point","coordinates":[90.7308812,28.2502707]},"properties":{"ele":"5194","name":"假打热","name:en":"Gyadara","name:zh":"假打热","natural":"peak"}}
{"type":"Feature","geometry":{"type":"Point","coordinates":[90.7638782,28.2231848]},"properties":{"ele":"5201","name":"陇布日","name:en":"Lungbu Ri","name:zh":"陇布日","natural":"peak"}}
{"type":"Feature","geometry":{"type":"Point","coordinates":[90.7654319,28.2031196]},"properties":{"ele":"5286","name":"得日朗","name:en":"Derilang","name:zh":"得日朗","natural":"peak"}}
{"type":"Feature","geometry":{"type":"Point","coordinates":[90.6884319,28.1917839]},"properties":{"ele":"5352","name":"雅真","name:en":"Yazhin","name:zh":"雅真","natural":"peak"}}
{"type":"Feature","geometry":{"type":"Point","coordinates":[90.6557702,28.1858718]},"properties":{"ele":"5632","name":"民巴","name:en":"Minba","name:zh":"民巴","natural":"peak"}}
{"type":"Feature","geometry":{"type":"Point","coordinates":[90.6369985,28.2974944]},"properties":{"ele":"5800","name":"错吉果","name:en":"Cogyigo","name:zh":"错吉果","natural":"peak"}}
{"type":"Feature","geometry":{"type":"Point","coordinates":[90.6719505,28.2982716]},"properties":{"ele":"5910","name":"增琼拉姆","name:en":"Zingqunglham","name:zh":"增琼拉姆","natural":"peak"}}
{"type":"Feature","geometry":{"type":"Point","coordinates":[90.6121858,28.3278495]},"properties":{"ele":"5326","name":"米金阿珠","name:en":"Miqên Ngazhug","name:zh":"米金阿珠","natural":"peak"}}
{"type":"Feature","geometry":{"type":"Point","coordinates":[90.7113257,28.3447364]},"properties":{"ele":"5527","name":"拉玛日","name:en":"Lama Ri","name:zh":"拉玛日","natural":"peak"}}
{"type":"Feature","geometry":{"type":"Point","coordinates":[90.7770159,28.279251]},"properties":{"ele":"5490","name":"劣波日","name:en":"Lêpo Ri","name:zh":"劣波日","natural":"peak"}}
{"type":"Feature","geometry":{"type":"Point","coordinates":[90.8139679,28.2914181]},"properties":{"ele":"5810","name":"加普岗日","name:en":"Gyapu Kangri","name:zh":"加普岗日","natural":"peak"}}
{"type":"Feature","geometry":{"type":"Point","coordinates":[74.4610151,33.815311]},"properties":{"name":"Guruwan Kharang","natural":"peak"}}
{"type":"Feature","geometry":{"type":"Point","coordinates":[74.4818753,33.7969389]},"properties":{"name":"Khari Lab","natural":"peak"}}
{"type":"Feature","geometry":{"type":"Point","coordinates":[89.7681541,28.197044]},"properties":{"ele":"5855","name":"查玛桑叶","name:en":"Chama Samye","name:zh":"查玛桑叶","natural":"peak"}}
{"type":"Feature","geometry":{"type":"Point","coordinates":[88.1881271,27.9886843]},"properties":{"ele":"6420","name":"卡隆普岗","natural":"peak"}}
{"type":"Feature","geometry":{"type":"Point","coordinates":[88.1280945,28.0153447]},"properties":{"ele":"6334","name":"康团次玛","name:en":"Kangtengcarma","name:zh":"康团次玛","natural":"peak"}}
{"type":"Feature","geometry":{"type":"Point","coordinates":[88.1619598,28.010481]},"properties":{"ele":"6242","name":"克隆岗","name:en":"Kelung Kang","name:zh":"克隆岗","natural":"peak"}}
{"type":"Feature","geometry":{"type":"Point","coordinates":[88.4730471,28.0333493]},"properties":{"ele":"5553","name":"也日莫波 Yerimopo","name:en":"Yerimopo","name:zh":"也日莫波","natural":"peak"}}
{"type":"Feature","geometry":{"type":"Point","coordinates":[88.3365528,27.984152]},"properties":{"ele":"6204","name":"寇拉曲尼岗 I Kora Chone Kang I","name:en":"Kora Chone Kang I","name:zh":"寇拉曲尼岗 I","natural":"peak"}}
{"type":"Feature","geometry":{"type":"Point","coordinates":[88.430555,28.0097426]},"properties":{"ele":"5712","name":"拉穷岗日 Lachung Kangri","name:en":"Lachung Kangri","name:zh":"拉穷岗日","natural":"peak"}}
{"type":"Feature","geometry":{"type":"Point","coordinates":[88.4222292,28.0171796]},"properties":{"ele":"5670","name":"节潘塘","name:en":"Gyepanthang","name:zh":"节潘塘","natural":"peak"}}
{"type":"Feature","geometry":{"type":"Point","coordinates":[88.390258,28.0169446]},"properties":{"ele":"6010","name":"龙琼吓","name:en":"Lungchungshar","name:zh":"龙琼吓","natural":"peak"}}
{"type":"Feature","geometry":{"type":"Point","coordinates":[88.2140357,27.9785348]},"properties":{"ele":"6214","name":"农巴脑","name:en":"Nungba'nau","name:zh":"农巴脑","natural":"peak"}}
{"type":"Feature","geometry":{"type":"Point","coordinates":[88.0939023,28.0296905]},"properties":{"ele":"6244","name":"郎阿","name:en":"Langnga","name:zh":"朗阿","natural":"peak"}}
{"type":"Feature","geometry":{"type":"Point","coordinates":[88.0400581,28.021503]},"properties":{"ele":"6466","name":"岗拉庆 / 康郎节","name:en":"Ganglachen / Kanglangja","name:zh":"岗拉庆 / 康郎节","natural":"peak"}}
{"type":"Feature","geometry":{"type":"Point","coordinates":[58.5374549,53.4492857]},"properties":{"ele":"565","natural":"peak"}}
{"type":"Feature","geometry":{"type":"Point","coordinates":[100.2389786,5.3904801]},"properties":{"ele":"720","name":"Bukit Batu Itam","natural":"peak"}}
{"type":"Feature","geometry":{"type":"Point","coordinates":[90.1182793,28.193129]},"properties":{"ele":"6080","name":"什娥布桑","name:en":"Shier Pusang","name:zh":"什娥布桑","natural":"peak"}}
{"type":"Feature","geometry":{"type":"Point","coordinates":[90.4272781,28.0998336]},"properties":{"ele":"7021","name":"良岗岗日北峰","name:en":"Liangkang Kangri North","name:zh":"良岗岗日北峰","natural":"peak"}}
{"type":"Feature","geometry":{"type":"Point","coordinates":[90.5300695,28.084572]},"properties":{"ele":"6468","name":"错嘎龙岗日","name:en":"Cogalung Kangri","name:zh":"错嘎龙岗日","natural":"peak"}}
{"type":"Feature","geometry":{"type":"Point","coordinates":[90.5975005,28.0755073]},"properties":{"ele":"5644","name":"羊玛格布热","name:en":"Yangma Gebura","name:zh":"羊玛格布热","natural":"peak"}}
{"type":"Feature","geometry":{"type":"Point","coordinates":[90.6140827,28.1128828]},"properties":{"ele":"5824","name":"挡左岗日","name:en":"Dangzo Kangri","name:zh":"挡左岗日","natural":"peak"}}
{"type":"Feature","geometry":{"type":"Point","coordinates":[112.7400823,25.7412719]},"properties":{"name":"东塔岭","natural":"peak"}}
{"type":"Feature","geometry":{"type":"Point","coordinates":[112.7160116,25.7412519]},"properties":{"name":"宝山","natural":"peak"}}
{"type":"Feature","geometry":{"type":"Point","coordinates":[133.0588401,35.4541196]},"properties":{"ele":"41","name":"床几山","natural":"peak"}}
{"type":"Feature","geometry":{"type":"Point","coordinates":[107.7227175,27.1768414]},"properties":{"natural":"peak"}}
{"type":"Feature","geometry":{"type":"Point","coordinates":[107.7167094,27.1763164]},"properties":{"natural":"peak"}}
{"type":"Feature","geometry":{"type":"Point","coordinates":[107.7215052,27.1810981]},"properties":{"natural":"peak"}}
{"type":"Feature","geometry":{"type":"Point","coordinates":[107.6917219,27.1847916]},"properties":{"natural":"peak"}}
{"type":"Feature","geometry":{"type":"Point","coordinates":[107.7288437,27.187521]},"properties":{"natural":"peak"}}
{"type":"Feature","geometry":{"type":"Point","coordinates":[107.7392721,27.1911857]},"properties":{"natural":"peak"}}
{"type":"Feature","geometry":{"type":"Point","coordinates":[107.7432632,27.185765]},"properties":{"natural":"peak"}}
{"type":"Feature","geometry":{"type":"Point","coordinates":[107.7181792,27.168967]},"properties":{"natural":"peak"}}
{"type":"Feature","geometry":{"type":"Point","coordinates":[107.7344227,27.1682225]},"properties":{"natural":"peak"}}
{"type":"Feature","geometry":{"type":"Point","coordinates":[107.724595,27.1709333]},"properties":{"natural":"peak"}}
{"type":"Feature","geometry":{"type":"Point","coordinates":[107.734884,27.1835413]},"properties":{"natural":"peak"}}
{"type":"Feature","geometry":{"type":"Point","coordinates":[107.6680219,27.1551449]},"properties":{"natural":"peak"}}
{"type":"Feature","geometry":{"type":"Point","coordinates":[107.5142884,27.1168293]},"properties":{"natural":"peak"}}
{"type":"Feature","geometry":{"type":"Point","coordinates":[107.6091313,27.1221291]},"properties":{"natural":"peak"}}
{"type":"Feature","geometry":{"type":"Point","coordinates":[107.606771,27.1340075]},"properties":{"natural":"peak"}}
{"type":"Feature","geometry":{"type":"Point","coordinates":[107.6031232,27.1304556]},"properties":{"natural":"peak"}}
{"type":"Feature","geometry":{"type":"Point","coordinates":[107.5941324,27.1294626]},"properties":{"natural":"peak"}}
{"type":"Feature","geometry":{"type":"Point","coordinates":[107.6443004,27.1443953]},"properties":{"natural":"peak"}}
{"type":"Feature","geometry":{"type":"Point","coordinates":[107.6441073,27.1522619]},"properties":{"natural":"peak"}}
{"type":"Feature","geometry":{"type":"Point","coordinates":[103.7509775,27.8153368]},"properties":{"natural":"peak"}}
{"type":"Feature","geometry":{"type":"Point","coordinates":[36.0514288,36.1504778]},"properties":{"natural":"peak"}}
{"type":"Feature","geometry":{"type":"Point","coordinates":[120.8318962,28.5172552]},"properties":{"ele":"894","name":"高山岗","natural":"peak"}}
{"type":"Feature","geometry":{"type":"Point","coordinates":[87.620901,28.0824844]},"properties":{"ele":"6580","name":"阿玛直米东峰","name:en":"Ama Drime East","name:zh":"阿玛直米东峰","natural":"peak"}}
{"type":"Feature","geometry":{"type":"Point","coordinates":[87.6006762,28.1028869]},"properties":{"ele":"6370","name":"阿玛直米北 I 峰","name:en":"Ama Drime North I","name:zh":"阿玛直米北 I 峰","natural":"peak"}}
{"type":"Feature","geometry":{"type":"Point","coordinates":[87.605698,28.108888]},"properties":{"ele":"6240","name":"阿玛直米北 II 峰","name:en":"Ama Drime North II","name:zh":"阿玛直米北 II 峰","natural":"peak"}}
{"type":"Feature","geometry":{"type":"Point","coordinates":[120.8094446,28.618614]},"properties":{"ele":"1125","name":"白峰尖","natural":"peak"}}
{"type":"Feature","geometry":{"type":"Point","coordinates":[87.6071719,28.0490741]},"properties":{"ele":"6365","name":"阿玛直米南峰 -Ama Drime South","name:en":"Ama Drime South","name:zh":"阿玛直米南峰","natural":"peak"}}
{"type":"Feature","geometry":{"type":"Point","coordinates":[120.821738,28.4993453]},"properties":{"ele":"685","name":"白岩山","natural":"peak"}}
{"type":"Feature","geometry":{"type":"Point","coordinates":[120.8564461,28.5239178]},"properties":{"ele":"962","name":"小对山","natural":"peak"}}
{"type":"Feature","geometry":{"type":"Point","coordinates":[120.8548146,28.513991]},"properties":{"ele":"1074","name":"仰天湖","natural":"peak"}}
{"type":"Feature","geometry":{"type":"Point","coordinates":[120.0952062,30.0000464]},"properties":{"ele":"756.8","name":"孙家山","natural":"peak"}}
{"type":"Feature","geometry":{"type":"Point","coordinates":[60.1842543,56.4244193]},"properties":{"name":"Никольская","name:en":"Nikolskaya","natural":"peak"}}
{"type":"Feature","geometry":{"type":"Point","coordinates":[120.8618191,28.5399431]},"properties":{"ele":"1083","name":"大岙尖","natural":"peak"}}
{"type":"Feature","geometry":{"type":"Point","coordinates":[120.8980016,28.5448444]},"properties":{"ele":"1087","name":"磨石坑","natural":"peak"}}
{"type":"Feature","geometry":{"type":"Point","coordinates":[120.9085939,28.4948657]},"properties":{"ele":"1121","name":"望海岗","natural":"peak"}}
{"type":"Feature","geometry":{"type":"Point","coordinates":[120.862313,28.556074]},"properties":{"ele":"775","name":"岙东岭","natural":"peak"}}
{"type":"Feature","geometry":{"type":"Point","coordinates":[120.9103475,28.5205124]},"properties":{"ele":"722","name":"子木坑岭头","natural":"peak"}}
{"type":"Feature","geometry":{"type":"Point","coordinates":[120.9371193,28.5409485]},"properties":{"ele":"477","name":"牛角尖","natural":"peak"}}
{"type":"Feature","geometry":{"type":"Point","coordinates":[120.4898631,23.2391142]},"properties":{"name":"雙片掀山","natural":"peak"}}
{"type":"Feature","geometry":{"type":"Point","coordinates":[120.4907053,23.2415512]},"properties":{"name":"水根崙","natural":"peak"}}
{"type":"Feature","geometry":{"type":"Point","coordinates":[120.5152247,23.3001912]},"properties":{"name":"明峰","natural":"peak"}}
{"type":"Feature","geometry":{"type":"Point","coordinates":[114.1920651,22.668071]},"properties":{"name":"跌死牛","natural":"peak"}}
{"type":"Feature","geometry":{"type":"Point","coordinates":[114.184083,22.6591064]},"properties":{"name":"冬瓜岭","natural":"peak"}}
{"type":"Feature","geometry":{"type":"Point","coordinates":[116.0395064,39.8461283]},"properties":{"ele":"458","name":"金字山","natural":"peak"}}
{"type":"Feature","geometry":{"type":"Point","coordinates":[140.1085861,40.1507319]},"properties":{"ele":"116.4","natural":"peak"}}
{"type":"Feature","geometry":{"type":"Point","coordinates":[120.6828918,23.4138427]},"properties":{"name":"象山","natural":"peak"}}
{"type":"Feature","geometry":{"type":"Point","coordinates":[100.5414214,25.50167]},"properties":{"alt_name":"褚家山","name":"诸葛寨山","natural":"peak"}}
{"type":"Feature","geometry":{"type":"Point","coordinates":[106.2835514,35.5779724]},"properties":{"natural":"peak"}}
{"type":"Feature","geometry":{"type":"Point","coordinates":[106.2956214,35.5872563]},"properties":{"natural":"peak"}}
{"type":"Feature","geometry":{"type":"Point","coordinates":[111.794343,22.9369345]},"properties":{"natural":"peak"}}
{"type":"Feature","geometry":{"type":"Point","coordinates":[111.7808675,22.9471308]},"properties":{"natural":"peak"}}
{"type":"Feature","geometry":{"type":"Point","coordinates":[111.7985487,22.9649528]},"properties":{"natural":"peak"}}
{"type":"Feature","geometry":{"type":"Point","coordinates":[111.8124962,22.9832861]},"properties":{"natural":"peak"}}
{"type":"Feature","geometry":{"type":"Point","coordinates":[111.8218732,22.9667309]},"properties":{"natural":"peak"}}
{"type":"Feature","geometry":{"type":"Point","coordinates":[111.891557,22.9279626]},"properties":{"natural":"peak"}}
{"type":"Feature","geometry":{"type":"Point","coordinates":[111.8736934,22.9830491]},"properties":{"natural":"peak"}}
{"type":"Feature","geometry":{"type":"Point","coordinates":[111.8871474,22.9612187]},"properties":{"natural":"peak"}}
{"type":"Feature","geometry":{"type":"Point","coordinates":[48.1036459,53.9176899]},"properties":{"natural":"peak"}}
{"type":"Feature","geometry":{"type":"Point","coordinates":[48.2139364,53.8628772]},"properties":{"natural":"peak"}}
{"type":"Feature","geometry":{"type":"Point","coordinates":[87.543762,28.0226292]},"properties":{"ele":"5090","name":"日仁玛","name:en":"Riringma","name:zh":"日仁玛","natural":"peak"}}
{"type":"Feature","geometry":{"type":"Point","coordinates":[87.4913702,28.0053469]},"properties":{"ele":"5120","name":"宁日","name:en":"Ning Ri","name:zh":"宁日","natural":"peak"}}
{"type":"Feature","geometry":{"type":"Point","coordinates":[87.5672534,27.9332758]},"properties":{"ele":"5354","name":"崩日","name:en":"Bum Ri","name:zh":"崩日","natural":"peak"}}
{"type":"Feature","geometry":{"type":"Point","coordinates":[87.5394421,27.8798926]},"properties":{"ele":"5444","name":"朗岩日","name:en":"Langyan Ri","name:zh":"朗岩日","natural":"peak"}}
{"type":"Feature","geometry":{"type":"Point","coordinates":[120.8452743,28.6223652]},"properties":{"ele":"1063","name":"大孔山","natural":"peak"}}
{"type":"Feature","geometry":{"type":"Point","coordinates":[121.0763367,29.1769653]},"properties":{"ele":"590","name":"洋山尖","natural":"peak"}}
{"type":"Feature","geometry":{"type":"Point","coordinates":[121.0557976,29.1839134]},"properties":{"ele":"592","name":"后门寺","natural":"peak"}}
{"type":"Feature","geometry":{"type":"Point","coordinates":[87.5374378,27.8437103]},"properties":{"ele":"4936","name":"错亚囊","name:en":"Chhoyanang","name:zh":"错亚囊","natural":"peak"}}
{"type":"Feature","geometry":{"type":"Point","coordinates":[87.4939399,27.8436172]},"properties":{"ele":"4472","name":"拉布索","name:en":"Lapso","name:zh":"拉布索","natural":"peak"}}
{"type":"Feature","geometry":{"type":"Point","coordinates":[87.4818777,27.8423971]},"properties":{"ele":"4350","name":"错银卡","name:en":"Chhoinkha","name:zh":"错银卡","natural":"peak"}}
{"type":"Feature","geometry":{"type":"Point","coordinates":[87.4508071,27.8222447]},"properties":{"ele":"3676","name":"胜打知玛","name:en":"Semtachema","name:zh":"胜打知玛","natural":"peak"}}
{"type":"Feature","geometry":{"type":"Point","coordinates":[87.396258,27.8504988]},"properties":{"ele":"3405","name":"切崩","name:en":"Chhipung","name:zh":"切崩","natural":"peak"}}
{"type":"Feature","geometry":{"type":"Point","coordinates":[87.3586514,27.8281873]},"properties":{"ele":"4180","name":"基布山","name:en":"Kipu Tuppa","name:zh":"基布山","natural":"peak"}}
{"type":"Feature","geometry":{"type":"Point","coordinates":[62.5651124,27.3063461]},"properties":{"ele":"1800","natural":"peak"}}
{"type":"Feature","geometry":{"type":"Point","coordinates":[62.5194016,27.3261072]},"properties":{"ele":"1720","natural":"peak"}}
{"type":"Feature","geometry":{"type":"Point","coordinates":[62.3295143,27.6374534]},"properties":{"ele":"1470","natural":"peak"}}
{"type":"Feature","geometry":{"type":"Point","coordinates":[62.489517,27.3601176]},"properties":{"ele":"1830","natural":"peak"}}
{"type":"Feature","geometry":{"type":"Point","coordinates":[62.7328324,27.3961014]},"properties":{"ele":"1470","natural":"peak"}}
{"type":"Feature","geometry":{"type":"Point","coordinates":[62.1977407,27.7368163]},"properties":{"ele":"1920","natural":"peak"}}
{"type":"Feature","geometry":{"type":"Point","coordinates":[62.5030622,27.3484512]},"properties":{"ele":"1740","natural":"peak"}}
{"type":"Feature","geometry":{"type":"Point","coordinates":[62.0399111,28.1131269]},"properties":{"ele":"1710","natural":"peak"}}
{"type":"Feature","geometry":{"type":"Point","coordinates":[61.8942778,28.2483489]},"properties":{"ele":"1760","natural":"peak"}}
{"type":"Feature","geometry":{"type":"Point","coordinates":[62.5496688,27.4882185]},"properties":{"ele":"1630","natural":"peak"}}
{"type":"Feature","geometry":{"type":"Point","coordinates":[62.0657309,28.0766969]},"properties":{"ele":"1890","natural":"peak"}}
{"type":"Feature","geometry":{"type":"Point","coordinates":[62.7363366,27.2125002]},"properties":{"ele":"1710","natural":"peak"}}
{"type":"Feature","geometry":{"type":"Point","coordinates":[62.6098343,27.454149]},"properties":{"ele":"1580","natural":"peak"}}
{"type":"Feature","geometry":{"type":"Point","coordinates":[62.5045828,27.5198436]},"properties":{"ele":"1630","natural":"peak"}}
{"type":"Feature","geometry":{"type":"Point","coordinates":[62.4353905,27.5949332]},"properties":{"ele":"1430","natural":"peak"}}
{"type":"Feature","geometry":{"type":"Point","coordinates":[62.2895862,27.9125622]},"properties":{"ele":"1750","natural":"peak"}}
{"type":"Feature","geometry":{"type":"Point","coordinates":[62.5801781,27.4802779]},"properties":{"ele":"1610","natural":"peak"}}
{"type":"Feature","geometry":{"type":"Point","coordinates":[62.5975536,27.4726045]},"properties":{"ele":"1530","natural":"peak"}}
{"type":"Feature","geometry":{"type":"Point","coordinates":[62.2842402,27.8954536]},"properties":{"ele":"1810","natural":"peak"}}
{"type":"Feature","geometry":{"type":"Point","coordinates":[61.9057708,28.2399926]},"properties":{"ele":"1700","natural":"peak"}}
{"type":"Feature","geometry":{"type":"Point","coordinates":[62.8453948,27.2169604]},"properties":{"ele":"1790","natural":"peak"}}
{"type":"Feature","geometry":{"type":"Point","coordinates":[61.8574996,28.2199248]},"properties":{"ele":"1710","natural":"peak"}}
{"type":"Feature","geometry":{"type":"Point","coordinates":[62.1824117,27.7475117]},"properties":{"ele":"1960","natural":"peak"}}
{"type":"Feature","geometry":{"type":"Point","coordinates":[62.9298764,27.2027485]},"properties":{"ele":"1970","natural":"peak"}}
{"type":"Feature","geometry":{"type":"Point","coordinates":[61.7117514,28.2222047]},"properties":{"ele":"2020","natural":"peak"}}
{"type":"Feature","geometry":{"type":"Point","coordinates":[121.2421779,12.4764452]},"properties":{"name":"Mount Agsing","natural":"peak"}}
{"type":"Feature","geometry":{"type":"Point","coordinates":[100.8206128,25.4884134]},"properties":{"ele":"2155","name":"戴帽山","natural":"peak"}}
{"type":"Feature","geometry":{"type":"Point","coordinates":[100.7939745,25.4578017]},"properties":{"ele":"2155","name":"鸡头山","natural":"peak"}}
{"type":"Feature","geometry":{"type":"Point","coordinates":[100.8479515,25.4157125]},"properties":{"ele":"2574","name":"老青山","natural":"peak"}}
{"type":"Feature","geometry":{"type":"Point","coordinates":[100.9596835,25.3494315]},"properties":{"ele":"2243","name":"小猫山（小庙山）","natural":"peak"}}
{"type":"Feature","geometry":{"type":"Point","coordinates":[128.0266884,34.7413238]},"properties":{"ele":"453.5","name":"가마봉","name:en":"Gama-bong(peak)","natural":"peak"}}
{"type":"Feature","geometry":{"type":"Point","coordinates":[128.034696,34.7139973]},"properties":{"ele":"286.6","name":"망산","name:en":"Mangsan (peak)","natural":"peak"}}
{"type":"Feature","geometry":{"type":"Point","coordinates":[128.2132403,37.3194592]},"properties":{"ele":"966.6","name":"구룡산","name:ko":"구룡산","natural":"peak"}}
{"type":"Feature","geometry":{"type":"Point","coordinates":[128.214828,37.3382455]},"properties":{"ele":"908.3","name":"된불데기산","name:ko":"된불데기산","natural":"peak"}}
{"type":"Feature","geometry":{"type":"Point","coordinates":[79.457438,30.0420525]},"properties":{"name":"Dungargarhi","natural":"peak"}}
{"type":"Feature","geometry":{"type":"Point","coordinates":[79.8594904,30.1957711]},"properties":{"name":"Baraultoli","natural":"peak"}}
{"type":"Feature","geometry":{"type":"Point","coordinates":[79.7793674,30.1700814]},"properties":{"name":"Dak Danda","natural":"peak"}}
{"type":"Feature","geometry":{"type":"Point","coordinates":[79.7616112,30.1312651]},"properties":{"name":"Chholiya Minsingh","natural":"peak"}}
{"type":"Feature","geometry":{"type":"Point","coordinates":[61.6667028,27.7677533]},"properties":{"ele":"1600","natural":"peak"}}
{"type":"Feature","geometry":{"type":"Point","coordinates":[119.5480283,30.1927727]},"properties":{"ele":"651.3","name":"杨树坪","natural":"peak"}}
{"type":"Feature","geometry":{"type":"Point","coordinates":[61.4364336,27.9685906]},"properties":{"ele":"1920","natural":"peak"}}
{"type":"Feature","geometry":{"type":"Point","coordinates":[61.6091967,27.8030237]},"properties":{"ele":"1770","natural":"peak"}}
{"type":"Feature","geometry":{"type":"Point","coordinates":[61.4136941,28.0455426]},"properties":{"ele":"1640","natural":"peak"}}
{"type":"Feature","geometry":{"type":"Point","coordinates":[61.3669354,27.8028713]},"properties":{"ele":"1630","natural":"peak"}}
{"type":"Feature","geometry":{"type":"Point","coordinates":[61.3900536,27.7917597]},"properties":{"ele":"1690","natural":"peak"}}
{"type":"Feature","geometry":{"type":"Point","coordinates":[126.473823,37.738241]},"properties":{"ele":"222.5","name":"남산","natural":"peak"}}
{"type":"Feature","geometry":{"type":"Point","coordinates":[125.4031728,43.6904772]},"properties":{"name":"谢家山","natural":"peak"}}
{"type":"Feature","geometry":{"type":"Point","coordinates":[119.4561472,30.1726927]},"properties":{"ele":"669","name":"越王坪","natural":"peak"}}
{"type":"Feature","geometry":{"type":"Point","coordinates":[119.528981,30.1948191]},"properties":{"name":"亭山","natural":"peak"}}
{"type":"Feature","geometry":{"type":"Point","coordinates":[119.493827,30.1495191]},"properties":{"ele":"669","name":"皇竹尖","natural":"peak"}}
{"type":"Feature","geometry":{"type":"Point","coordinates":[103.903047,57.0621512]},"properties":{"ele":"496","natural":"peak"}}
{"type":"Feature","geometry":{"type":"Point","coordinates":[103.7623716,57.0454142]},"properties":{"ele":"508","natural":"peak"}}
{"type":"Feature","geometry":{"type":"Point","coordinates":[103.7364716,57.0057219]},"properties":{"ele":"546","natural":"peak"}}
{"type":"Feature","geometry":{"type":"Point","coordinates":[103.9164514,56.9840311]},"properties":{"ele":"503","natural":"peak"}}
{"type":"Feature","geometry":{"type":"Point","coordinates":[103.9907674,56.9671929]},"properties":{"ele":"511","natural":"peak"}}
{"type":"Feature","geometry":{"type":"Point","coordinates":[103.706054,57.0387554]},"properties":{"ele":"484","natural":"peak"}}
{"type":"Feature","geometry":{"type":"Point","coordinates":[103.7773847,57.0663235]},"properties":{"ele":"487","natural":"peak"}}
{"type":"Feature","geometry":{"type":"Point","coordinates":[119.9566074,29.9672508]},"properties":{"ele":"525","name":"洋白湾","natural":"peak"}}
{"type":"Feature","geometry":{"type":"Point","coordinates":[119.9798152,29.9740443]},"properties":{"ele":"638","name":"鸟窠湾","natural":"peak"}}
{"type":"Feature","geometry":{"type":"Point","coordinates":[119.9758884,29.9655308]},"properties":{"ele":"708.7","name":"干坑岗","natural":"peak"}}
{"type":"Feature","geometry":{"type":"Point","coordinates":[119.8042128,29.9471643]},"properties":{"ele":"592.3","name":"风暴山","natural":"peak"}}
{"type":"Feature","geometry":{"type":"Point","coordinates":[112.753348,25.7993561]},"properties":{"name":"天星岭","natural":"peak"}}
{"type":"Feature","geometry":{"type":"Point","coordinates":[112.7426089,25.8045659]},"properties":{"ele":"329.0","name":"丫枝仙","natural":"peak"}}
{"type":"Feature","geometry":{"type":"Point","coordinates":[112.7015282,25.7525681]},"properties":{"name":"狮子岭","natural":"peak"}}
{"type":"Feature","geometry":{"type":"Point","coordinates":[112.6992932,25.7602005]},"properties":{"name":"麻布桥","natural":"peak"}}
{"type":"Feature","geometry":{"type":"Point","coordinates":[79.1928863,30.084283]},"properties":{"name":"Musa ka Kotha","natural":"peak"}}
{"type":"Feature","geometry":{"type":"Point","coordinates":[60.5947923,55.8420847]},"properties":{"ele":"360","name":"Дубовиха","name:en":"Dubovikha","natural":"peak"}}
{"type":"Feature","geometry":{"type":"Point","coordinates":[79.0880871,30.214538]},"properties":{"name":"Gwanagarh","natural":"peak"}}
{"type":"Feature","geometry":{"type":"Point","coordinates":[99.6575546,46.5527496]},"properties":{"ele":"2145","name":"Бумба хайрхан уул 2145м","natural":"peak"}}
{"type":"Feature","geometry":{"type":"Point","coordinates":[99.9175268,46.5884018]},"properties":{"name":"Товцог хайрхан уул 2706.9м","natural":"peak"}}
{"type":"Feature","geometry":{"type":"Point","coordinates":[99.3671341,18.9846698]},"properties":{"ele":"1804","natural":"peak"}}
{"type":"Feature","geometry":{"type":"Point","coordinates":[99.361563,18.9746614]},"properties":{"ele":"1809","natural":"peak"}}
{"type":"Feature","geometry":{"type":"Point","coordinates":[99.410235,18.9792973]},"properties":{"ele":"1675","name":"ดอยจิกจอง","name:en":"Doi Chik Chong","name:th":"ดอยจิกจอง","natural":"peak"}}
{"type":"Feature","geometry":{"type":"Point","coordinates":[99.4246813,18.9931479]},"properties":{"ele":"1697","natural":"peak"}}
{"type":"Feature","geometry":{"type":"Point","coordinates":[99.4097987,18.9613731]},"properties":{"ele":"1406","natural":"peak"}}
{"type":"Feature","geometry":{"type":"Point","coordinates":[99.4068003,18.9448649]},"properties":{"ele":"1522","natural":"peak"}}
{"type":"Feature","geometry":{"type":"Point","coordinates":[99.3785598,18.9560331]},"properties":{"ele":"1697","natural":"peak"}}
{"type":"Feature","geometry":{"type":"Point","coordinates":[80.0332975,30.0578771]},"properties":{"name":"Lahur Dhura","natural":"peak"}}
{"type":"Feature","geometry":{"type":"Point","coordinates":[80.0258731,30.0692054]},"properties":{"name":"Kurmuria","natural":"peak"}}
{"type":"Feature","geometry":{"type":"Point","coordinates":[80.0562572,30.1644974]},"properties":{"name":"Salgwar","natural":"peak"}}
{"type":"Feature","geometry":{"type":"Point","coordinates":[80.0375247,30.1242128]},"properties":{"name":"Dangu","natural":"peak"}}
{"type":"Feature","geometry":{"type":"Point","coordinates":[59.6376904,25.560925]},"properties":{"ele":"480","natural":"peak"}}
{"type":"Feature","geometry":{"type":"Point","coordinates":[61.2161324,28.283557]},"properties":{"ele":"1630","natural":"peak"}}
{"type":"Feature","geometry":{"type":"Point","coordinates":[61.2571683,28.2236587]},"properties":{"ele":"1780","natural":"peak"}}
{"type":"Feature","geometry":{"type":"Point","coordinates":[59.6462686,25.548905]},"properties":{"ele":"440","natural":"peak"}}
{"type":"Feature","geometry":{"type":"Point","coordinates":[112.6621288,25.765103]},"properties":{"name":"朝东寨","natural":"peak"}}
{"type":"Feature","geometry":{"type":"Point","coordinates":[112.7897969,26.0283063]},"properties":{"name":"岩头岭","natural":"peak"}}
{"type":"Feature","geometry":{"type":"Point","coordinates":[112.8132013,26.0254399]},"properties":{"name":"糊涂岭","natural":"peak"}}
{"type":"Feature","geometry":{"type":"Point","coordinates":[112.6887028,25.7400565]},"properties":{"name":"马鞍山","natural":"peak"}}
{"type":"Feature","geometry":{"type":"Point","coordinates":[120.0109512,29.8655362]},"properties":{"ele":"826","name":"双峰尖","natural":"peak"}}
{"type":"Feature","geometry":{"type":"Point","coordinates":[112.6368832,25.7538201]},"properties":{"name":"插花娘子","natural":"peak"}}
{"type":"Feature","geometry":{"type":"Point","coordinates":[112.6577783,25.7472927]},"properties":{"name":"尖嘴岭","natural":"peak"}}
{"type":"Feature","geometry":{"type":"Point","coordinates":[116.0063209,39.8700989]},"properties":{"name":"朱砂岭","natural":"peak"}}
{"type":"Feature","geometry":{"type":"Point","coordinates":[115.8087111,39.7261455]},"properties":{"ele":"1153","name":"化木仑","natural":"peak"}}
{"type":"Feature","geometry":{"type":"Point","coordinates":[115.7984064,39.7060528]},"properties":{"ele":"1110","name":"青峰岭","natural":"peak"}}
{"type":"Feature","geometry":{"type":"Point","coordinates":[115.8107797,39.6813823]},"properties":{"ele":"864.805","name":"上方山","natural":"peak"}}
{"type":"Feature","geometry":{"type":"Point","coordinates":[115.8148683,39.6756117]},"properties":{"ele":"769","name":"摘星坨","natural":"peak"}}
{"type":"Feature","geometry":{"type":"Point","coordinates":[115.8280803,39.6800071]},"properties":{"ele":"784","name":"锦绣峰","natural":"peak"}}
{"type":"Feature","geometry":{"type":"Point","coordinates":[115.831156,39.6732918]},"properties":{"ele":"780","name":"象王峰","natural":"peak"}}
{"type":"Feature","geometry":{"type":"Point","coordinates":[115.8325008,39.6678706]},"properties":{"ele":"783.3","name":"望海峰/小棺材山","natural":"peak"}}
{"type":"Feature","geometry":{"type":"Point","coordinates":[115.7921751,39.640934]},"properties":{"ele":"799","name":"松坨","natural":"peak"}}
{"type":"Feature","geometry":{"type":"Point","coordinates":[115.7715462,39.6778785]},"properties":{"ele":"1049","name":"桦木坨","natural":"peak"}}
{"type":"Feature","geometry":{"type":"Point","coordinates":[115.7570186,39.67904]},"properties":{"name":"小碑尖","natural":"peak"}}
{"type":"Feature","geometry":{"type":"Point","coordinates":[115.7508814,39.6811221]},"properties":{"name":"憋虎尖/大碑尖","natural":"peak"}}
{"type":"Feature","geometry":{"type":"Point","coordinates":[115.7689326,39.6925188]},"properties":{"ele":"1060","name":"黑牛峰","natural":"peak"}}
{"type":"Feature","geometry":{"type":"Point","coordinates":[115.7526162,39.695466]},"properties":{"ele":"1127","name":"暴雨坨","natural":"peak"}}
{"type":"Feature","geometry":{"type":"Point","coordinates":[115.7592007,39.707986]},"properties":{"alt_name":"南山","ele":"1053","name":"青松岭","natural":"peak"}}
{"type":"Feature","geometry":{"type":"Point","coordinates":[115.7406481,39.7033882]},"properties":{"ele":"1108","name":"卧虎榻","natural":"peak"}}
{"type":"Feature","geometry":{"type":"Point","coordinates":[115.7382662,39.68415]},"properties":{"alt_name_1":"大灰帽子","ele":"1067","name":"白虎窖","natural":"peak"}}
{"type":"Feature","geometry":{"type":"Point","coordinates":[115.7351891,39.6797915]},"properties":{"ele":"960","name":"小灰帽子","natural":"peak"}}
{"type":"Feature","geometry":{"type":"Point","coordinates":[115.7174871,39.6927728]},"properties":{"ele":"1000","name":"窟窿山","natural":"peak"}}
{"type":"Feature","geometry":{"type":"Point","coordinates":[115.7119813,39.6979562]},"properties":{"alt_name_1":"谭子港尖","alt_name_2":"安子港尖","ele":"1125.3","name":"长流水尖","name:en":"Changliushui Jian","natural":"peak"}}
{"type":"Feature","geometry":{"type":"Point","coordinates":[115.7900056,39.7894712]},"properties":{"ele":"836","name":"槽鸡架","natural":"peak"}}
{"type":"Feature","geometry":{"type":"Point","coordinates":[115.8309126,39.7549129]},"properties":{"ele":"566","name":"纱帽山","natural":"peak"}}
{"type":"Feature","geometry":{"type":"Point","coordinates":[115.8549071,39.7809954]},"properties":{"ele":"716","name":"青梅岭","natural":"peak"}}
{"type":"Feature","geometry":{"type":"Point","coordinates":[112.6106082,25.7318353]},"properties":{"name":"火烧湖","natural":"peak"}}
{"type":"Feature","geometry":{"type":"Point","coordinates":[120.2462304,37.3527696]},"properties":{"name":"姑子山","natural":"peak"}}
{"type":"Feature","geometry":{"type":"Point","coordinates":[112.7380923,26.0871267]},"properties":{"name":"神仙岭","natural":"peak"}}
{"type":"Feature","geometry":{"type":"Point","coordinates":[77.3064351,10.1352147]},"properties":{"name":"Ibex Peak","natural":"peak"}}
{"type":"Feature","geometry":{"type":"Point","coordinates":[77.3451876,10.1376016]},"properties":{"name":"Pass Peak","natural":"peak"}}
{"type":"Feature","geometry":{"type":"Point","coordinates":[77.3839241,10.1808896]},"properties":{"name":"Tula Kanavai","natural":"peak"}}
{"type":"Feature","geometry":{"type":"Point","coordinates":[77.4040889,10.2051659]},"properties":{"name":"Vembadi Shola Peak","natural":"peak"}}
{"type":"Feature","geometry":{"type":"Point","coordinates":[77.3929524,10.2287224]},"properties":{"name":"Chandana Parai","natural":"peak"}}
{"type":"Feature","geometry":{"type":"Point","coordinates":[104.2220588,32.9598042]},"properties":{"natural":"peak"}}
{"type":"Feature","geometry":{"type":"Point","coordinates":[104.1670494,32.9530515]},"properties":{"natural":"peak","source":"cyclemap"}}
{"type":"Feature","geometry":{"type":"Point","coordinates":[77.2937965,10.1365455]},"properties":{"name":"Valley Hill","natural":"peak"}}
{"type":"Feature","geometry":{"type":"Point","coordinates":[77.3551225,10.1871727]},"properties":{"name":"Tuppiyan Kanavai","natural":"peak"}}
{"type":"Feature","geometry":{"type":"Point","coordinates":[77.3910856,10.166475]},"properties":{"name":"Arunkula Malai","natural":"peak"}}
{"type":"Feature","geometry":{"type":"Point","coordinates":[77.2666096,10.1191821]},"properties":{"name":"Pambadi Shola Malai","natural":"peak"}}
{"type":"Feature","geometry":{"type":"Point","coordinates":[77.2880029,10.2317737]},"properties":{"name":"Para Tumbu","natural":"peak"}}
{"type":"Feature","geometry":{"type":"Point","coordinates":[77.3494148,10.2455836]},"properties":{"name":"Venki Kombu","natural":"peak"}}
{"type":"Feature","geometry":{"type":"Point","coordinates":[77.3877382,10.1567593]},"properties":{"name":"Pillisuli Nettu","natural":"peak"}}
{"type":"Feature","geometry":{"type":"Point","coordinates":[77.2763729,10.1756624]},"properties":{"name":"Pattitalaichi Malai","natural":"peak"}}
{"type":"Feature","geometry":{"type":"Point","coordinates":[77.2733903,10.1484268]},"properties":{"name":"Vandaravu Malai","natural":"peak"}}
{"type":"Feature","geometry":{"type":"Point","coordinates":[77.3140955,10.139566]},"properties":{"name":"Talai Malai","natural":"peak"}}
{"type":"Feature","geometry":{"type":"Point","coordinates":[77.3262405,10.1356794]},"properties":{"name":"Landslip Hill","natural":"peak"}}
{"type":"Feature","geometry":{"type":"Point","coordinates":[77.3586845,10.1527462]},"properties":{"name":"Chendanurkanal Malai","natural":"peak"}}
{"type":"Feature","geometry":{"type":"Point","coordinates":[77.379713,10.1738672]},"properties":{"name":"Pinji Kanavai","natural":"peak"}}
{"type":"Feature","geometry":{"type":"Point","coordinates":[77.3202753,10.1820617]},"properties":{"name":"Uruman Kanavai","natural":"peak"}}
{"type":"Feature","geometry":{"type":"Point","coordinates":[77.3225498,10.1769507]},"properties":{"name":"Soman Kanavai","natural":"peak"}}
{"type":"Feature","geometry":{"type":"Point","coordinates":[77.3201465,10.1665595]},"properties":{"name":"Periya Malai","natural":"peak"}}
{"type":"Feature","geometry":{"type":"Point","coordinates":[76.8852963,43.0350902]},"properties":{"ele":"3612","natural":"peak"}}
{"type":"Feature","geometry":{"type":"Point","coordinates":[75.783181,34.3948908]},"properties":{"name":"Lamochan","natural":"peak"}}
{"type":"Feature","geometry":{"type":"Point","coordinates":[53.4418417,12.4730501]},"properties":{"natural":"peak"}}
{"type":"Feature","geometry":{"type":"Point","coordinates":[80.0556564,29.8392666]},"properties":{"name":"Khamlekh","natural":"peak"}}
{"type":"Feature","geometry":{"type":"Point","coordinates":[80.1996374,29.7288683]},"properties":{"name":"Chhirakantha","natural":"peak"}}
{"type":"Feature","geometry":{"type":"Point","coordinates":[80.2382612,29.7186567]},"properties":{"name":"Lori","natural":"peak"}}
{"type":"Feature","geometry":{"type":"Point","coordinates":[80.0363874,30.1021801]},"properties":{"name":"Malla Dhar","natural":"peak"}}
{"type":"Feature","geometry":{"type":"Point","coordinates":[80.1387405,30.2457217]},"properties":{"name":"Bankatiya","natural":"peak"}}
{"type":"Feature","geometry":{"type":"Point","coordinates":[80.1347065,30.1967726]},"properties":{"name":"Plansang","natural":"peak"}}
{"type":"Feature","geometry":{"type":"Point","coordinates":[80.1721286,30.1789669]},"properties":{"name":"Sijwa Dhuar","natural":"peak"}}
{"type":"Feature","geometry":{"type":"Point","coordinates":[75.7898411,34.2905366]},"properties":{"name":"Machai peak","natural":"peak"}}
{"type":"Feature","geometry":{"type":"Point","coordinates":[75.7775256,34.2664204]},"properties":{"name":"Karpolakpa peak","natural":"peak"}}
{"type":"Feature","geometry":{"type":"Point","coordinates":[75.7937025,34.2690756]},"properties":{"name":"Brilpah peak","natural":"peak"}}
{"type":"Feature","geometry":{"type":"Point","coordinates":[75.7715827,34.2744863]},"properties":{"name":"Karpolakpa rocks","natural":"peak"}}
{"type":"Feature","geometry":{"type":"Point","coordinates":[75.7994991,34.3117947]},"properties":{"name":"Jarkhesh peak","natural":"peak"}}
{"type":"Feature","geometry":{"type":"Point","coordinates":[75.7928866,34.3341142]},"properties":{"name":"Furbah peak","natural":"peak"}}
{"type":"Feature","geometry":{"type":"Point","coordinates":[120.371232,37.4019885]},"properties":{"name":"张画山","natural":"peak"}}
{"type":"Feature","geometry":{"type":"Point","coordinates":[120.3326189,37.3871657]},"properties":{"name":"雾云山","natural":"peak"}}
{"type":"Feature","geometry":{"type":"Point","coordinates":[120.3475642,37.3777113]},"properties":{"name":"大肚山","natural":"peak"}}
{"type":"Feature","geometry":{"type":"Point","coordinates":[120.3346038,37.3777966]},"properties":{"name":"牛神岭","natural":"peak"}}
{"type":"Feature","geometry":{"type":"Point","coordinates":[120.3513193,37.3158065]},"properties":{"name":"白鹤顶","natural":"peak"}}
{"type":"Feature","geometry":{"type":"Point","coordinates":[120.341835,37.3186051]},"properties":{"name":"尖尖山","natural":"peak"}}
{"type":"Feature","geometry":{"type":"Point","coordinates":[120.326085,37.3308908]},"properties":{"name":"鹰纲顶","natural":"peak"}}
{"type":"Feature","geometry":{"type":"Point","coordinates":[120.3561902,37.3396942]},"properties":{"name":"架旗山","natural":"peak"}}
{"type":"Feature","geometry":{"type":"Point","coordinates":[120.3155064,37.3453068]},"properties":{"name":"香山","natural":"peak"}}
{"type":"Feature","geometry":{"type":"Point","coordinates":[120.3302693,37.3513453]},"properties":{"name":"了涧顶","natural":"peak"}}
{"type":"Feature","geometry":{"type":"Point","coordinates":[120.3111505,37.3529487]},"properties":{"name":"华山","natural":"peak"}}
{"type":"Feature","geometry":{"type":"Point","coordinates":[112.7319578,26.000714]},"properties":{"name":"大脑山","natural":"peak"}}
{"type":"Feature","geometry":{"type":"Point","coordinates":[112.7227523,26.0019439]},"properties":{"name":"断头岭","natural":"peak"}}
{"type":"Feature","geometry":{"type":"Point","coordinates":[112.8081022,25.9995178]},"properties":{"name":"蓝寒山","natural":"peak"}}
{"type":"Feature","geometry":{"type":"Point","coordinates":[112.797025,26.0452418]},"properties":{"name":"寨山","natural":"peak"}}
{"type":"Feature","geometry":{"type":"Point","coordinates":[112.7906621,26.0342398]},"properties":{"name":"马屁股岭","natural":"peak"}}
{"type":"Feature","geometry":{"type":"Point","coordinates":[112.8061448,25.9895915]},"properties":{"name":"杀禾岭","natural":"peak"}}
{"type":"Feature","geometry":{"type":"Point","coordinates":[112.7528376,26.0192371]},"properties":{"name":"雷公岭","natural":"peak"}}
{"type":"Feature","geometry":{"type":"Point","coordinates":[112.7866308,26.0180045]},"properties":{"name":"馒头岭","natural":"peak"}}
{"type":"Feature","geometry":{"type":"Point","coordinates":[112.8052199,25.9932126]},"properties":{"name":"飞岭头","natural":"peak"}}
{"type":"Feature","geometry":{"type":"Point","coordinates":[112.8105994,26.0039225]},"properties":{"name":"对门岗","natural":"peak"}}
{"type":"Feature","geometry":{"type":"Point","coordinates":[112.8342524,26.0493066]},"properties":{"name":"江头山","natural":"peak"}}
{"type":"Feature","geometry":{"type":"Point","coordinates":[112.8134462,25.9885885]},"properties":{"name":"花满冲","natural":"peak"}}
{"type":"Feature","geometry":{"type":"Point","coordinates":[112.8280663,26.0171345]},"properties":{"name":"天鹅宫","natural":"peak"}}
{"type":"Feature","geometry":{"type":"Point","coordinates":[112.8263568,26.0126312]},"properties":{"name":"仙子岭","natural":"peak"}}
{"type":"Feature","geometry":{"type":"Point","coordinates":[112.7376648,26.024466]},"properties":{"name":"东古岭","natural":"peak"}}
{"type":"Feature","geometry":{"type":"Point","coordinates":[112.8289603,26.0235195]},"properties":{"name":"梁山神","natural":"peak"}}
{"type":"Feature","geometry":{"type":"Point","coordinates":[47.9909962,67.5315499]},"properties":{"name":"сопка Маленький Камешек","natural":"peak"}}
{"type":"Feature","geometry":{"type":"Point","coordinates":[75.6946562,34.1566828]},"properties":{"name":"Pt 17280 ft","natural":"peak"}}
{"type":"Feature","geometry":{"type":"Point","coordinates":[75.7282818,34.251965]},"properties":{"name":"Tahpoh peak","natural":"peak"}}
{"type":"Feature","geometry":{"type":"Point","coordinates":[75.7567547,34.2401236]},"properties":{"name":"Point 18719 ft","natural":"peak"}}
{"type":"Feature","geometry":{"type":"Point","coordinates":[75.7081751,34.2718479]},"properties":{"name":"Rakesha peak","natural":"peak"}}
{"type":"Feature","geometry":{"type":"Point","coordinates":[75.7387039,34.2690458]},"properties":{"name":"Soh peak","natural":"peak"}}
{"type":"Feature","geometry":{"type":"Point","coordinates":[119.5129117,26.229857]},"properties":{"name":"净云山","name:en":"Jingyun Mountain","natural":"peak"}}
{"type":"Feature","geometry":{"type":"Point","coordinates":[119.618355,26.1593807]},"properties":{"name":"九龙山","name:en":"Jiulong Mountain","natural":"peak"}}
{"type":"Feature","geometry":{"type":"Point","coordinates":[75.6897221,34.1654498]},"properties":{"name":"SAI needle","natural":"peak"}}
{"type":"Feature","geometry":{"type":"Point","coordinates":[142.3033572,43.7938815]},"properties":{"ele":"253","name":"嵐山","natural":"peak"}}
{"type":"Feature","geometry":{"type":"Point","coordinates":[74.7960269,40.5386763]},"properties":{"ele":"4720","name":"Жумар-Тоо","name:en":"Jumar-Too","natural":"peak","westra_ref":"12727","wikipedia":"ru:Тоо"}}
{"type":"Feature","geometry":{"type":"Point","coordinates":[139.9540781,35.016813]},"properties":{"name":"莫越山","natural":"peak"}}
{"type":"Feature","geometry":{"type":"Point","coordinates":[117.6870037,30.5225749]},"properties":{"ele":"697","name":"四峰尖","natural":"peak"}}
{"type":"Feature","geometry":{"type":"Point","coordinates":[117.6897099,30.5308435]},"properties":{"ele":"703","name":"扁担山","natural":"peak"}}
{"type":"Feature","geometry":{"type":"Point","coordinates":[117.593824,30.3049775]},"properties":{"ele":"830","name":"芦际山","natural":"peak"}}
{"type":"Feature","geometry":{"type":"Point","coordinates":[117.7213946,30.4166674]},"properties":{"ele":"797","name":"金竹湾","natural":"peak"}}
{"type":"Feature","geometry":{"type":"Point","coordinates":[117.5846511,30.2893022]},"properties":{"ele":"714","name":"七山","natural":"peak"}}
{"type":"Feature","geometry":{"type":"Point","coordinates":[83.5861597,51.6828309]},"properties":{"ele":"660","name":"Вторая Воструха","natural":"peak"}}
{"type":"Feature","geometry":{"type":"Point","coordinates":[133.6586007,34.5233838]},"properties":{"ele":"30","name":"権現山","natural":"peak"}}
{"type":"Feature","geometry":{"type":"Point","coordinates":[133.7595632,34.6464565]},"properties":{"ele":"302.3","name":"福山","natural":"peak"}}
{"type":"Feature","geometry":{"type":"Point","coordinates":[133.7181442,34.6020346]},"properties":{"ele":"104","name":"愛宕山","natural":"peak"}}
{"type":"Feature","geometry":{"type":"Point","coordinates":[133.7234186,34.5625085]},"properties":{"ele":"161.8","name":"大平山","natural":"peak"}}
{"type":"Feature","geometry":{"type":"Point","coordinates":[133.6903438,34.5533218]},"properties":{"ele":"43.4","name":"白銀山","natural":"peak"}}
{"type":"Feature","geometry":{"type":"Point","coordinates":[133.6404426,34.5202825]},"properties":{"ele":"136.1","name":"妙見山","natural":"peak"}}
{"type":"Feature","geometry":{"type":"Point","coordinates":[133.6547155,34.5167128]},"properties":{"ele":"9","name":"宝亀山","natural":"peak"}}
{"type":"Feature","geometry":{"type":"Point","coordinates":[133.6645131,34.5230045]},"properties":{"ele":"28","name":"八幡山","natural":"peak"}}
{"type":"Feature","geometry":{"type":"Point","coordinates":[133.6618663,34.5400527]},"properties":{"ele":"96","name":"白華山","natural":"peak"}}
{"type":"Feature","geometry":{"type":"Point","coordinates":[133.6186661,34.556902]},"properties":{"ele":"199.7","name":"城山","natural":"peak"}}
{"type":"Feature","geometry":{"type":"Point","coordinates":[133.6101631,34.5733056]},"properties":{"ele":"405","name":"遥照山","natural":"peak","wikidata":"Q11641921","wikipedia":"ja:遙照山"}}
{"type":"Feature","geometry":{"type":"Point","coordinates":[133.598957,34.5494561]},"properties":{"ele":"199","name":"安芸守山","natural":"peak"}}
{"type":"Feature","geometry":{"type":"Point","coordinates":[133.5920742,34.5143687]},"properties":{"ele":"221.3","name":"泉山","natural":"peak"}}
{"type":"Feature","geometry":{"type":"Point","coordinates":[133.6164106,34.5076542]},"properties":{"ele":"230.6","name":"佐方龍王山","natural":"peak"}}
{"type":"Feature","geometry":{"type":"Point","coordinates":[133.6362192,34.5094975]},"properties":{"ele":"174.1","name":"矢崎山","natural":"peak"}}
{"type":"Feature","geometry":{"type":"Point","coordinates":[133.6323263,34.5265495]},"properties":{"ele":"160.6","name":"大谷龍王山","natural":"peak"}}
{"type":"Feature","geometry":{"type":"Point","coordinates":[133.5863914,34.5009892]},"properties":{"ele":"289.2","name":"寄島龍王山","natural":"peak"}}
{"type":"Feature","geometry":{"type":"Point","coordinates":[133.568543,34.4830597]},"properties":{"ele":"242.5","name":"鉢山","natural":"peak"}}
{"type":"Feature","geometry":{"type":"Point","coordinates":[133.5716447,34.4708718]},"properties":{"ele":"249.2","name":"青佐山","natural":"peak"}}
{"type":"Feature","geometry":{"type":"Point","coordinates":[133.54875,34.4720715]},"properties":{"ele":"319.8","name":"御嶽山","natural":"peak"}}
{"type":"Feature","geometry":{"type":"Point","coordinates":[75.6181597,34.1354501]},"properties":{"name":"Dhrumgam peak","natural":"peak"}}
{"type":"Feature","geometry":{"type":"Point","coordinates":[139.9404798,34.9373651]},"properties":{"ele":"216","name":"高塚山","name:en":"Mount Takatsuka","name:ja":"高塚山","natural":"peak"}}
{"type":"Feature","geometry":{"type":"Point","coordinates":[139.8279039,35.112899]},"properties":{"name":"大黒山","natural":"peak"}}
{"type":"Feature","geometry":{"type":"Point","coordinates":[121.728389,25.0906891]},"properties":{"ele":"151.4","name":"三疊山南峰","natural":"peak","source":"NLSC"}}
{"type":"Feature","geometry":{"type":"Point","coordinates":[121.7290037,25.083447]},"properties":{"ele":"228","name":"外西勢坑山","natural":"peak"}}
{"type":"Feature","geometry":{"type":"Point","coordinates":[121.7322162,25.1039911]},"properties":{"ele":"107","name":"八堵山","natural":"peak","wikidata":"Q31392395"}}
{"type":"Feature","geometry":{"type":"Point","coordinates":[117.7074389,30.4131571]},"properties":{"ele":"713.3","name":"鸡公尖","natural":"peak"}}
{"type":"Feature","geometry":{"type":"Point","coordinates":[117.7905328,30.4297275]},"properties":{"ele":"1156","name":"分水岭","natural":"peak"}}
{"type":"Feature","geometry":{"type":"Point","coordinates":[117.7309829,30.4203769]},"properties":{"ele":"715","name":"朱山屋","natural":"peak"}}
{"type":"Feature","geometry":{"type":"Point","coordinates":[117.5662777,30.3187133]},"properties":{"ele":"734","name":"马鞍山","natural":"peak"}}
{"type":"Feature","geometry":{"type":"Point","coordinates":[117.7830002,30.4201656]},"properties":{"ele":"1110","name":"柯家大山","natural":"peak"}}
{"type":"Feature","geometry":{"type":"Point","coordinates":[117.6285203,30.4684103]},"properties":{"ele":"654","name":"松山","natural":"peak"}}
{"type":"Feature","geometry":{"type":"Point","coordinates":[117.6371275,30.475142]},"properties":{"ele":"656","name":"抛儿潭","natural":"peak"}}
{"type":"Feature","geometry":{"type":"Point","coordinates":[117.4504849,30.0363682]},"properties":{"ele":"1413","name":"老虎岩","natural":"peak"}}
{"type":"Feature","geometry":{"type":"Point","coordinates":[117.4465042,30.0269242]},"properties":{"ele":"1372","name":"大乌金坑尖","natural":"peak"}}
{"type":"Feature","geometry":{"type":"Point","coordinates":[120.7594387,22.235752]},"properties":{"description":"省政府圖根補點","ele":"701","name":"草埔後山南峰","natural":"peak"}}
{"type":"Feature","geometry":{"type":"Point","coordinates":[121.7092283,24.4322859]},"properties":{"ele":"662","name":"雙子山東南峰","natural":"peak"}}
{"type":"Feature","geometry":{"type":"Point","coordinates":[121.754323,24.5529721]},"properties":{"ele":"1230.2","name":"西德山","natural":"peak","source":"NLSC","wikidata":"Q31617299"}}
{"type":"Feature","geometry":{"type":"Point","coordinates":[60.1744148,26.4160511]},"properties":{"ele":"890","natural":"peak"}}
{"type":"Feature","geometry":{"type":"Point","coordinates":[40.7878589,22.6295791]},"properties":{"name":"جبل الحرشاء","name:ar":"جبل الحرشاء","natural":"peak"}}
{"type":"Feature","geometry":{"type":"Point","coordinates":[123.4657824,42.3897725]},"properties":{"name":"兀术峰","name:en":"Wushufeng","natural":"peak"}}
{"type":"Feature","geometry":{"type":"Point","coordinates":[75.7397375,34.1218112]},"properties":{"name":"North Krowa Peak","natural":"peak"}}
{"type":"Feature","geometry":{"type":"Point","coordinates":[75.7419308,34.1107873]},"properties":{"name":"South Krowa Peak","natural":"peak"}}
{"type":"Feature","geometry":{"type":"Point","coordinates":[75.727578,34.1231831]},"properties":{"name":"Yellow Tower","natural":"peak"}}
{"type":"Feature","geometry":{"type":"Point","coordinates":[112.0376969,31.9897269]},"properties":{"name":"大旗山","name:en":"Daqi Mountain","name:zh":"大旗山","natural":"peak"}}
{"type":"Feature","geometry":{"type":"Point","coordinates":[117.4814735,30.0194436]},"properties":{"ele":"947","name":"黄泥堂","natural":"peak"}}
{"type":"Feature","geometry":{"type":"Point","coordinates":[100.2410259,25.6048824]},"properties":{"name":"团山","natural":"peak"}}
{"type":"Feature","geometry":{"type":"Point","coordinates":[117.518368,30.0480327]},"properties":{"ele":"1410","name":"天龙峰","natural":"peak"}}
{"type":"Feature","geometry":{"type":"Point","coordinates":[117.5248521,30.0342889]},"properties":{"ele":"881","name":"倒须笼尖","natural":"peak"}}
{"type":"Feature","geometry":{"type":"Point","coordinates":[100.2962797,25.6549054]},"properties":{"name":"菠萝山","natural":"peak"}}
{"type":"Feature","geometry":{"type":"Point","coordinates":[117.6668514,30.0263822]},"properties":{"ele":"980","name":"老林山","natural":"peak"}}
{"type":"Feature","geometry":{"type":"Point","coordinates":[117.4336696,30.0164877]},"properties":{"ele":"1230","name":"苦竹园","natural":"peak"}}
{"type":"Feature","geometry":{"type":"Point","coordinates":[136.8164694,36.4709471]},"properties":{"ele":"640","natural":"peak"}}
{"type":"Feature","geometry":{"type":"Point","coordinates":[136.8329172,36.4890658]},"properties":{"ele":"395","natural":"peak"}}
{"type":"Feature","geometry":{"type":"Point","coordinates":[136.8637037,36.4927624]},"properties":{"ele":"308","natural":"peak"}}
{"type":"Feature","geometry":{"type":"Point","coordinates":[136.8642556,36.4906941]},"properties":{"ele":"318","natural":"peak"}}
{"type":"Feature","geometry":{"type":"Point","coordinates":[136.8588809,36.4963256]},"properties":{"ele":"261","natural":"peak"}}
{"type":"Feature","geometry":{"type":"Point","coordinates":[136.886104,36.4807952]},"properties":{"ele":"334","natural":"peak"}}
{"type":"Feature","geometry":{"type":"Point","coordinates":[136.8963034,36.479186]},"properties":{"ele":"424","natural":"peak"}}
{"type":"Feature","geometry":{"type":"Point","coordinates":[93.3871364,68.5692761]},"properties":{"ele":"1353","natural":"peak"}}
{"type":"Feature","geometry":{"type":"Point","coordinates":[92.5184816,68.8119935]},"properties":{"ele":"1335","natural":"peak"}}
{"type":"Feature","geometry":{"type":"Point","coordinates":[42.4350865,18.239567]},"properties":{"name":"البدْلة","natural":"peak"}}
{"type":"Feature","geometry":{"type":"Point","coordinates":[102.8394593,24.5818658]},"properties":{"ele":"2135","name":"尖头山","name:zh":"尖头山","natural":"peak"}}
{"type":"Feature","geometry":{"type":"Point","coordinates":[126.9712459,35.1639371]},"properties":{"communication:amateur_radio:sota":"HL/GJ-002 SOTA","ele":"472","name":"덕봉","natural":"peak"}}
{"type":"Feature","geometry":{"type":"Point","coordinates":[126.7415509,35.1421346]},"properties":{"ele":"236","name":"지죽봉","natural":"peak"}}
{"type":"Feature","geometry":{"type":"Point","coordinates":[126.7609108,35.1687053]},