{"type":"Feature","geometry":{"type":"Point","coordinates":[121.8385291,37.393056]},"properties":{"name":"娘娘顶","natural":"peak"}}
{"type":"Feature","geometry":{"type":"Point","coordinates":[121.6734981,37.3441638]},"properties":{"name":"光棍山","natural":"peak"}}
{"type":"Feature","geometry":{"type":"Point","coordinates":[121.6589927,37.3422873]},"properties":{"name":"围子山","natural":"peak"}}
{"type":"Feature","geometry":{"type":"Point","coordinates":[121.6800642,37.3291334]},"properties":{"name":"仙人脚","natural":"peak"}}
{"type":"Feature","geometry":{"type":"Point","coordinates":[121.6917371,37.321745]},"properties":{"name":"窗棂山","natural":"peak"}}
{"type":"Feature","geometry":{"type":"Point","coordinates":[121.7471408,37.3120861]},"properties":{"name":"南大穷","natural":"peak"}}
{"type":"Feature","geometry":{"type":"Point","coordinates":[121.6354751,37.2243827]},"properties":{"name":"红石屋山","natural":"peak"}}
{"type":"Feature","geometry":{"type":"Point","coordinates":[121.6394233,37.2124214]},"properties":{"name":"貔子岭","natural":"peak"}}
{"type":"Feature","geometry":{"type":"Point","coordinates":[121.6530704,37.2143353]},"properties":{"name":"玉皇庙","natural":"peak"}}
{"type":"Feature","geometry":{"type":"Point","coordinates":[121.6680908,37.2333695]},"properties":{"name":"青石口顶","natural":"peak"}}
{"type":"Feature","geometry":{"type":"Point","coordinates":[121.6740989,37.242116]},"properties":{"name":"牛心石","natural":"peak"}}
{"type":"Feature","geometry":{"type":"Point","coordinates":[121.6967153,37.2665395]},"properties":{"name":"大尖崮","natural":"peak"}}
{"type":"Feature","geometry":{"type":"Point","coordinates":[121.7083453,37.2663346]},"properties":{"name":"馒头石","natural":"peak"}}
{"type":"Feature","geometry":{"type":"Point","coordinates":[121.7048263,37.282385]},"properties":{"name":"苍山","natural":"peak"}}
{"type":"Feature","geometry":{"type":"Point","coordinates":[121.7464542,37.2211704]},"properties":{"name":"西双顶","natural":"peak"}}
{"type":"Feature","geometry":{"type":"Point","coordinates":[121.7711198,37.2476077]},"properties":{"ele":"923","name":"泰礴顶","natural":"peak"}}
{"type":"Feature","geometry":{"type":"Point","coordinates":[121.7922878,37.1895189]},"properties":{"name":"老鱼洞","natural":"peak"}}
{"type":"Feature","geometry":{"type":"Point","coordinates":[121.8044757,37.1888351]},"properties":{"name":"紫金山","natural":"peak"}}
{"type":"Feature","geometry":{"type":"Point","coordinates":[121.8071794,37.1923564]},"properties":{"name":"雨儿顶","natural":"peak"}}
{"type":"Feature","geometry":{"type":"Point","coordinates":[121.8222427,37.1962878]},"properties":{"name":"野鸡山","natural":"peak"}}
{"type":"Feature","geometry":{"type":"Point","coordinates":[133.2079693,33.5351966]},"properties":{"ele":"774.6","name":"金峰山","natural":"peak"}}
{"type":"Feature","geometry":{"type":"Point","coordinates":[133.4444055,33.4261364]},"properties":{"name":"宇都賀山","natural":"peak"}}
{"type":"Feature","geometry":{"type":"Point","coordinates":[136.8518835,37.1898162]},"properties":{"name":"別所岳","natural":"peak"}}
{"type":"Feature","geometry":{"type":"Point","coordinates":[61.6870864,56.4278941]},"properties":{"name":"Кукушкин камень","natural":"peak"}}
{"type":"Feature","geometry":{"type":"Point","coordinates":[61.7881963,56.4356615]},"properties":{"name":"13","natural":"peak"}}
{"type":"Feature","geometry":{"type":"Point","coordinates":[61.7898601,56.4329]},"properties":{"name":"15","natural":"peak"}}
{"type":"Feature","geometry":{"type":"Point","coordinates":[61.7767013,56.4337994]},"properties":{"name":"9","natural":"peak"}}
{"type":"Feature","geometry":{"type":"Point","coordinates":[61.7856151,56.4356563]},"properties":{"name":"11","natural":"peak"}}
{"type":"Feature","geometry":{"type":"Point","coordinates":[127.6281524,36.1165569]},"properties":{"ele":"585","name":"월유봉","natural":"peak"}}
{"type":"Feature","geometry":{"type":"Point","coordinates":[127.610954,36.1189143]},"properties":{"ele":"485","name":"안자봉","natural":"peak"}}
{"type":"Feature","geometry":{"type":"Point","coordinates":[127.6134405,36.1116231]},"properties":{"ele":"405","name":"자사봉","natural":"peak"}}
{"type":"Feature","geometry":{"type":"Point","coordinates":[127.6190865,36.1091246]},"properties":{"ele":"624","name":"성인봉","natural":"peak"}}
{"type":"Feature","geometry":{"type":"Point","coordinates":[113.9832447,23.300588]},"properties":{"natural":"peak"}}
{"type":"Feature","geometry":{"type":"Point","coordinates":[113.9911176,23.3003371]},"properties":{"name":"笔架峰","natural":"peak"}}
{"type":"Feature","geometry":{"type":"Point","coordinates":[115.8908377,39.6189719]},"properties":{"ele":"103","name":"元宝山","natural":"peak"}}
{"type":"Feature","geometry":{"type":"Point","coordinates":[135.2616656,35.1441609]},"properties":{"name":"423","natural":"peak"}}
{"type":"Feature","geometry":{"type":"Point","coordinates":[39.7247076,43.7947936]},"properties":{"ele":"870","natural":"peak"}}
{"type":"Feature","geometry":{"type":"Point","coordinates":[135.0331843,35.1257968]},"properties":{"ele":"485","name":"高見城山","name:en":"Mt. Takamijo","name:ja":"高見城山","name:ja-Hira":"たかみじょうさん","natural":"peak"}}
{"type":"Feature","geometry":{"type":"Point","coordinates":[135.032334,35.1079202]},"properties":{"ele":"548.5","natural":"peak"}}
{"type":"Feature","geometry":{"type":"Point","coordinates":[135.0412738,35.1034087]},"properties":{"ele":"536","natural":"peak"}}
{"type":"Feature","geometry":{"type":"Point","coordinates":[135.0468635,35.1213127]},"properties":{"ele":"380","natural":"peak"}}
{"type":"Feature","geometry":{"type":"Point","coordinates":[135.0738037,35.1140287]},"properties":{"ele":"377","natural":"peak"}}
{"type":"Feature","geometry":{"type":"Point","coordinates":[135.0706601,35.1035491]},"properties":{"ele":"409","natural":"peak"}}
{"type":"Feature","geometry":{"type":"Point","coordinates":[135.0769257,35.0947537]},"properties":{"ele":"432.8","natural":"peak"}}
{"type":"Feature","geometry":{"type":"Point","coordinates":[135.0845325,35.1560211]},"properties":{"ele":"568.8","name":"向山","name:en":"Mt. Mukai","name:ja":"向山","name:ja-Hira":"むかいやま","natural":"peak"}}
{"type":"Feature","geometry":{"type":"Point","coordinates":[135.0844896,35.1455382]},"properties":{"ele":"545.3","name":"清水山","name:en":"Mt. Kiyomizu","name:ja":"清水山","name:ja-Hira":"きよみずやま","natural":"peak"}}
{"type":"Feature","geometry":{"type":"Point","coordinates":[135.094521,35.145547]},"properties":{"ele":"571.3","name":"梅界","name:en":"Mt. Umekai","natural":"peak","survey_point:purpose":"horizontal","survey_point:structure":"block"}}
{"type":"Feature","geometry":{"type":"Point","coordinates":[135.1036835,35.1391425]},"properties":{"ele":"541.3","name":"権現山","name:en":"Gongen","natural":"peak"}}
{"type":"Feature","geometry":{"type":"Point","coordinates":[135.1032436,35.1345407]},"properties":{"ele":"594","name":"譲葉山","name:en":"Mt. Yuzuriha","name:ja":"譲葉山","name:ja-Hira":"ゆずりはやま","natural":"peak"}}
{"type":"Feature","geometry":{"type":"Point","coordinates":[135.2331483,35.1461874]},"properties":{"name":"543.1","natural":"peak"}}
{"type":"Feature","geometry":{"type":"Point","coordinates":[135.160836,35.1726507]},"properties":{"ele":"564.7","man_made":"survey_point","name":"妙高山","name:en":"Mount Myoko","name:ja":"妙高山","name:ja-Hira":"みょうこうさん","natural":"peak","survey_point:purpose":"horizontal","survey_point:structure":"block"}}
{"type":"Feature","geometry":{"type":"Point","coordinates":[39.7208874,43.7587866]},"properties":{"ele":"765","natural":"peak"}}
{"type":"Feature","geometry":{"type":"Point","coordinates":[94.6605853,30.7179723]},"properties":{"natural":"peak"}}
{"type":"Feature","geometry":{"type":"Point","coordinates":[109.0615804,32.2492553]},"properties":{"ele":"2267","name":"笔架山","natural":"peak"}}
{"type":"Feature","geometry":{"type":"Point","coordinates":[134.9829626,35.2621515]},"properties":{"ele":"626.3","name":"大箕山","name:en":"Mt. Omi","name:ja":"大箕山","name:ja-Hira":"おおみやま","natural":"peak"}}
{"type":"Feature","geometry":{"type":"Point","coordinates":[134.9417102,35.2696412]},"properties":{"ele":"722.3","natural":"peak"}}
{"type":"Feature","geometry":{"type":"Point","coordinates":[134.9245763,35.2666366]},"properties":{"ele":"814","natural":"peak"}}
{"type":"Feature","geometry":{"type":"Point","coordinates":[134.9152851,35.2511741]},"properties":{"ele":"582","natural":"peak"}}
{"type":"Feature","geometry":{"type":"Point","coordinates":[134.8994708,35.2419652]},"properties":{"ele":"876.2","natural":"peak"}}
{"type":"Feature","geometry":{"type":"Point","coordinates":[102.929339,29.3098007]},"properties":{"name":"包胡梗","natural":"peak"}}
{"type":"Feature","geometry":{"type":"Point","coordinates":[76.223137,34.6642929]},"properties":{"ele":"4555","ele:accuracy":"5","natural":"peak"}}
{"type":"Feature","geometry":{"type":"Point","coordinates":[76.2267085,34.6223897]},"properties":{"ele":"5235","ele:accuracy":"5","name":"Junkar 17627","natural":"peak"}}
{"type":"Feature","geometry":{"type":"Point","coordinates":[128.1963837,37.1871214]},"properties":{"ele":"650","name":"까치산까치봉","natural":"peak"}}
{"type":"Feature","geometry":{"type":"Point","coordinates":[128.1640845,37.1773298]},"properties":{"ele":"764","name":"백곡산","natural":"peak"}}
{"type":"Feature","geometry":{"type":"Point","coordinates":[120.3788577,23.3945602]},"properties":{"ele":"39","name":"上茄苳","natural":"peak"}}
{"type":"Feature","geometry":{"type":"Point","coordinates":[93.0652112,31.2320543]},"properties":{"natural":"peak"}}
{"type":"Feature","geometry":{"type":"Point","coordinates":[93.1697309,31.1678675]},"properties":{"name":"湖公","natural":"peak"}}
{"type":"Feature","geometry":{"type":"Point","coordinates":[115.8894177,39.6443663]},"properties":{"ele":"337","name":"烟筒塌山","natural":"peak"}}
{"type":"Feature","geometry":{"type":"Point","coordinates":[134.8278236,34.1684406]},"properties":{"ele":"117.2","natural":"peak"}}
{"type":"Feature","geometry":{"type":"Point","coordinates":[43.8858342,40.9004318]},"properties":{"ele":"2043","name":"Zaqari","name:ru":"Закари","natural":"peak"}}
{"type":"Feature","geometry":{"type":"Point","coordinates":[43.8884879,40.897073]},"properties":{"ele":"2095","name":"Սրբասար","name:en":"Srbasar","name:ru":"Србасар","natural":"peak"}}
{"type":"Feature","geometry":{"type":"Point","coordinates":[43.8986523,40.8932005]},"properties":{"ele":"2096","name":"Գողնքասար","name:en":"Goghnqasar","name:ru":"Гохнкасар","natural":"peak"}}
{"type":"Feature","geometry":{"type":"Point","coordinates":[43.887985,40.9024314]},"properties":{"ele":"2040","name":"Գևորգիսար","name:en":"Gevorgisar","name:ru":"Геворгисар","natural":"peak"}}
{"type":"Feature","geometry":{"type":"Point","coordinates":[43.9377684,40.897091]},"properties":{"ele":"2212","name":"Կոտրած","name:en":"Kotrats","name:ru":"Котрац","natural":"peak"}}
{"type":"Feature","geometry":{"type":"Point","coordinates":[43.3951335,25.7190056]},"properties":{"name":"هضيبة الرسيس","natural":"peak"}}
{"type":"Feature","geometry":{"type":"Point","coordinates":[135.0408232,34.2952852]},"properties":{"ele":"93.3","natural":"peak"}}
{"type":"Feature","geometry":{"type":"Point","coordinates":[135.13092,34.3049404]},"properties":{"name":"モトドリ山","name:en":"Mt. Motodori","name:ja":"モトドリ山","name:ja-Hira":"もとどりやま","natural":"peak"}}
{"type":"Feature","geometry":{"type":"Point","coordinates":[135.1153725,34.3173969]},"properties":{"name":"西光寺山","name:en":"Mt. Saikoji","name:ja":"西光寺山","name:ja-Hira":"さいこうじやま","natural":"peak"}}
{"type":"Feature","geometry":{"type":"Point","coordinates":[135.0730955,34.2676973]},"properties":{"ele":"130.5","natural":"peak"}}
{"type":"Feature","geometry":{"type":"Point","coordinates":[84.7594075,22.7509694]},"properties":{"alt_name":"Konjogapahār","ele":"627","gns:dsg_code":"HLL","gns:dsg_string":"hill","gns:id":"14288444","gns:uni":"18451296","name":"Kanjoga Pahār","name:en":"Konjogapahar","natural":"peak","source":"geonames.nga.mil(GNS)-country file (20220324))"}}
{"type":"Feature","geometry":{"type":"Point","coordinates":[128.7006473,36.0265611]},"properties":{"check_date":"2023.10.03","description":"군부대초소 바로 아래 봉","ele":"1096","name":"보현봉","natural":"peak"}}
{"type":"Feature","geometry":{"type":"Point","coordinates":[118.1318573,27.3103116]},"properties":{"natural":"peak"}}
{"type":"Feature","geometry":{"type":"Point","coordinates":[118.0936074,27.3004775]},"properties":{"natural":"peak"}}
{"type":"Feature","geometry":{"type":"Point","coordinates":[105.7064581,33.3487593]},"properties":{"natural":"peak"}}
{"type":"Feature","geometry":{"type":"Point","coordinates":[105.6697225,33.3584022]},"properties":{"natural":"peak"}}
{"type":"Feature","geometry":{"type":"Point","coordinates":[135.2722335,34.2926882]},"properties":{"ele":"246.1","natural":"peak"}}
{"type":"Feature","geometry":{"type":"Point","coordinates":[108.2328523,33.9138452]},"properties":{"ele":"2631","name":"四方台","natural":"peak"}}
{"type":"Feature","geometry":{"type":"Point","coordinates":[108.3134762,33.8493252]},"properties":{"ele":"2997","name":"光头山","natural":"peak"}}
{"type":"Feature","geometry":{"type":"Point","coordinates":[108.4059232,33.7642247]},"properties":{"ele":"2965","name":"东梁","natural":"peak"}}
{"type":"Feature","geometry":{"type":"Point","coordinates":[107.7620439,33.7216736]},"properties":{"ele":"2904","name":"黄桶梁","natural":"peak"}}
{"type":"Feature","geometry":{"type":"Point","coordinates":[108.9692676,33.8741892]},"properties":{"ele":"2802","name":"牛背梁","natural":"peak"}}
{"type":"Feature","geometry":{"type":"Point","coordinates":[107.1053029,34.1221255]},"properties":{"ele":"2819","name":"玉皇山","natural":"peak"}}
{"type":"Feature","geometry":{"type":"Point","coordinates":[105.8964443,33.6140475]},"properties":{"natural":"peak"}}
{"type":"Feature","geometry":{"type":"Point","coordinates":[108.9968896,33.6232943]},"properties":{"ele":"2409","name":"迷魂阵","natural":"peak"}}
{"type":"Feature","geometry":{"type":"Point","coordinates":[109.6837905,34.2449546]},"properties":{"ele":"2449","name":"箭峪岭","natural":"peak"}}
{"type":"Feature","geometry":{"type":"Point","coordinates":[109.0455496,33.9243535]},"properties":{"ele":"2604","name":"终南山","natural":"peak"}}
{"type":"Feature","geometry":{"type":"Point","coordinates":[109.1433815,33.9498157]},"properties":{"ele":"2340","name":"太兴山","natural":"peak"}}
{"type":"Feature","geometry":{"type":"Point","coordinates":[108.9747012,33.9899964]},"properties":{"ele":"1688","name":"南五台","natural":"peak"}}
{"type":"Feature","geometry":{"type":"Point","coordinates":[108.6017235,33.9557995]},"properties":{"ele":"2134","name":"郭家山","natural":"peak"}}
{"type":"Feature","geometry":{"type":"Point","coordinates":[110.3622935,18.7363227]},"properties":{"natural":"peak"}}
{"type":"Feature","geometry":{"type":"Point","coordinates":[110.3502216,18.7310725]},"properties":{"natural":"peak"}}
{"type":"Feature","geometry":{"type":"Point","coordinates":[110.3547595,18.7165653]},"properties":{"natural":"peak"}}
{"type":"Feature","geometry":{"type":"Point","coordinates":[110.3609172,18.7103039]},"properties":{"natural":"peak"}}
{"type":"Feature","geometry":{"type":"Point","coordinates":[110.3577868,18.7011622]},"properties":{"natural":"peak"}}
{"type":"Feature","geometry":{"type":"Point","coordinates":[110.3386042,18.6910087]},"properties":{"natural":"peak"}}
{"type":"Feature","geometry":{"type":"Point","coordinates":[118.2012049,25.2227387]},"properties":{"name":"天柱山","natural":"peak"}}
{"type":"Feature","geometry":{"type":"Point","coordinates":[106.0314989,33.5735811]},"properties":{"natural":"peak"}}
{"type":"Feature","geometry":{"type":"Point","coordinates":[106.0261344,33.5459373]},"properties":{"natural":"peak"}}
{"type":"Feature","geometry":{"type":"Point","coordinates":[104.3664404,23.5927549]},"properties":{"name":"狮子头山","natural":"peak"}}
{"type":"Feature","geometry":{"type":"Point","coordinates":[109.8248827,30.4830282]},"properties":{"natural":"peak"}}
{"type":"Feature","geometry":{"type":"Point","coordinates":[109.7054279,30.4543941]},"properties":{"natural":"peak"}}
{"type":"Feature","geometry":{"type":"Point","coordinates":[125.4766667,38.8719255]},"properties":{"ele":"69","natural":"peak"}}
{"type":"Feature","geometry":{"type":"Point","coordinates":[137.0787908,35.3263975]},"properties":{"ele":"370","name":"池田富士","natural":"peak"}}
{"type":"Feature","geometry":{"type":"Point","coordinates":[90.1845544,30.9538027]},"properties":{"name":"布亚","natural":"peak"}}
{"type":"Feature","geometry":{"type":"Point","coordinates":[90.5449363,26.3952021]},"properties":{"name":"Nakkati hill","natural":"peak"}}
{"type":"Feature","geometry":{"type":"Point","coordinates":[136.0945719,34.0470813]},"properties":{"ele":"1150.5","natural":"peak"}}
{"type":"Feature","geometry":{"type":"Point","coordinates":[136.1116576,34.0392536]},"properties":{"ele":"1094","natural":"peak"}}
{"type":"Feature","geometry":{"type":"Point","coordinates":[136.035912,34.052615]},"properties":{"ele":"925","natural":"peak"}}
{"type":"Feature","geometry":{"type":"Point","coordinates":[100.2120835,5.2979367]},"properties":{"ele":"283","name":"Bukit Kimpul","natural":"peak","wikidata":"Q116869294"}}
{"type":"Feature","geometry":{"type":"Point","coordinates":[100.2034624,5.2905839]},"properties":{"ele":"243","name":"Bukit Candan","natural":"peak","wikidata":"Q116869268"}}
{"type":"Feature","geometry":{"type":"Point","coordinates":[135.9896386,34.0225112]},"properties":{"ele":"540.6","natural":"peak"}}
{"type":"Feature","geometry":{"type":"Point","coordinates":[135.9558199,34.0574994]},"properties":{"ele":"847.8","name":"奥佐田山","name:en":"Mt. Okusada","name:ja":"奥佐田山","name:ja-Hira":"おくさだやま","natural":"peak"}}
{"type":"Feature","geometry":{"type":"Point","coordinates":[135.9632778,34.0201369]},"properties":{"ele":"703.5","natural":"peak"}}
{"type":"Feature","geometry":{"type":"Point","coordinates":[136.0181236,34.0357774]},"properties":{"ele":"991.3","natural":"peak"}}
{"type":"Feature","geometry":{"type":"Point","coordinates":[136.0310733,34.018225]},"properties":{"ele":"837","natural":"peak"}}
{"type":"Feature","geometry":{"type":"Point","coordinates":[136.0063112,34.0756657]},"properties":{"ele":"1056","natural":"peak"}}
{"type":"Feature","geometry":{"type":"Point","coordinates":[135.9291386,34.072542]},"properties":{"ele":"1277","natural":"peak"}}
{"type":"Feature","geometry":{"type":"Point","coordinates":[100.2064078,5.292248]},"properties":{"ele":"272","name":"Bukit Pari","natural":"peak","wikidata":"Q116869289"}}
{"type":"Feature","geometry":{"type":"Point","coordinates":[136.1450028,33.8988635]},"properties":{"ele":"149","natural":"peak"}}
{"type":"Feature","geometry":{"type":"Point","coordinates":[136.1268282,33.907786]},"properties":{"ele":"294.7","natural":"peak"}}
{"type":"Feature","geometry":{"type":"Point","coordinates":[136.1343598,33.8932708]},"properties":{"name":"184.8","natural":"peak"}}
{"type":"Feature","geometry":{"type":"Point","coordinates":[136.1687672,33.9565851]},"properties":{"ele":"581.8","natural":"peak"}}
{"type":"Feature","geometry":{"type":"Point","coordinates":[136.2611961,34.0207638]},"properties":{"ele":"397.9","name":"頂山","name:en":"Mt. Itadaki","name:ja":"頂山","name:ja-Hira":"いただきやま","natural":"peak","wikidata":"Q31486832"}}
{"type":"Feature","geometry":{"type":"Point","coordinates":[136.2037754,33.9537551]},"properties":{"ele":"384","natural":"peak"}}
{"type":"Feature","geometry":{"type":"Point","coordinates":[136.2147081,33.9355538]},"properties":{"ele":"162","natural":"peak"}}
{"type":"Feature","geometry":{"type":"Point","coordinates":[136.179893,33.9202421]},"properties":{"ele":"331.4","natural":"peak"}}
{"type":"Feature","geometry":{"type":"Point","coordinates":[136.1158633,33.9312633]},"properties":{"ele":"687.3","name":"大蛇峰","name:en":"Mt. Ojamine","name:ja":"大蛇峰","name:ja-Hira":"おじゃみね","natural":"peak"}}
{"type":"Feature","geometry":{"type":"Point","coordinates":[136.1993658,34.023018]},"properties":{"ele":"751.5","natural":"peak"}}
{"type":"Feature","geometry":{"type":"Point","coordinates":[136.2163925,34.0302649]},"properties":{"ele":"647","name":"八鬼山","name:en":"Mt. Yakiyama","name:ja":"八鬼山","name:ja-Hira":"やきやま","natural":"peak","wikidata":"Q31487023"}}
{"type":"Feature","geometry":{"type":"Point","coordinates":[67.809467,33.1671798]},"properties":{"description":"frontier among Hazara and Pashton","name":"Zard koh Tamaki (koh Zarkashan)","name:fa":"زرد کوه تمکی","natural":"peak"}}
{"type":"Feature","geometry":{"type":"Point","coordinates":[121.0644355,27.9663918]},"properties":{"ele":"352","name":"小荆山","natural":"peak"}}
{"type":"Feature","geometry":{"type":"Point","coordinates":[136.1337161,33.9855914]},"properties":{"ele":"927.5","name":"ゲジョ山","name:en":"Mt. Gejo","name:ja":"ゲジョ山","name:ja-Hira":"げじょやま","natural":"peak"}}
{"type":"Feature","geometry":{"type":"Point","coordinates":[136.1725867,33.9881535]},"properties":{"ele":"688.5","name":"亥谷山","name:en":"Mt. Igatani","name:ja":"亥谷山","name:ja-Hira":"いがたにやま","natural":"peak","wikidata":"Q31486873"}}
{"type":"Feature","geometry":{"type":"Point","coordinates":[136.1505496,34.0132805]},"properties":{"ele":"882","natural":"peak"}}
{"type":"Feature","geometry":{"type":"Point","coordinates":[108.3153247,31.693411]},"properties":{"natural":"peak"}}
{"type":"Feature","geometry":{"type":"Point","coordinates":[103.1532974,14.313467]},"properties":{"ele":"385","natural":"peak"}}
{"type":"Feature","geometry":{"type":"Point","coordinates":[103.1024515,14.3001574]},"properties":{"ele":"535","natural":"peak"}}
{"type":"Feature","geometry":{"type":"Point","coordinates":[103.0807008,14.2973734]},"properties":{"ele":"545","natural":"peak"}}
{"type":"Feature","geometry":{"type":"Point","coordinates":[103.2176543,14.3236353]},"properties":{"ele":"295","natural":"peak"}}
{"type":"Feature","geometry":{"type":"Point","coordinates":[104.6006271,12.2262302]},"properties":{"ele":"305","natural":"peak"}}
{"type":"Feature","geometry":{"type":"Point","coordinates":[104.6001941,12.2102564]},"properties":{"ele":"225","natural":"peak"}}
{"type":"Feature","geometry":{"type":"Point","coordinates":[108.3803687,31.6184136]},"properties":{"natural":"peak"}}
{"type":"Feature","geometry":{"type":"Point","coordinates":[108.3677376,31.6108651]},"properties":{"natural":"peak"}}
{"type":"Feature","geometry":{"type":"Point","coordinates":[108.3720865,31.6139082]},"properties":{"natural":"peak"}}
{"type":"Feature","geometry":{"type":"Point","coordinates":[108.4018266,31.5948174]},"properties":{"natural":"peak"}}
{"type":"Feature","geometry":{"type":"Point","coordinates":[108.3972401,31.5954475]},"properties":{"natural":"peak"}}
{"type":"Feature","geometry":{"type":"Point","coordinates":[108.3461335,31.6415184]},"properties":{"natural":"peak"}}
{"type":"Feature","geometry":{"type":"Point","coordinates":[108.3893019,31.6282021]},"properties":{"natural":"peak"}}
{"type":"Feature","geometry":{"type":"Point","coordinates":[108.3607711,31.6305606]},"properties":{"natural":"peak"}}
{"type":"Feature","geometry":{"type":"Point","coordinates":[108.3534445,31.6481533]},"properties":{"natural":"peak"}}
{"type":"Feature","geometry":{"type":"Point","coordinates":[108.3904851,31.6040809]},"properties":{"natural":"peak"}}
{"type":"Feature","geometry":{"type":"Point","coordinates":[108.3738185,31.608335]},"properties":{"natural":"peak"}}
{"type":"Feature","geometry":{"type":"Point","coordinates":[108.3867883,31.5987103]},"properties":{"natural":"peak"}}
{"type":"Feature","geometry":{"type":"Point","coordinates":[121.167511,24.6685821]},"properties":{"ele":"1139.5","name":"向天湖山東峰","natural":"peak","source":"NLSC"}}
{"type":"Feature","geometry":{"type":"Point","coordinates":[76.8888044,8.5177455]},"properties":{"name":"Veli Hill","natural":"peak"}}
{"type":"Feature","geometry":{"type":"Point","coordinates":[122.0987736,30.0237394]},"properties":{"name":"镇鳌山","natural":"peak"}}
{"type":"Feature","geometry":{"type":"Point","coordinates":[111.3220673,25.3025537]},"properties":{"natural":"peak"}}
{"type":"Feature","geometry":{"type":"Point","coordinates":[119.0088,28.7653323]},"properties":{"name":"大坞","natural":"peak"}}
{"type":"Feature","geometry":{"type":"Point","coordinates":[119.0147509,28.7589199]},"properties":{"ele":"1171","name":"石古坪","natural":"peak"}}
{"type":"Feature","geometry":{"type":"Point","coordinates":[118.8217077,29.2267585]},"properties":{"ele":"844","name":"花树岭","natural":"peak"}}
{"type":"Feature","geometry":{"type":"Point","coordinates":[118.8727753,29.2633165]},"properties":{"ele":"770","name":"外郎山","natural":"peak"}}
{"type":"Feature","geometry":{"type":"Point","coordinates":[118.887042,28.7465526]},"properties":{"ele":"810.2","name":"山毛尖","natural":"peak"}}
{"type":"Feature","geometry":{"type":"Point","coordinates":[119.054132,28.820642]},"properties":{"ele":"1072","name":"龙门","natural":"peak"}}
{"type":"Feature","geometry":{"type":"Point","coordinates":[118.8498971,29.2303354]},"properties":{"ele":"906","name":"金竹岭","natural":"peak"}}
{"type":"Feature","geometry":{"type":"Point","coordinates":[137.0691025,35.3467524]},"properties":{"REF":"TR35337001501","alt_name":"北小木","ele":"416.63","man_made":"survey_point","name":"高社山","name:en":"Takayasiro-Yama","natural":"peak","wikidata":"Q31687940"}}
{"type":"Feature","geometry":{"type":"Point","coordinates":[137.1585759,35.3834654]},"properties":{"ele":"225.65","man_made":"survey_point","name":"高根山","natural":"peak","ref":"TR45337003701"}}
{"type":"Feature","geometry":{"type":"Point","coordinates":[137.1251093,35.3842928]},"properties":{"ele":"372","name":"浅間山","natural":"peak"}}
{"type":"Feature","geometry":{"type":"Point","coordinates":[90.1018035,52.7245408]},"properties":{"ele":"1131","name":"Учсуг-таг","natural":"peak"}}
{"type":"Feature","geometry":{"type":"Point","coordinates":[89.4478651,52.3084066]},"properties":{"name":"Чалпан","natural":"peak"}}
{"type":"Feature","geometry":{"type":"Point","coordinates":[108.3411111,33.7949038]},"properties":{"ele":"2883","name":"天华山","natural":"peak"}}
{"type":"Feature","geometry":{"type":"Point","coordinates":[108.2994223,33.7646766]},"properties":{"ele":"2896","name":"草垭子","natural":"peak"}}
{"type":"Feature","geometry":{"type":"Point","coordinates":[108.0524789,33.930489]},"properties":{"ele":"2557","name":"东老君岭","natural":"peak"}}
{"type":"Feature","geometry":{"type":"Point","coordinates":[92.6105991,35.4503343]},"properties":{"natural":"peak"}}
{"type":"Feature","geometry":{"type":"Point","coordinates":[97.83728,51.4100686]},"properties":{"natural":"peak"}}
{"type":"Feature","geometry":{"type":"Point","coordinates":[97.8594067,51.4252364]},"properties":{"natural":"peak"}}
{"type":"Feature","geometry":{"type":"Point","coordinates":[98.058289,51.5701253]},"properties":{"natural":"peak"}}
{"type":"Feature","geometry":{"type":"Point","coordinates":[131.1010997,32.3117006]},"properties":{"ele":"1720.5","int_name":"Ichifusayama","name":"市房山","name:en":"Mt. Ichifusa","name:ja":"市房山","name:ja-Hira":"いちふさやま","name:ja-Latn":"Ichifusayama","natural":"peak","source":"GPS","wikidata":"Q11480478","wikipedia":"ja:市房山"}}
{"type":"Feature","geometry":{"type":"Point","coordinates":[124.1214388,9.75154]},"properties":{"natural":"peak"}}
{"type":"Feature","geometry":{"type":"Point","coordinates":[124.1513474,9.75729]},"properties":{"natural":"peak"}}
{"type":"Feature","geometry":{"type":"Point","coordinates":[95.4668649,29.2870741]},"properties":{"ele":"4135","ele:accuracy":"5","name:en":"14166","natural":"peak","source":"McMahon 1914"}}
{"type":"Feature","geometry":{"type":"Point","coordinates":[125.4913959,38.8790493]},"properties":{"ele":"111","natural":"peak"}}
{"type":"Feature","geometry":{"type":"Point","coordinates":[87.5850057,48.6325092]},"properties":{"natural":"peak"}}
{"type":"Feature","geometry":{"type":"Point","coordinates":[87.6131272,48.6312304]},"properties":{"natural":"peak"}}
{"type":"Feature","geometry":{"type":"Point","coordinates":[122.2868597,29.9553128]},"properties":{"name":"岭驼山","natural":"peak"}}
{"type":"Feature","geometry":{"type":"Point","coordinates":[122.280332,29.9574464]},"properties":{"name":"狮子山","natural":"peak"}}
{"type":"Feature","geometry":{"type":"Point","coordinates":[122.2687465,29.95708]},"properties":{"name":"炮台岗","natural":"peak"}}
{"type":"Feature","geometry":{"type":"Point","coordinates":[122.2935969,29.9619587]},"properties":{"name":"太平岗","natural":"peak"}}
{"type":"Feature","geometry":{"type":"Point","coordinates":[122.2985679,29.9545002]},"properties":{"name":"庙山","natural":"peak"}}
{"type":"Feature","geometry":{"type":"Point","coordinates":[122.2983276,29.9626973]},"properties":{"name":"相湾岗","natural":"peak"}}
{"type":"Feature","geometry":{"type":"Point","coordinates":[122.3021385,29.9627677]},"properties":{"name":"尖峰岗","natural":"peak"}}
{"type":"Feature","geometry":{"type":"Point","coordinates":[122.3041663,29.9595638]},"properties":{"name":"大岗","natural":"peak"}}
{"type":"Feature","geometry":{"type":"Point","coordinates":[122.3010355,29.9670382]},"properties":{"name":"小蜈蚣岙","natural":"peak"}}
{"type":"Feature","geometry":{"type":"Point","coordinates":[122.2979497,29.978394]},"properties":{"name":"刁路基岗","natural":"peak"}}
{"type":"Feature","geometry":{"type":"Point","coordinates":[122.2953021,29.9801648]},"properties":{"name":"西岙岭","natural":"peak"}}
{"type":"Feature","geometry":{"type":"Point","coordinates":[122.3017372,29.9791714]},"properties":{"name":"乌臼岭","natural":"peak"}}
{"type":"Feature","geometry":{"type":"Point","coordinates":[122.2908069,29.9823815]},"properties":{"name":"美女山","natural":"peak"}}
{"type":"Feature","geometry":{"type":"Point","coordinates":[122.2846595,29.9872092]},"properties":{"name":"丁家山","natural":"peak"}}
{"type":"Feature","geometry":{"type":"Point","coordinates":[77.1249937,42.7425236]},"properties":{"ele":"3170","name":"Боз Ала","natural":"peak"}}
{"type":"Feature","geometry":{"type":"Point","coordinates":[77.2081276,42.7285113]},"properties":{"ele":"2584","name":"Туюк-Жар","natural":"peak"}}
{"type":"Feature","geometry":{"type":"Point","coordinates":[77.2129237,42.7197477]},"properties":{"ele":"2447","natural":"peak"}}
{"type":"Feature","geometry":{"type":"Point","coordinates":[76.9721233,42.7767132]},"properties":{"ele":"4005","natural":"peak"}}
{"type":"Feature","geometry":{"type":"Point","coordinates":[76.9574011,42.7538437]},"properties":{"ele":"3552","natural":"peak"}}
{"type":"Feature","geometry":{"type":"Point","coordinates":[77.0318513,42.7446553]},"properties":{"ele":"3185","natural":"peak"}}
{"type":"Feature","geometry":{"type":"Point","coordinates":[77.1531111,42.6808768]},"properties":{"ele":"2059","natural":"peak"}}
{"type":"Feature","geometry":{"type":"Point","coordinates":[76.9616942,42.7344299]},"properties":{"natural":"peak"}}
{"type":"Feature","geometry":{"type":"Point","coordinates":[77.051159,42.7858774]},"properties":{"ele":"4082","name":"Теке Төр","natural":"peak"}}
{"type":"Feature","geometry":{"type":"Point","coordinates":[121.7424829,24.8524487]},"properties":{"ele":"890","man_made":"summit_board","name":"竹仔崙山","natural":"peak"}}
{"type":"Feature","geometry":{"type":"Point","coordinates":[110.7319804,-7.6773967]},"properties":{"name":"Gunung Wijil","natural":"peak"}}
{"type":"Feature","geometry":{"type":"Point","coordinates":[137.4039901,35.5724963]},"properties":{"ele":"1165","name":"東森山","natural":"peak"}}
{"type":"Feature","geometry":{"type":"Point","coordinates":[121.4307636,37.5338241]},"properties":{"ele":"24.7","name":"岿岱山","natural":"peak"}}
{"type":"Feature","geometry":{"type":"Point","coordinates":[121.3560212,37.5494175]},"properties":{"ele":"106","name":"西炮台山/垛山/通伸山/通伸岗","natural":"peak","source":"常用地名、GIS、福山县志（“因其麓有古石臼欹侧,泉自中出,不冻不涸,名通神泉,神伸同音,故山名通伸山”）及其他网络资料"}}
{"type":"Feature","geometry":{"type":"Point","coordinates":[139.274672,35.890597]},"properties":{"ele":"245","name":"愛宕山","name:en":"Atagoyama","name:ja-Hira":"あたごやま","natural":"peak"}}
{"type":"Feature","geometry":{"type":"Point","coordinates":[125.4768399,38.8826564]},"properties":{"ele":"92","natural":"peak"}}
{"type":"Feature","geometry":{"type":"Point","coordinates":[109.3311002,22.1589967]},"properties":{"natural":"peak"}}
{"type":"Feature","geometry":{"type":"Point","coordinates":[109.3354832,22.1659968]},"properties":{"natural":"peak"}}
{"type":"Feature","geometry":{"type":"Point","coordinates":[115.3588866,22.7219246]},"properties":{"natural":"peak"}}
{"type":"Feature","geometry":{"type":"Point","coordinates":[115.3744479,22.7089002]},"properties":{"natural":"peak"}}
{"type":"Feature","geometry":{"type":"Point","coordinates":[111.1141333,25.0637525]},"properties":{"name":"一字山","natural":"peak"}}
{"type":"Feature","geometry":{"type":"Point","coordinates":[137.9421569,36.0842605]},"properties":{"ele":"1160.6","man_made":"survey_point","natural":"peak"}}
{"type":"Feature","geometry":{"type":"Point","coordinates":[137.9347917,36.1009304]},"properties":{"ele":"809.4","man_made":"survey_point","name":"比叡ノ山","name:en":"Mt. Hiei-no-yama","natural":"peak"}}
{"type":"Feature","geometry":{"type":"Point","coordinates":[137.932606,36.0843064]},"properties":{"ele":"1092","name":"鳴雷山","natural":"peak"}}
{"type":"Feature","geometry":{"type":"Point","coordinates":[69.0470182,34.4409622]},"properties":{"name":"Koh Qorigh","natural":"peak"}}
{"type":"Feature","geometry":{"type":"Point","coordinates":[114.206756,22.5504897]},"properties":{"ele":"394","landform":"peak","natural":"peak","old_name:yue":"亞公頂","old_name:yue-Latn":"A Kung Teng"}}
{"type":"Feature","geometry":{"type":"Point","coordinates":[114.204236,22.548741]},"properties":{"ele":"439","landform":"peak","name":"二峒 Yi Tung","name:en":"Yi Tung","name:zh":"二峒","natural":"peak","old_name":"雞麻石"}}
{"type":"Feature","geometry":{"type":"Point","coordinates":[114.2023668,22.5459868]},"properties":{"ele":"436","name":"三峒 Sam Tung","name:en":"Sam Tung","name:zh":"三峒","natural":"peak"}}
{"type":"Feature","geometry":{"type":"Point","coordinates":[113.4879961,23.2385843]},"properties":{"natural":"peak"}}
{"type":"Feature","geometry":{"type":"Point","coordinates":[105.1801765,32.3790826]},"properties":{"natural":"peak"}}
{"type":"Feature","geometry":{"type":"Point","coordinates":[42.8541068,42.0733752]},"properties":{"ele":"596.8","name":"ამილახვარი","natural":"peak"}}
{"type":"Feature","geometry":{"type":"Point","coordinates":[42.8746491,42.0663622]},"properties":{"ele":"908","name":"ტახდური","natural":"peak"}}
{"type":"Feature","geometry":{"type":"Point","coordinates":[42.9017313,42.0699403]},"properties":{"ele":"1029.8","name":"თენებოური","natural":"peak"}}
{"type":"Feature","geometry":{"type":"Point","coordinates":[42.9193704,42.0710578]},"properties":{"ele":"1012.8","natural":"peak"}}
{"type":"Feature","geometry":{"type":"Point","coordinates":[74.0482535,33.8009082]},"properties":{"ele":"1720","ele:accuracy":"10","name":"5724","natural":"peak","source":"US AMS map NI 46-10"}}
{"type":"Feature","geometry":{"type":"Point","coordinates":[39.8089867,23.6034625]},"properties":{"name":"النِّميرة","natural":"peak"}}
{"type":"Feature","geometry":{"type":"Point","coordinates":[39.821917,22.7484959]},"properties":{"name":"الشقراء","natural":"peak"}}
{"type":"Feature","geometry":{"type":"Point","coordinates":[92.4205611,35.4081368]},"properties":{"natural":"peak"}}
{"type":"Feature","geometry":{"type":"Point","coordinates":[92.9023063,35.3902965]},"properties":{"name":"高山","natural":"peak"}}
{"type":"Feature","geometry":{"type":"Point","coordinates":[105.2554607,32.368345]},"properties":{"natural":"peak"}}
{"type":"Feature","geometry":{"type":"Point","coordinates":[105.2818107,32.341246]},"properties":{"natural":"peak"}}
{"type":"Feature","geometry":{"type":"Point","coordinates":[111.3708704,25.2392336]},"properties":{"natural":"peak"}}
{"type":"Feature","geometry":{"type":"Point","coordinates":[111.3711605,25.2371972]},"properties":{"natural":"peak"}}
{"type":"Feature","geometry":{"type":"Point","coordinates":[111.3708566,25.2417614]},"properties":{"natural":"peak"}}
{"type":"Feature","geometry":{"type":"Point","coordinates":[111.3701893,25.2288478]},"properties":{"natural":"peak"}}
{"type":"Feature","geometry":{"type":"Point","coordinates":[111.3692751,25.2301797]},"properties":{"natural":"peak"}}
{"type":"Feature","geometry":{"type":"Point","coordinates":[111.3724433,25.2297189]},"properties":{"natural":"peak"}}
{"type":"Feature","geometry":{"type":"Point","coordinates":[111.3679562,25.2252243]},"properties":{"natural":"peak"}}
{"type":"Feature","geometry":{"type":"Point","coordinates":[111.363247,25.2329641]},"properties":{"natural":"peak"}}
{"type":"Feature","geometry":{"type":"Point","coordinates":[111.3649624,25.2351176]},"properties":{"natural":"peak"}}
{"type":"Feature","geometry":{"type":"Point","coordinates":[111.3634795,25.2370826]},"properties":{"natural":"peak"}}
{"type":"Feature","geometry":{"type":"Point","coordinates":[111.3641929,25.2402729]},"properties":{"natural":"peak"}}
{"type":"Feature","geometry":{"type":"Point","coordinates":[111.3656037,25.2402802]},"properties":{"natural":"peak"}}
{"type":"Feature","geometry":{"type":"Point","coordinates":[111.3669344,25.2441084]},"properties":{"natural":"peak"}}
{"type":"Feature","geometry":{"type":"Point","coordinates":[111.3679203,25.2459065]},"properties":{"natural":"peak"}}
{"type":"Feature","geometry":{"type":"Point","coordinates":[111.3679677,25.2471791]},"properties":{"natural":"peak"}}
{"type":"Feature","geometry":{"type":"Point","coordinates":[111.3640486,25.2442389]},"properties":{"natural":"peak"}}
{"type":"Feature","geometry":{"type":"Point","coordinates":[111.3600086,25.2434051]},"properties":{"natural":"peak"}}
{"type":"Feature","geometry":{"type":"Point","coordinates":[111.3593513,25.2393013]},"properties":{"natural":"peak"}}
{"type":"Feature","geometry":{"type":"Point","coordinates":[111.3578603,25.2333121]},"properties":{"natural":"peak"}}
{"type":"Feature","geometry":{"type":"Point","coordinates":[111.3562812,25.2309555]},"properties":{"natural":"peak"}}
{"type":"Feature","geometry":{"type":"Point","coordinates":[111.3545097,25.2315283]},"properties":{"natural":"peak"}}
{"type":"Feature","geometry":{"type":"Point","coordinates":[111.3578122,25.2302594]},"properties":{"natural":"peak"}}
{"type":"Feature","geometry":{"type":"Point","coordinates":[111.3557121,25.2286351]},"properties":{"natural":"peak"}}
{"type":"Feature","geometry":{"type":"Point","coordinates":[111.3568343,25.2245018]},"properties":{"natural":"peak"}}
{"type":"Feature","geometry":{"type":"Point","coordinates":[111.3559205,25.2225728]},"properties":{"natural":"peak"}}
{"type":"Feature","geometry":{"type":"Point","coordinates":[111.3551349,25.2200347]},"properties":{"natural":"peak"}}
{"type":"Feature","geometry":{"type":"Point","coordinates":[111.3609785,25.2213836]},"properties":{"natural":"peak"}}
{"type":"Feature","geometry":{"type":"Point","coordinates":[111.3795995,25.2350161]},"properties":{"natural":"peak"}}
{"type":"Feature","geometry":{"type":"Point","coordinates":[114.2607756,22.5374492]},"properties":{"ele":"118","name":"白角頂 Pak Kok Teng","name:en":"Pak Kok Teng","name:zh":"白角頂","natural":"peak"}}
{"type":"Feature","geometry":{"type":"Point","coordinates":[67.6848141,33.1562982]},"properties":{"name":"Koh Sarqol Nala Kalan","natural":"peak"}}
{"type":"Feature","geometry":{"type":"Point","coordinates":[137.6460857,36.3430345]},"properties":{"ele":"3030","name":"小槍","name:en":"Mount Koyari","name:ja":"小槍","name:ja-Hira":"こやり","natural":"peak","source":"GSImaps/std;survey"}}
{"type":"Feature","geometry":{"type":"Point","coordinates":[127.9939589,35.4746297]},"properties":{"ele":"767","name":"모산재","name:en":"Mosanjae","natural":"peak"}}
{"type":"Feature","geometry":{"type":"Point","coordinates":[115.6102521,39.672474]},"properties":{"ele":"890","name":"三棱坨","natural":"peak"}}
{"type":"Feature","geometry":{"type":"Point","coordinates":[113.9059169,22.2908811]},"properties":{"ele":"85","natural":"peak"}}
{"type":"Feature","geometry":{"type":"Point","coordinates":[114.0194594,22.3301368]},"properties":{"ele":"63","natural":"peak"}}
{"type":"Feature","geometry":{"type":"Point","coordinates":[114.2777924,22.4441732]},"properties":{"ele":"36","natural":"peak"}}
{"type":"Feature","geometry":{"type":"Point","coordinates":[114.2811994,22.4457206]},"properties":{"ele":"116","natural":"peak"}}
{"type":"Feature","geometry":{"type":"Point","coordinates":[113.9985099,22.2394427]},"properties":{"ele":"52","natural":"peak"}}
{"type":"Feature","geometry":{"type":"Point","coordinates":[114.1985132,22.3791544]},"properties":{"ele":"22","natural":"peak"}}
{"type":"Feature","geometry":{"type":"Point","coordinates":[114.1791787,22.3891317]},"properties":{"ele":"236","natural":"peak"}}
{"type":"Feature","geometry":{"type":"Point","coordinates":[122.2845117,29.9799947]},"properties":{"name":"黄顶尖","natural":"peak"}}
{"type":"Feature","geometry":{"type":"Point","coordinates":[122.3165657,29.9972082]},"properties":{"name":"黄顶尖","natural":"peak"}}
{"type":"Feature","geometry":{"type":"Point","coordinates":[122.3126311,30.0182409]},"properties":{"name":"大展湾岗","natural":"peak"}}
{"type":"Feature","geometry":{"type":"Point","coordinates":[122.2810295,30.0096978]},"properties":{"name":"顶梁尖","natural":"peak"}}
{"type":"Feature","geometry":{"type":"Point","coordinates":[122.2682309,30.0164467]},"properties":{"name":"响岩山","natural":"peak"}}
{"type":"Feature","geometry":{"type":"Point","coordinates":[122.2607068,30.0277791]},"properties":{"name":"老虎山","natural":"peak"}}
{"type":"Feature","geometry":{"type":"Point","coordinates":[122.2443914,30.0117016]},"properties":{"name":"雷岗尖","natural":"peak"}}
{"type":"Feature","geometry":{"type":"Point","coordinates":[122.2319068,30.0229437]},"properties":{"name":"铁火尖山","natural":"peak"}}
{"type":"Feature","geometry":{"type":"Point","coordinates":[122.2283823,30.0300137]},"properties":{"name":"青龙山","natural":"peak"}}
{"type":"Feature","geometry":{"type":"Point","coordinates":[122.2230365,30.0280486]},"properties":{"name":"大湾岗","natural":"peak"}}
{"type":"Feature","geometry":{"type":"Point","coordinates":[122.2341489,30.0273381]},"properties":{"name":"正山","natural":"peak"}}
{"type":"Feature","geometry":{"type":"Point","coordinates":[122.2220708,30.0072445]},"properties":{"name":"松山","natural":"peak"}}
{"type":"Feature","geometry":{"type":"Point","coordinates":[122.1848633,30.0062374]},"properties":{"name":"小青岭","natural":"peak"}}
{"type":"Feature","geometry":{"type":"Point","coordinates":[122.1966082,30.0254716]},"properties":{"name":"葛藤尖","natural":"peak"}}
{"type":"Feature","geometry":{"type":"Point","coordinates":[122.191421,30.0251851]},"properties":{"name":"卖柴岭","natural":"peak"}}
{"type":"Feature","geometry":{"type":"Point","coordinates":[122.1824163,30.0216764]},"properties":{"name":"高道山","natural":"peak"}}
{"type":"Feature","geometry":{"type":"Point","coordinates":[122.170733,30.0274142]},"properties":{"name":"沈公岭","natural":"peak"}}
{"type":"Feature","geometry":{"type":"Point","coordinates":[122.166355,30.0289189]},"properties":{"name":"长岗山大岙岗","natural":"peak"}}
{"type":"Feature","geometry":{"type":"Point","coordinates":[122.1629704,30.0302306]},"properties":{"name":"大岙岗","natural":"peak"}}
{"type":"Feature","geometry":{"type":"Point","coordinates":[122.1692812,30.0382445]},"properties":{"name":"钱洞岭","natural":"peak"}}
{"type":"Feature","geometry":{"type":"Point","coordinates":[122.1666445,30.0178746]},"properties":{"name":"沈岭","natural":"peak"}}
{"type":"Feature","geometry":{"type":"Point","coordinates":[122.1637845,30.0091665]},"properties":{"name":"黄树岭","natural":"peak"}}
{"type":"Feature","geometry":{"type":"Point","coordinates":[122.1710508,30.0039991]},"properties":{"name":"象山","natural":"peak"}}
{"type":"Feature","geometry":{"type":"Point","coordinates":[122.1532045,29.9987234]},"properties":{"name":"石家岭","natural":"peak"}}
{"type":"Feature","geometry":{"type":"Point","coordinates":[122.1470839,29.9942745]},"properties":{"name":"尖山岗","natural":"peak"}}
{"type":"Feature","geometry":{"type":"Point","coordinates":[122.150311,30.0192328]},"properties":{"name":"黄猫山","natural":"peak"}}
{"type":"Feature","geometry":{"type":"Point","coordinates":[122.1496092,30.027434]},"properties":{"name":"雷头山岗","natural":"peak"}}
{"type":"Feature","geometry":{"type":"Point","coordinates":[113.9890512,22.2590206]},"properties":{"ele":"132","name":"南山 Nam Shan","name:en":"Nam Shan","name:zh":"南山","natural":"peak"}}
{"type":"Feature","geometry":{"type":"Point","coordinates":[104.9941769,33.3928644]},"properties":{"natural":"peak"}}
{"type":"Feature","geometry":{"type":"Point","coordinates":[67.7197811,33.1238434]},"properties":{"name":"Giroye Worqa mountain","natural":"peak"}}
{"type":"Feature","geometry":{"type":"Point","coordinates":[107.2562599,22.6817175]},"properties":{"natural":"peak"}}
{"type":"Feature","geometry":{"type":"Point","coordinates":[107.2536528,22.6792823]},"properties":{"natural":"peak"}}
{"type":"Feature","geometry":{"type":"Point","coordinates":[107.2605514,22.6876469]},"properties":{"natural":"peak"}}
{"type":"Feature","geometry":{"type":"Point","coordinates":[107.256099,22.6873104]},"properties":{"natural":"peak"}}
{"type":"Feature","geometry":{"type":"Point","coordinates":[107.2530627,22.6861225]},"properties":{"natural":"peak"}}
{"type":"Feature","geometry":{"type":"Point","coordinates":[105.0017881,33.4429013]},"properties":{"natural":"peak"}}
{"type":"Feature","geometry":{"type":"Point","coordinates":[105.018332,33.4440473]},"properties":{"natural":"peak"}}
{"type":"Feature","geometry":{"type":"Point","coordinates":[104.991821,33.4359181]},"properties":{"natural":"peak"}}
{"type":"Feature","geometry":{"type":"Point","coordinates":[113.9887269,22.2219756]},"properties":{"ele":"229","name":"螺殼墩山 Lo Hok Tun Shan","name:en":"Lo Hok Tun Shan","name:zh":"螺殼墩山","natural":"peak"}}
{"type":"Feature","geometry":{"type":"Point","coordinates":[107.2668815,22.6704519]},"properties":{"natural":"peak"}}
{"type":"Feature","geometry":{"type":"Point","coordinates":[107.1692812,22.6614823]},"properties":{"natural":"peak"}}
{"type":"Feature","geometry":{"type":"Point","coordinates":[107.1661484,22.6626901]},"properties":{"natural":"peak"}}
{"type":"Feature","geometry":{"type":"Point","coordinates":[35.342045,31.3124595]},"properties":{"natural":"peak"}}
{"type":"Feature","geometry":{"type":"Point","coordinates":[35.3534886,31.3087062]},"properties":{"ele":"35","name":"הר אלעזר","name:en":"Mount El'Azar","name:he":"הר אלעזר","natural":"peak","wikidata":"Q6520803","wikipedia":"he:הר אלעזר","wikipedia:he":"הר אלעזר"}}
{"type":"Feature","geometry":{"type":"Point","coordinates":[35.1449509,31.6825947]},"properties":{"ele":"996","name":"הר דניאל","name:en":"Har Daniel","name:en1":"Mount Daniel","name:he":"הר דניאל","natural":"peak"}}
{"type":"Feature","geometry":{"type":"Point","coordinates":[126.654768,36.4492145]},"properties":{"ele":"559","name":"시루봉","natural":"peak"}}
{"type":"Feature","geometry":{"type":"Point","coordinates":[126.6740853,36.4627043]},"properties":{"ele":"539","name":"금자봉","natural":"peak"}}
{"type":"Feature","geometry":{"type":"Point","coordinates":[67.7536121,33.1061306]},"properties":{"name":"Shekhi Taqhchin Mountain","natural":"peak"}}
{"type":"Feature","geometry":{"type":"Point","coordinates":[111.66229,35.777661]},"properties":{"name":"绵山","natural":"peak"}}
{"type":"Feature","geometry":{"type":"Point","coordinates":[124.0733623,9.927225]},"properties":{"natural":"peak"}}
{"type":"Feature","geometry":{"type":"Point","coordinates":[124.0636971,9.9220555]},"properties":{"natural":"peak"}}
{"type":"Feature","geometry":{"type":"Point","coordinates":[115.8042819,24.3521399]},"properties":{"ele":"833","name":"铁山嶂","natural":"peak"}}
{"type":"Feature","geometry":{"type":"Point","coordinates":[127.9388915,35.226568]},"properties":{"ele":"198.5","name":"삼각점","natural":"peak"}}
{"type":"Feature","geometry":{"type":"Point","coordinates":[127.9503538,35.2114573]},"properties":{"ele":"243","name":"삼각점","name:ko":"삼각점","natural":"peak"}}
{"type":"Feature","geometry":{"type":"Point","coordinates":[114.1949834,22.3558836]},"properties":{"ele":"430","loc_name":"雞胸尾","natural":"peak"}}
{"type":"Feature","geometry":{"type":"Point","coordinates":[46.5079286,38.961486]},"properties":{"ele":"2269.5","name":"Բարդութաղք/Bartaz","name:az":"Bartaz","name:hy":"Բարդութաղք","name:ru":"Бартаз","natural":"peak","wikidata":"Q20515699","wikipedia":"az:Bartaz (dağ)"}}
{"type":"Feature","geometry":{"type":"Point","coordinates":[46.5286105,38.9427997]},"properties":{"ele":"1352","natural":"peak"}}
{"type":"Feature","geometry":{"type":"Point","coordinates":[127.415818,35.3966744]},"properties":{"ele":"331","name":"애기봉","natural":"peak"}}
{"type":"Feature","geometry":{"type":"Point","coordinates":[127.8687318,35.3096239]},"properties":{"ele":"793","name":"용무림산","natural":"peak"}}
{"type":"Feature","geometry":{"type":"Point","coordinates":[127.8838554,35.3705161]},"properties":{"ele":"900","name":"십자봉","natural":"peak"}}
{"type":"Feature","geometry":{"type":"Point","coordinates":[115.4783741,41.0020748]},"properties":{"ele":"2118","name":"长城岭","natural":"peak"}}
{"type":"Feature","geometry":{"type":"Point","coordinates":[115.4939563,41.0813569]},"properties":{"ele":"1896.5","name":"雕窝嵯","natural":"peak"}}
{"type":"Feature","geometry":{"type":"Point","coordinates":[115.4997321,40.9840358]},"properties":{"ele":"2146","name":"镇宁堡摩天岭","natural":"peak"}}
{"type":"Feature","geometry":{"type":"Point","coordinates":[115.5066734,40.9075152]},"properties":{"ele":"1868","name":"桃韭梁","natural":"peak"}}
{"type":"Feature","geometry":{"type":"Point","coordinates":[115.512124,40.9248066]},"properties":{"ele":"2172","name":"大南山","natural":"peak"}}
{"type":"Feature","geometry":{"type":"Point","coordinates":[115.5363433,40.925744]},"properties":{"ele":"2034","name":"大林背","natural":"peak"}}
{"type":"Feature","geometry":{"type":"Point","coordinates":[115.5543539,40.9602928]},"properties":{"ele":"1526.5","name":"镇宁堡大尖山","natural":"peak"}}
{"type":"Feature","geometry":{"type":"Point","coordinates":[115.5763587,41.0671605]},"properties":{"ele":"1436","name":"阎家岭","natural":"peak"}}
{"type":"Feature","geometry":{"type":"Point","coordinates":[115.5649156,40.9844736]},"properties":{"ele":"1528.6","name":"磨石山","natural":"peak"}}
{"type":"Feature","geometry":{"type":"Point","coordinates":[115.5734955,40.9412421]},"properties":{"ele":"1904.2","name":"大圈梁","natural":"peak"}}
{"type":"Feature","geometry":{"type":"Point","coordinates":[115.5910286,40.855035]},"properties":{"ele":"1593","name":"火石窑","natural":"peak"}}
{"type":"Feature","geometry":{"type":"Point","coordinates":[115.6224471,41.0399937]},"properties":{"ele":"1512","name":"额头嵯","natural":"peak"}}
{"type":"Feature","geometry":{"type":"Point","coordinates":[115.631242,41.0594248]},"properties":{"ele":"1569","name":"红石嵯","natural":"peak"}}
{"type":"Feature","geometry":{"type":"Point","coordinates":[115.6433438,41.0559327]},"properties":{"ele":"1604","name":"老朝背","natural":"peak"}}
{"type":"Feature","geometry":{"type":"Point","coordinates":[115.6385683,40.9673147]},"properties":{"ele":"1233","name":"照北山","natural":"peak"}}
{"type":"Feature","geometry":{"type":"Point","coordinates":[114.2881515,22.4483559]},"properties":{"ele":"118","natural":"peak"}}
{"type":"Feature","geometry":{"type":"Point","coordinates":[113.9110907,22.2167884]},"properties":{"ele":"164","natural":"peak"}}
{"type":"Feature","geometry":{"type":"Point","coordinates":[114.2932925,22.4467965]},"properties":{"ele":"156","natural":"peak"}}
{"type":"Feature","geometry":{"type":"Point","coordinates":[113.8990512,22.2173646]},"properties":{"ele":"67","natural":"peak"}}
{"type":"Feature","geometry":{"type":"Point","coordinates":[114.0034693,22.2218126]},"properties":{"ele":"183","natural":"peak"}}
{"type":"Feature","geometry":{"type":"Point","coordinates":[115.6529702,41.0394591]},"properties":{"ele":"1676.2","name":"大段梁","natural":"peak"}}
{"type":"Feature","geometry":{"type":"Point","coordinates":[115.655708,41.0246329]},"properties":{"ele":"1577","name":"南洼","natural":"peak"}}
{"type":"Feature","geometry":{"type":"Point","coordinates":[115.6929666,40.9579096]},"properties":{"ele":"1255","name":"四棱山","natural":"peak"}}
{"type":"Feature","geometry":{"type":"Point","coordinates":[115.6957217,41.0746055]},"properties":{"ele":"1361","name":"大山梁","natural":"peak"}}
{"type":"Feature","geometry":{"type":"Point","coordinates":[115.7181921,41.0052483]},"properties":{"ele":"1767.3","name":"观山","natural":"peak"}}
{"type":"Feature","geometry":{"type":"Point","coordinates":[115.7196377,41.0466909]},"properties":{"ele":"1413","name":"茨木墩","natural":"peak"}}
{"type":"Feature","geometry":{"type":"Point","coordinates":[115.7219862,41.0502041]},"properties":{"ele":"1355","name":"柴家村大梁","natural":"peak"}}
{"type":"Feature","geometry":{"type":"Point","coordinates":[115.7636966,41.0718436]},"properties":{"ele":"1317","name":"舍身崖","natural":"peak"}}
{"type":"Feature","geometry":{"type":"Point","coordinates":[115.832514,41.0267329]},"properties":{"ele":"1517.5","name":"碓臼沟大梁","natural":"peak"}}
{"type":"Feature","geometry":{"type":"Point","coordinates":[115.8061222,40.919613]},"properties":{"ele":"1054","name":"青山墩","natural":"peak"}}
{"type":"Feature","geometry":{"type":"Point","coordinates":[115.8130214,40.8753561]},"properties":{"ele":"1084","name":"锅帽山","natural":"peak"}}
{"type":"Feature","geometry":{"type":"Point","coordinates":[114.0109642,22.2298545]},"properties":{"ele":"116","natural":"peak"}}
{"type":"Feature","geometry":{"type":"Point","coordinates":[114.2618917,22.5390983]},"properties":{"ele":"96","natural":"peak"}}
{"type":"Feature","geometry":{"type":"Point","coordinates":[114.0116932,22.2730503]},"properties":{"ele":"202","natural":"peak"}}
{"type":"Feature","geometry":{"type":"Point","coordinates":[114.0182532,22.2303941]},"properties":{"ele":"60","name":"二塱石 Yi Long Shek","name:en":"Yi Long Shek","name:zh":"二塱石","natural":"peak"}}
{"type":"Feature","geometry":{"type":"Point","coordinates":[113.9764512,22.2929984]},"properties":{"ele":"64","natural":"peak"}}
{"type":"Feature","geometry":{"type":"Point","coordinates":[114.2938605,22.4339461]},"properties":{"alt_name":"開丫峒 Hoi A Tung","alt_name:en":"Hoi A Tung","alt_name:zh":"開丫峒","ele":"228","name":"膝頭岃 Sut Tau Yan","name:en":"Sut Tau Yan","name:zh":"膝頭岃","natural":"peak"}}
{"type":"Feature","geometry":{"type":"Point","coordinates":[113.9946307,22.2689822]},"properties":{"ele":"63","natural":"peak"}}
{"type":"Feature","geometry":{"type":"Point","coordinates":[113.2788134,22.2536532]},"properties":{"ele":"362","natural":"peak"}}
{"type":"Feature","geometry":{"type":"Point","coordinates":[113.8998953,22.2163851]},"properties":{"ele":"95","natural":"peak"}}
{"type":"Feature","geometry":{"type":"Point","coordinates":[113.974241,22.449278]},"properties":{"ele":"94","name":"虎頭山 Fu Tau Shan","name:en":"Fu Tau Shan","name:zh":"虎頭山","natural":"peak"}}
{"type":"Feature","geometry":{"type":"Point","coordinates":[114.0140127,22.2281468]},"properties":{"ele":"164","name":"上徑頂 Sheung Keng Teng","name:en":"Sheung Keng Teng","name:zh":"上徑頂","natural":"peak"}}
{"type":"Feature","geometry":{"type":"Point","coordinates":[114.0367564,22.3668055]},"properties":{"ele":"307","natural":"peak"}}
{"type":"Feature","geometry":{"type":"Point","coordinates":[114.2568261,22.3511983]},"properties":{"ele":"95","natural":"peak"}}
{"type":"Feature","geometry":{"type":"Point","coordinates":[113.9974673,22.2758093]},"properties":{"ele":"114","natural":"peak"}}
{"type":"Feature","geometry":{"type":"Point","coordinates":[114.049282,22.3214232]},"properties":{"ele":"120","name":"大罾角頂 Tai Tsang Kok Teng","name:en":"Tai Tsang Kok Teng","name:zh":"大罾角頂","natural":"peak"}}
{"type":"Feature","geometry":{"type":"Point","coordinates":[114.3722854,22.3607512]},"properties":{"ele":"120","name":"細花山","natural":"peak","source":"local knowledge;https://repository.lib.cuhk.edu.hk/en/item/cuhk-317931"}}
{"type":"Feature","geometry":{"type":"Point","coordinates":[113.9948237,22.2730851]},"properties":{"ele":"34","natural":"peak"}}
{"type":"Feature","geometry":{"type":"Point","coordinates":[114.1749425,22.508817]},"properties":{"ele":"83","natural":"peak"}}
{"type":"Feature","geometry":{"type":"Point","coordinates":[113.9913764,22.2911661]},"properties":{"ele":"302","natural":"peak"}}
{"type":"Feature","geometry":{"type":"Point","coordinates":[113.8698461,22.2434687]},"properties":{"ele":"189","natural":"peak"}}
{"type":"Feature","geometry":{"type":"Point","coordinates":[113.9742519,22.29695]},"properties":{"ele":"84","natural":"peak"}}
{"type":"Feature","geometry":{"type":"Point","coordinates":[113.9050154,22.2188216]},"properties":{"ele":"180","natural":"peak"}}
{"type":"Feature","geometry":{"type":"Point","coordinates":[114.2651385,22.4237442]},"properties":{"ele":"61","natural":"peak"}}
{"type":"Feature","geometry":{"type":"Point","coordinates":[114.2535383,22.3694771]},"properties":{"ele":"132","natural":"peak"}}
{"type":"Feature","geometry":{"type":"Point","coordinates":[113.8725471,22.2660071]},"properties":{"ele":"174","natural":"peak"}}
{"type":"Feature","geometry":{"type":"Point","coordinates":[114.0007576,22.2325868]},"properties":{"ele":"113","natural":"peak"}}
{"type":"Feature","geometry":{"type":"Point","coordinates":[113.8853076,22.2552348]},"properties":{"ele":"412","natural":"peak"}}
{"type":"Feature","geometry":{"type":"Point","coordinates":[114.1877619,22.5173932]},"properties":{"ele":"167","name":"求水峒 Kau Shui Tung","name:en":"Kau Shui Tung","name:zh":"求水峒","natural":"peak"}}
{"type":"Feature","geometry":{"type":"Point","coordinates":[114.2557849,22.3645938]},"properties":{"ele":"132","natural":"peak"}}
{"type":"Feature","geometry":{"type":"Point","coordinates":[113.9233541,22.262109]},"properties":{"ele":"255","natural":"peak"}}
{"type":"Feature","geometry":{"type":"Point","coordinates":[113.9168278,22.3942045]},"properties":{"ele":"72","name":"銅山 Tung Shan","name:en":"Tung Shan","name:zh":"銅山","natural":"peak"}}
{"type":"Feature","geometry":{"type":"Point","coordinates":[114.0061839,22.313269]},"properties":{"ele":"284","natural":"peak"}}
{"type":"Feature","geometry":{"type":"Point","coordinates":[113.965061,22.2659981]},"properties":{"natural":"peak"}}
{"type":"Feature","geometry":{"type":"Point","coordinates":[113.9750832,22.2844342]},"properties":{"ele":"214","name":"圓石峒 Yuen Shek Tung","name:en":"Yuen Shek Tung","name:zh":"圓石峒","natural":"peak"}}
{"type":"Feature","geometry":{"type":"Point","coordinates":[113.9030535,22.2681315]},"properties":{"ele":"434","natural":"peak"}}
{"type":"Feature","geometry":{"type":"Point","coordinates":[113.9000081,22.2541849]},"properties":{"ele":"459","natural":"peak"}}
{"type":"Feature","geometry":{"type":"Point","coordinates":[114.0374805,22.3673372]},"properties":{"ele":"300","natural":"peak"}}
{"type":"Feature","geometry":{"type":"Point","coordinates":[113.9651098,22.2942468]},"properties":{"ele":"184","natural":"peak"}}
{"type":"Feature","geometry":{"type":"Point","coordinates":[113.8757083,22.2627294]},"properties":{"ele":"360","natural":"peak"}}
{"type":"Feature","geometry":{"type":"Point","coordinates":[114.2968602,22.4842913]},"properties":{"ele":"204","natural":"peak"}}
{"type":"Feature","geometry":{"type":"Point","coordinates":[114.0020803,22.2173055]},"properties":{"ele":"111","natural":"peak"}}
{"type":"Feature","geometry":{"type":"Point","coordinates":[114.2788468,22.2686105]},"properties":{"ele":"81","name":"沙橋山 Sha Kiu Shan","name:en":"Sha Kiu Shan","name:zh":"沙橋山","natural":"peak"}}
{"type":"Feature","geometry":{"type":"Point","coordinates":[114.0295074,22.326045]},"properties":{"ele":"146","natural":"peak"}}
{"type":"Feature","geometry":{"type":"Point","coordinates":[114.1766432,22.5095665]},"properties":{"ele":"59","natural":"peak"}}
{"type":"Feature","geometry":{"type":"Point","coordinates":[114.1866758,22.5166893]},"properties":{"ele":"161","natural":"peak"}}
{"type":"Feature","geometry":{"type":"Point","coordinates":[114.1912819,22.5244042]},"properties":{"ele":"88","natural":"peak"}}
{"type":"Feature","geometry":{"type":"Point","coordinates":[114.1582034,22.3639439]},"properties":{"ele":"315","natural":"peak"}}
{"type":"Feature","geometry":{"type":"Point","coordinates":[113.8897698,22.2266048]},"properties":{"ele":"161","natural":"peak"}}
{"type":"Feature","geometry":{"type":"Point","coordinates":[114.3429007,22.3692255]},"properties":{"ele":"109","natural":"peak"}}
{"type":"Feature","geometry":{"type":"Point","coordinates":[113.8451878,22.2316642]},"properties":{"ele":"165","natural":"peak"}}
{"type":"Feature","geometry":{"type":"Point","coordinates":[114.0215333,22.3155673]},"properties":{"ele":"227","natural":"peak"}}
{"type":"Feature","geometry":{"type":"Point","coordinates":[113.8460224,22.2321749]},"properties":{"ele":"134","natural":"peak"}}
{"type":"Feature","geometry":{"type":"Point","coordinates":[114.0191044,22.4137077]},"properties":{"ele":"39","natural":"peak"}}
{"type":"Feature","geometry":{"type":"Point","coordinates":[114.193601,22.5444895]},"properties":{"ele":"466","natural":"peak"}}
{"type":"Feature","geometry":{"type":"Point","coordinates":[114.3641615,22.3608826]},"properties":{"ele":"116","natural":"peak"}}
{"type":"Feature","geometry":{"type":"Point","coordinates":[113.9687746,22.2873213]},"properties":{"ele":"288","name":"銅鑼湖 Tung Lo Wu","name:en":"Tung Lo Wu","name:zh":"銅鑼湖","natural":"peak"}}
{"type":"Feature","geometry":{"type":"Point","coordinates":[114.2440539,22.3798371]},"properties":{"ele":"355","natural":"peak"}}
{"type":"Feature","geometry":{"type":"Point","coordinates":[113.8434046,22.2279516]},"properties":{"ele":"179","natural":"peak"}}
{"type":"Feature","geometry":{"type":"Point","coordinates":[114.2422727,22.5341355]},"properties":{"ele":"237","natural":"peak"}}
{"type":"Feature","geometry":{"type":"Point","coordinates":[114.1705712,22.5538487]},"properties":{"ele":"92","natural":"peak"}}
{"type":"Feature","geometry":{"type":"Point","coordinates":[114.258551,22.5229208]},"properties":{"ele":"60","name":"炮台峒 Pao Toi Tung","name:en":"Pao Toi Tung","name:zh":"炮台峒","natural":"peak"}}
{"type":"Feature","geometry":{"type":"Point","coordinates":[114.2347319,22.4084576]},"properties":{"ele":"250","natural":"peak"}}
{"type":"Feature","geometry":{"type":"Point","coordinates":[114.1692961,22.5549923]},"properties":{"ele":"108","natural":"peak"}}
{"type":"Feature","geometry":{"type":"Point","coordinates":[113.9010458,22.2669798]},"properties":{"ele":"413","natural":"peak"}}
{"type":"Feature","geometry":{"type":"Point","coordinates":[114.2351699,22.4084611]},"properties":{"ele":"258","natural":"peak"}}
{"type":"Feature","geometry":{"type":"Point","coordinates":[114.1356219,22.4351252]},"properties":{"ele":"198","natural":"peak"}}
{"type":"Feature","geometry":{"type":"Point","coordinates":[114.3656159,22.3606903]},"properties":{"ele":"97","natural":"peak"}}
{"type":"Feature","geometry":{"type":"Point","coordinates":[114.1684783,22.5555744]},"properties":{"ele":"106","natural":"peak"}}
{"type":"Feature","geometry":{"type":"Point","coordinates":[113.8896941,22.2250145]},"properties":{"ele":"94","natural":"peak"}}
{"type":"Feature","geometry":{"type":"Point","coordinates":[113.9146932,22.2885668]},"properties":{"ele":"152","name":"眺望墩 Tiu Mong Tun","name:en":"Tiu Mong Tun","name:zh":"眺望墩","name:zh-Hans":"眺望墩","name:zh-Hant":"眺望墩","natural":"peak"}}
{"type":"Feature","geometry":{"type":"Point","coordinates":[113.9369656,22.2441293]},"properties":{"ele":"450","natural":"peak"}}
{"type":"Feature","geometry":{"type":"Point","coordinates":[113.9168844,22.3966616]},"properties":{"ele":"65","natural":"peak"}}
{"type":"Feature","geometry":{"type":"Point","coordinates":[113.9229036,22.2446387]},"properties":{"ele":"628","natural":"peak"}}
{"type":"Feature","geometry":{"type":"Point","coordinates":[114.2043261,22.2560139]},"properties":{"ele":"325","natural":"peak"}}
{"type":"Feature","geometry":{"type":"Point","coordinates":[114.2082019,22.371461]},"properties":{"ele":"237","natural":"peak"}}
{"type":"Feature","geometry":{"type":"Point","coordinates":[105.6762859,36.5489423]},"properties":{"natural":"peak"}}
{"type":"Feature","geometry":{"type":"Point","coordinates":[121.5858006,37.4542328]},"properties":{"name":"西大山","natural":"peak"}}
{"type":"Feature","geometry":{"type":"Point","coordinates":[121.615498,37.4710945]},"properties":{"name":"虫娘娘山","natural":"peak"}}
{"type":"Feature","geometry":{"type":"Point","coordinates":[121.6384041,37.4843598]},"properties":{"name":"看牛山","natural":"peak"}}
{"type":"Feature","geometry":{"type":"Point","coordinates":[104.8386025,27.3318202]},"properties":{"natural":"peak"}}
{"type":"Feature","geometry":{"type":"Point","coordinates":[102.1059551,18.4494537]},"properties":{"natural":"peak"}}
{"type":"Feature","geometry":{"type":"Point","coordinates":[106.1455464,24.9868263]},"properties":{"natural":"peak"}}
{"type":"Feature","geometry":{"type":"Point","coordinates":[106.0967302,24.9869527]},"properties":{"natural":"peak"}}
{"type":"Feature","geometry":{"type":"Point","coordinates":[106.1838054,24.988781]},"properties":{"natural":"peak"}}
{"type":"Feature","geometry":{"type":"Point","coordinates":[106.119132,25.0517797]},"properties":{"natural":"peak"}}
{"type":"Feature","geometry":{"type":"Point","coordinates":[106.1324787,25.0580389]},"properties":{"natural":"peak"}}
{"type":"Feature","geometry":{"type":"Point","coordinates":[106.1601376,25.011612]},"properties":{"natural":"peak"}}
{"type":"Feature","geometry":{"type":"Point","coordinates":[106.2215602,25.0459478]},"properties":{"natural":"peak"}}
{"type":"Feature","geometry":{"type":"Point","coordinates":[106.1571979,25.0757262]},"properties":{"natural":"peak"}}
{"type":"Feature","geometry":{"type":"Point","coordinates":[106.1793101,25.1122687]},"properties":{"natural":"peak"}}
{"type":"Feature","geometry":{"type":"Point","coordinates":[106.1960149,25.0984245]},"properties":{"natural":"peak"}}
{"type":"Feature","geometry":{"type":"Point","coordinates":[43.3786019,26.1235073]},"properties":{"name":"أبرق مضحي","natural":"peak"}}
{"type":"Feature","geometry":{"type":"Point","coordinates":[115.8691108,41.0025861]},"properties":{"ele":"1296","name":"金阁山","natural":"peak"}}
{"type":"Feature","geometry":{"type":"Point","coordinates":[115.873856,40.8903292]},"properties":{"ele":"1187","name":"犁铧山","natural":"peak"}}
{"type":"Feature","geometry":{"type":"Point","coordinates":[115.8884844,40.9784771]},"properties":{"ele":"1343","name":"尖山梁","natural":"peak"}}
{"type":"Feature","geometry":{"type":"Point","coordinates":[115.8939421,41.0240043]},"properties":{"ele":"1606.5","name":"棋盘山","natural":"peak"}}
{"type":"Feature","geometry":{"type":"Point","coordinates":[115.9011322,41.0493682]},"properties":{"ele":"1614","name":"两命台","natural":"peak"}}
{"type":"Feature","geometry":{"type":"Point","coordinates":[115.9160878,41.0811441]},"properties":{"ele":"1803","name":"北高山","natural":"peak"}}
{"type":"Feature","geometry":{"type":"Point","coordinates":[115.9501659,41.1171239]},"properties":{"ele":"1424","name":"大洞山","natural":"peak"}}
{"type":"Feature","geometry":{"type":"Point","coordinates":[115.955665,41.0701269]},"properties":{"ele":"1567","name":"望天嵯","natural":"peak"}}
{"type":"Feature","geometry":{"type":"Point","coordinates":[116.0176089,41.0503179]},"properties":{"ele":"1336","name":"大毛尖","natural":"peak"}}
{"type":"Feature","geometry":{"type":"Point","coordinates":[116.0392622,41.0604639]},"properties":{"ele":"1165","name":"大胡同","natural":"peak"}}
{"type":"Feature","geometry":{"type":"Point","coordinates":[115.9631301,41.0184109]},"properties":{"ele":"1340","name":"列坡","natural":"peak"}}
{"type":"Feature","geometry":{"type":"Point","coordinates":[115.9232688,40.9883114]},"properties":{"ele":"1246","name":"赵家沟","natural":"peak"}}
{"type":"Feature","geometry":{"type":"Point","coordinates":[115.9523702,40.9713062]},"properties":{"ele":"1214","name":"棺材山","natural":"peak"}}
{"type":"Feature","geometry":{"type":"Point","coordinates":[115.972956,40.9759577]},"properties":{"ele":"1297","name":"转山","natural":"peak"}}
{"type":"Feature","geometry":{"type":"Point","coordinates":[115.9469129,40.9421398]},"properties":{"ele":"1446","name":"大西山","natural":"peak"}}
{"type":"Feature","geometry":{"type":"Point","coordinates":[115.9309211,40.8877485]},"properties":{"ele":"1383","name":"鹰咀山","natural":"peak"}}
{"type":"Feature","geometry":{"type":"Point","coordinates":[115.9340959,40.8667313]},"properties":{"ele":"1169","name":"石垛梁","natural":"peak"}}
{"type":"Feature","geometry":{"type":"Point","coordinates":[115.9560323,40.8543248]},"properties":{"ele":"996","name":"黑猪山","natural":"peak"}}
{"type":"Feature","geometry":{"type":"Point","coordinates":[116.0293676,40.9776014]},"properties":{"ele":"1145","name":"山黄沟梁","natural":"peak"}}
{"type":"Feature","geometry":{"type":"Point","coordinates":[116.0526676,40.951038]},"properties":{"ele":"1012","name":"马道梁","natural":"peak"}}
{"type":"Feature","geometry":{"type":"Point","coordinates":[116.0541786,40.9303695]},"properties":{"ele":"1073","name":"红沙梁","natural":"peak"}}
{"type":"Feature","geometry":{"type":"Point","coordinates":[116.0479328,40.9143087]},"properties":{"ele":"1288","name":"白草鞍梁","natural":"peak"}}
{"type":"Feature","geometry":{"type":"Point","coordinates":[116.085361,40.8828702]},"properties":{"ele":"1379","name":"八卦顶山","natural":"peak"}}
{"type":"Feature","geometry":{"type":"Point","coordinates":[41.8871486,50.1453866]},"properties":{"ele":"169","natural":"peak"}}
{"type":"Feature","geometry":{"type":"Point","coordinates":[41.7438939,50.1647193]},"properties":{"ele":"220","natural":"peak"}}
{"type":"Feature","geometry":{"type":"Point","coordinates":[116.1555478,40.8421838]},"properties":{"ele":"1043","name":"照坡","natural":"peak"}}
{"type":"Feature","geometry":{"type":"Point","coordinates":[116.0778488,41.0431415]},"properties":{"ele":"1231","name":"雕窝嵯","natural":"peak"}}
{"type":"Feature","geometry":{"type":"Point","coordinates":[116.1023625,40.987907]},"properties":{"ele":"1296","name":"阴凉渠","natural":"peak"}}
{"type":"Feature","geometry":{"type":"Point","coordinates":[116.114209,40.9896412]},"properties":{"ele":"1371","name":"朱嘴子","natural":"peak"}}
{"type":"Feature","geometry":{"type":"Point","coordinates":[116.1036611,40.9616675]},"properties":{"ele":"1215","name":"高皇玉台","natural":"peak"}}
{"type":"Feature","geometry":{"type":"Point","coordinates":[116.1257644,40.9375632]},"properties":{"ele":"1008","name":"车道沟梁尖","natural":"peak"}}
{"type":"Feature","geometry":{"type":"Point","coordinates":[116.2388947,41.1162964]},"properties":{"ele":"2050","name":"黑梁","natural":"peak"}}
{"type":"Feature","geometry":{"type":"Point","coordinates":[116.2162087,41.1028425]},"properties":{"ele":"1863","name":"韭菜梁","natural":"peak"}}
{"type":"Feature","geometry":{"type":"Point","coordinates":[116.2587841,41.0366289]},"properties":{"ele":"1906","name":"韭菜梁","natural":"peak"}}
{"type":"Feature","geometry":{"type":"Point","coordinates":[116.1894378,41.0113197]},"properties":{"ele":"1442","name":"后大尖","natural":"peak"}}
{"type":"Feature","geometry":{"type":"Point","coordinates":[133.293989,33.3823056]},"properties":{"ele":"173.8","name":"向山","natural":"peak"}}
{"type":"Feature","geometry":{"type":"Point","coordinates":[70.151442,39.0716629]},"properties":{"ele":"2940","name":"Хоҷаи Ғарибон","name:en":"Khojai Gharibon","name:tg":"Хоҷаи Ғарибон","natural":"peak"}}
{"type":"Feature","geometry":{"type":"Point","coordinates":[34.9768119,32.6552038]},"properties":{"ele":"150","natural":"peak"}}
{"type":"Feature","geometry":{"type":"Point","coordinates":[73.5326743,39.7948987]},"properties":{"ele":"4485","name":"Шарт","natural":"peak"}}
{"type":"Feature","geometry":{"type":"Point","coordinates":[140.7387681,51.4175593]},"properties":{"ele":"508","name":"Арбат","natural":"peak"}}
{"type":"Feature","geometry":{"type":"Point","coordinates":[140.7166667,51.5119444]},"properties":{"ele":"583","name":"гора Казакевичи","natural":"peak"}}
{"type":"Feature","geometry":{"type":"Point","coordinates":[111.3412762,25.2519339]},"properties":{"name":"马山","natural":"peak"}}
{"type":"Feature","geometry":{"type":"Point","coordinates":[111.3512213,25.2506471]},"properties":{"name":"虎湾山","natural":"peak"}}
{"type":"Feature","geometry":{"type":"Point","coordinates":[111.3560771,25.2506663]},"properties":{"name":"塘背岭","natural":"peak"}}
{"type":"Feature","geometry":{"type":"Point","coordinates":[111.2511498,25.3984998]},"properties":{"ele":"1528","name":"三峰山","natural":"peak"}}
{"type":"Feature","geometry":{"type":"Point","coordinates":[115.6055652,39.6522026]},"properties":{"ele":"627","name":"蝙蝠山南峰","name:en":"Leftwing Peak","natural":"peak"}}
{"type":"Feature","geometry":{"type":"Point","coordinates":[115.6014079,39.6576735]},"properties":{"ele":"679","name":"蝙蝠山北峰","name:en":"Rightwing Peak","natural":"peak"}}
{"type":"Feature","geometry":{"type":"Point","coordinates":[114.2971488,22.5502894]},"properties":{"ele":"48","name":"阿公地頂 A Kung Tei Teng","name:en":"A Kung Tei Teng","name:zh":"阿公地頂","natural":"peak"}}
{"type":"Feature","geometry":{"type":"Point","coordinates":[114.2935997,22.5503535]},"properties":{"ele":"62","name":"橫排頂 Wang Pai Teng","name:en":"Wang Pai Teng","name:zh":"橫排頂","natural":"peak"}}
{"type":"Feature","geometry":{"type":"Point","coordinates":[131.4059321,31.5848446]},"properties":{"ele":"81","name":"津之峰","natural":"peak"}}
{"type":"Feature","geometry":{"type":"Point","coordinates":[131.2138554,31.4892191]},"properties":{"ele":"382","name":"第2高畑山","natural":"peak"}}
{"type":"Feature","geometry":{"type":"Point","coordinates":[142.314845,44.0106623]},"properties":{"ele":"454.6","name":"東山","name:ja":"東山","natural":"peak"}}
{"type":"Feature","geometry":{"type":"Point","coordinates":[142.3320369,43.9825855]},"properties":{"ele":"556.4","name":"隠山","name:ja":"隠山","natural":"peak"}}
{"type":"Feature","geometry":{"type":"Point","coordinates":[142.3440806,43.960956]},"properties":{"ele":"577.4","name":"噛伊尻","name:ja":"噛伊尻","natural":"peak"}}
{"type":"Feature","geometry":{"type":"Point","coordinates":[142.3846696,43.9571682]},"properties":{"ele":"441","name":"千歳山","name:ja":"千歳山","natural":"peak"}}
{"type":"Feature","geometry":{"type":"Point","coordinates":[142.3065987,43.9565987]},"properties":{"ele":"576.4","name":"伊阿根山","name:ja":"伊阿根山","name:ja-Hira":"いあねやま","name:ja-Latn":"Ianeyama","natural":"peak"}}
{"type":"Feature","geometry":{"type":"Point","coordinates":[142.2751769,43.9593245]},"properties":{"ele":"335","name":"擂鉢山","name:ja":"擂鉢山","natural":"peak"}}
{"type":"Feature","geometry":{"type":"Point","coordinates":[142.2474833,43.9346281]},"properties":{"ele":"556.3","name":"丸山","name:ja":"丸山","natural":"peak"}}
{"type":"Feature","geometry":{"type":"Point","coordinates":[142.2830153,43.9376592]},"properties":{"ele":"406","name":"鉄甲山","name:ja":"鉄甲山","natural":"peak"}}
{"type":"Feature","geometry":{"type":"Point","coordinates":[142.2925139,43.9471985]},"properties":{"ele":"488","name":"雲居山","name:ja":"雲居山","name:ja-Hira":"くもいやま","name:ja-Latn":"Kumoiyama","natural":"peak"}}
{"type":"Feature","geometry":{"type":"Point","coordinates":[115.595151,39.6405024]},"properties":{"ele":"421","name":"麒麟山","name:en":"Qilin Shan","natural":"peak"}}
{"type":"Feature","geometry":{"type":"Point","coordinates":[121.2263094,24.8065991]},"properties":{"ele":"503","name":"小粗坑山","natural":"peak"}}
{"type":"Feature","geometry":{"type":"Point","coordinates":[69.9475354,39.1794792]},"properties":{"ele":"4150","natural":"peak"}}
{"type":"Feature","geometry":{"type":"Point","coordinates":[114.1398839,22.4172992]},"properties":{"ele":"751","natural":"peak","old_name":"吊肚山 Tiu To Shan","old_name:en":"Tiu To Shan","old_name:zh":"吊肚山"}}
{"type":"Feature","geometry":{"type":"Point","coordinates":[114.1424881,22.4154779]},"properties":{"ele":"714","natural":"peak","old_name":"過峒山 Kwo Tung Shan","old_name:en":"Kwo Tung Shan","old_name:zh":"過峒山"}}
{"type":"Feature","geometry":{"type":"Point","coordinates":[114.1482427,22.4153787]},"properties":{"ele":"665","natural":"peak","old_name":"大嶺排 Tai Leng Pai","old_name:en":"Tai Leng Pai","old_name:zh":"大嶺排"}}
{"type":"Feature","geometry":{"type":"Point","coordinates":[93.3063932,28.4861546]},"properties":{"ele":"4530","name":"Oku Neodi","natural":"peak"}}
{"type":"Feature","geometry":{"type":"Point","coordinates":[114.1656938,22.4096525]},"properties":{"ele":"604","natural":"peak","old_name":"旱山頂 Hon Shan Teng","old_name:en":"Hon Shan Teng","old_name:zh":"旱山頂"}}
{"type":"Feature","geometry":{"type":"Point","coordinates":[114.1633312,22.3913856]},"properties":{"ele":"384","name:zh":"對石峒","natural":"peak","old_name":"對石峒 Tui Shek Tung","old_name:en":"Tui Shek Tung"}}
{"type":"Feature","geometry":{"type":"Point","coordinates":[93.3225113,28.4776675]},"properties":{"ele":"4300","name":"Mede Neodi","natural":"peak"}}
{"type":"Feature","geometry":{"type":"Point","coordinates":[93.3185064,28.4972615]},"properties":{"ele":"4750","name":"Piyaboro Neodi","natural":"peak"}}
{"type":"Feature","geometry":{"type":"Point","coordinates":[93.409845,28.5216106]},"properties":{"ele":"4750","name":"Mibarang Neodi","natural":"peak"}}
{"type":"Feature","geometry":{"type":"Point","coordinates":[76.1749357,34.6046494]},"properties":{"ele":"4330","name":"Point 13620","natural":"peak","source":"Survey of India mapsheet 52-B"}}
{"type":"Feature","geometry":{"type":"Point","coordinates":[76.1562818,34.5950036]},"properties":{"ele":"4255","ele:accuracy":"5","natural":"peak"}}
{"type":"Feature","geometry":{"type":"Point","coordinates":[114.1413225,22.3442055]},"properties":{"ele":"135","natural":"peak","old_name":"龍頭山"}}
{"type":"Feature","geometry":{"type":"Point","coordinates":[135.2810493,55.914641]},"properties":{"ele":"1097","name":"Кундуми","natural":"peak"}}
{"type":"Feature","geometry":{"type":"Point","coordinates":[58.6162511,51.3230882]},"properties":{"natural":"peak"}}
{"type":"Feature","geometry":{"type":"Point","coordinates":[58.6111851,51.3016555]},"properties":{"natural":"peak"}}
{"type":"Feature","geometry":{"type":"Point","coordinates":[136.2213083,58.2772085]},"properties":{"ele":"984","name":"Туанда","natural":"peak"}}
{"type":"Feature","geometry":{"type":"Point","coordinates":[57.7539498,51.1265416]},"properties":{"ele":"247","natural":"peak"}}
{"type":"Feature","geometry":{"type":"Point","coordinates":[115.5819775,39.6419882]},"properties":{"ele":"290","name":"龙山","natural":"peak"}}
{"type":"Feature","geometry":{"type":"Point","coordinates":[115.5921275,39.6487834]},"properties":{"ele":"250","name":"虎山","natural":"peak"}}
{"type":"Feature","geometry":{"type":"Point","coordinates":[115.6665712,39.8071179]},"properties":{"ele":"1098.6","name":"洼尖","natural":"peak"}}
{"type":"Feature","geometry":{"type":"Point","coordinates":[115.7289959,39.8630016]},"properties":{"ele":"1367.4","name":"南上槽","natural":"peak"}}
{"type":"Feature","geometry":{"type":"Point","coordinates":[115.7843139,39.8924335]},"properties":{"ele":"965.2","name":"大北乜","name:en":"Dabei Nie","natural":"peak"}}
{"type":"Feature","geometry":{"type":"Point","coordinates":[115.8046817,39.8844898]},"properties":{"ele":"989","name":"小八岔","natural":"peak"}}
{"type":"Feature","geometry":{"type":"Point","coordinates":[115.8079097,39.8854713]},"properties":{"ele":"982","name":"八大岔","natural":"peak"}}
{"type":"Feature","geometry":{"type":"Point","coordinates":[115.8148186,39.8739979]},"properties":{"ele":"621","name":"峪壶峰","natural":"peak"}}
{"type":"Feature","geometry":{"type":"Point","coordinates":[115.9857609,39.8333374]},"properties":{"ele":"692","name":"栗子成尖","name:en":"Lizicheng Jian","natural":"peak"}}
{"type":"Feature","geometry":{"type":"Point","coordinates":[41.7256351,45.0879655]},"properties":{"ele":"322","name":"Курган Смыков","natural":"peak"}}
{"type":"Feature","geometry":{"type":"Point","coordinates":[41.8681311,44.8677339]},"properties":{"ele":"624","name":"г. Острая","natural":"peak"}}
{"type":"Feature","geometry":{"type":"Point","coordinates":[134.2308424,50.4843455]},"properties":{"ele":"2194","name":"Омот","natural":"peak"}}
{"type":"Feature","geometry":{"type":"Point","coordinates":[122.9622973,-1.3629585]},"properties":{"alt_name":"Gunung Sosoling;Gunung Tombia","ele":"1035","name":"Gunung Satu Nappas","natural":"peak"}}
{"type":"Feature","geometry":{"type":"Point","coordinates":[80.589006,6.3822158]},"properties":{"natural":"peak"}}
{"type":"Feature","geometry":{"type":"Point","coordinates":[138.8569159,48.9814107]},"properties":{"ele":"1521","name":"Сагды-Бяха","natural":"peak"}}
{"type":"Feature","geometry":{"type":"Point","coordinates":[116.1945481,40.9907801]},"properties":{"ele":"1256","name":"白草洼山","natural":"peak"}}
{"type":"Feature","geometry":{"type":"Point","coordinates":[116.2585744,40.9360853]},"properties":{"ele":"1444","name":"猴顶山梁","natural":"peak"}}
{"type":"Feature","geometry":{"type":"Point","coordinates":[116.2464033,40.9145261]},"properties":{"ele":"1142","name":"大南洼高尖","natural":"peak"}}
{"type":"Feature","geometry":{"type":"Point","coordinates":[116.269668,40.8900068]},"properties":{"ele":"1033","name":"东砬头","natural":"peak"}}
{"type":"Feature","geometry":{"type":"Point","coordinates":[116.3174684,40.8937097]},"properties":{"ele":"1776","name":"卯镇山","natural":"peak"}}
{"type":"Feature","geometry":{"type":"Point","coordinates":[116.2784787,40.9316309]},"properties":{"ele":"1240","name":"西兴洼","natural":"peak"}}
{"type":"Feature","geometry":{"type":"Point","coordinates":[116.2879687,40.9545758]},"properties":{"ele":"1294","name":"王永富山","natural":"peak"}}
{"type":"Feature","geometry":{"type":"Point","coordinates":[116.3582027,40.9396312]},"properties":{"ele":"1464","name":"瓦勺沟尖","natural":"peak"}}
{"type":"Feature","geometry":{"type":"Point","coordinates":[116.3590296,40.9414872]},"properties":{"ele":"1444","name":"三界梁","natural":"peak"}}
{"type":"Feature","geometry":{"type":"Point","coordinates":[116.3409555,40.8922169]},"properties":{"ele":"1408","name":"鸡冠砬","natural":"peak"}}
{"type":"Feature","geometry":{"type":"Point","coordinates":[116.3759867,40.8618351]},"properties":{"ele":"1102","name":"狼窝高尖","natural":"peak"}}
{"type":"Feature","geometry":{"type":"Point","coordinates":[116.3031516,40.8598385]},"properties":{"ele":"1002","name":"黄花洼梁尖","natural":"peak"}}
{"type":"Feature","geometry":{"type":"Point","coordinates":[115.4826469,41.2121461]},"properties":{"ele":"1866","name":"马连顶","natural":"peak"}}
{"type":"Feature","geometry":{"type":"Point","coordinates":[115.5045676,41.2370325]},"properties":{"ele":"1636","name":"南水泉","natural":"peak"}}
{"type":"Feature","geometry":{"type":"Point","coordinates":[115.5156095,41.0899331]},"properties":{"ele":"1605","name":"四道梁","natural":"peak"}}
{"type":"Feature","geometry":{"type":"Point","coordinates":[115.5338279,41.0859803]},"properties":{"ele":"1664","name":"猴嵯","natural":"peak"}}
{"type":"Feature","geometry":{"type":"Point","coordinates":[115.5663956,41.1244017]},"properties":{"ele":"1512","name":"透风山","natural":"peak"}}
{"type":"Feature","geometry":{"type":"Point","coordinates":[115.5876966,41.1382085]},"properties":{"ele":"1375","name":"九龙嘴","natural":"peak"}}
{"type":"Feature","geometry":{"type":"Point","coordinates":[115.5984306,41.1192377]},"properties":{"ele":"1472","name":"大墩梁","natural":"peak"}}
{"type":"Feature","geometry":{"type":"Point","coordinates":[139.885,51.4644444]},"properties":{"ele":"1072","name":"Тиуль","natural":"peak"}}
{"type":"Feature","geometry":{"type":"Point","coordinates":[101.5542658,3.7409686]},"properties":{"ele":"456","name":"Bukit Perangin","natural":"peak"}}
{"type":"Feature","geometry":{"type":"Point","coordinates":[114.5897149,-8.2642091]},"properties":{"natural":"peak"}}
{"type":"Feature","geometry":{"type":"Point","coordinates":[139.3012226,35.9442294]},"properties":{"ele":"105.8","natural":"peak","source":"GSImaps/std"}}
{"type":"Feature","geometry":{"type":"Point","coordinates":[139.2942059,35.9366071]},"properties":{"ele":"203","name":"龍ヶ谷山","natural":"peak","source":"GSImaps/std"}}
{"type":"Feature","geometry":{"type":"Point","coordinates":[130.2044291,32.7675477]},"properties":{"ele":"364","name":"猿葉山","name:en":"Mt. Saruba","name:ja-Latn":"Saruba san","natural":"peak"}}
{"type":"Feature","geometry":{"type":"Point","coordinates":[105.029608,35.3114832]},"properties":{"natural":"peak"}}
{"type":"Feature","geometry":{"type":"Point","coordinates":[104.9893212,35.381532]},"properties":{"natural":"peak"}}
{"type":"Feature","geometry":{"type":"Point","coordinates":[74.0407491,40.1240037]},"properties":{"ele":"4683","natural":"peak"}}
{"type":"Feature","geometry":{"type":"Point","coordinates":[69.040642,34.5145888]},"properties":{"name":"Chihil Dukhtaran Mountain","natural":"peak"}}
{"type":"Feature","geometry":{"type":"Point","coordinates":[46.4073474,53.9224155]},"properties":{"ele":"260","name":"Лысая","natural":"peak"}}
{"type":"Feature","geometry":{"type":"Point","coordinates":[116.1463513,40.0003944]},"properties":{"name":"金蟾峰","natural":"peak"}}
{"type":"Feature","geometry":{"type":"Point","coordinates":[116.0757609,40.1104698]},"properties":{"ele":"625","name":"老爷山","natural":"peak"}}
{"type":"Feature","geometry":{"type":"Point","coordinates":[87.3066115,49.7802665]},"properties":{"ele":"2514.7","name":"Карадунгаш","natural":"peak"}}
{"type":"Feature","geometry":{"type":"Point","coordinates":[45.2880049,42.6660204]},"properties":{"ele":"3419.3","natural":"peak"}}
{"type":"Feature","geometry":{"type":"Point","coordinates":[45.2829194,42.6229586]},"properties":{"ele":"3958.4","natural":"peak"}}
{"type":"Feature","geometry":{"type":"Point","coordinates":[78.3327747,31.2789241]},"properties":{"name":"Lami","natural":"peak"}}
{"type":"Feature","geometry":{"type":"Point","coordinates":[115.6227831,41.1559177]},"properties":{"ele":"1386","name":"红墩梁","natural":"peak"}}
{"type":"Feature","geometry":{"type":"Point","coordinates":[115.6341401,41.1628998]},"properties":{"ele":"1276","name":"纱帽山","natural":"peak"}}
{"type":"Feature","geometry":{"type":"Point","coordinates":[115.5674565,41.1994723]},"properties":{"ele":"1504.8","name":"老刁嵯","natural":"peak"}}
{"type":"Feature","geometry":{"type":"Point","coordinates":[115.5215548,41.2155992]},"properties":{"ele":"1436","name":"孤山","natural":"peak"}}
{"type":"Feature","geometry":{"type":"Point","coordinates":[115.550303,41.2410652]},"properties":{"ele":"1471","name":"十二面井梁","natural":"peak"}}
{"type":"Feature","geometry":{"type":"Point","coordinates":[115.5880645,41.2866525]},"properties":{"ele":"1622","name":"明岔","natural":"peak"}}
{"type":"Feature","geometry":{"type":"Point","coordinates":[115.7038051,41.3518117]},"properties":{"ele":"1529","name":"张帽山","natural":"peak"}}
{"type":"Feature","geometry":{"type":"Point","coordinates":[115.8186585,41.2379551]},"properties":{"ele":"1622","name":"老汉山","natural":"peak"}}
{"type":"Feature","geometry":{"type":"Point","coordinates":[115.7724038,41.1725861]},"properties":{"ele":"1381","name":"李家山","natural":"peak"}}
{"type":"Feature","geometry":{"type":"Point","coordinates":[115.7724466,41.1668863]},"properties":{"ele":"1353","name":"马家山","natural":"peak"}}
{"type":"Feature","geometry":{"type":"Point","coordinates":[115.7249544,41.1855973]},"properties":{"ele":"1404","name":"三山嵯","natural":"peak"}}
{"type":"Feature","geometry":{"type":"Point","coordinates":[115.6859385,41.1340076]},"properties":{"ele":"1220","name":"白石嵯","natural":"peak"}}
{"type":"Feature","geometry":{"type":"Point","coordinates":[115.7410879,41.1114523]},"properties":{"ele":"1317","name":"小南嵯","natural":"peak"}}
{"type":"Feature","geometry":{"type":"Point","coordinates":[115.7284757,41.086317]},"properties":{"ele":"1193","name":"莲花山","natural":"peak"}}
{"type":"Feature","geometry":{"type":"Point","coordinates":[115.7816973,41.1010172]},"properties":{"ele":"1254","name":"前仓坡","natural":"peak"}}
{"type":"Feature","geometry":{"type":"Point","coordinates":[115.7884751,41.1131299]},"properties":{"ele":"1348","name":"后仓坡","natural":"peak"}}
{"type":"Feature","geometry":{"type":"Point","coordinates":[115.93712,41.165467]},"properties":{"ele":"1616","name":"刀棱嵯","natural":"peak"}}
{"type":"Feature","geometry":{"type":"Point","coordinates":[115.9567822,41.2750108]},"properties":{"ele":"1938","name":"五道岭","natural":"peak"}}
{"type":"Feature","geometry":{"type":"Point","coordinates":[115.9887807,41.3017052]},"properties":{"ele":"2028.8","name":"转山","natural":"peak"}}
{"type":"Feature","geometry":{"type":"Point","coordinates":[116.0167788,41.3510107]},"properties":{"ele":"2005","name":"双窝铺山","natural":"peak"}}
{"type":"Feature","geometry":{"type":"Point","coordinates":[116.0555494,41.3434475]},"properties":{"ele":"2142","name":"二道冰山","natural":"peak"}}
{"type":"Feature","geometry":{"type":"Point","coordinates":[116.08009,41.3721694]},"properties":{"ele":"2007","name":"米面口袋山","natural":"peak"}}
{"type":"Feature","geometry":{"type":"Point","coordinates":[116.0891657,41.3475719]},"properties":{"ele":"2162","name":"西猴顶","natural":"peak"}}
{"type":"Feature","geometry":{"type":"Point","coordinates":[116.1641083,41.3562108]},"properties":{"ele":"2154","name":"大银洞山","natural":"peak"}}
{"type":"Feature","geometry":{"type":"Point","coordinates":[115.4250436,41.3905864]},"properties":{"ele":"1759","name":"大背梁","natural":"peak"}}
{"type":"Feature","geometry":{"type":"Point","coordinates":[115.4517676,41.4437412]},"properties":{"ele":"1620","name":"西大山","natural":"peak"}}
{"type":"Feature","geometry":{"type":"Point","coordinates":[116.1854795,41.2906271]},"properties":{"ele":"2184","name":"冰冷沟高尖","natural":"peak"}}
{"type":"Feature","geometry":{"type":"Point","coordinates":[116.1210307,41.274087]},"properties":{"ele":"1962.4","name":"红山洼","natural":"peak"}}
{"type":"Feature","geometry":{"type":"Point","coordinates":[116.2039422,41.236735]},"properties":{"ele":"1731.3","name":"千松梁","natural":"peak"}}
{"type":"Feature","geometry":{"type":"Point","coordinates":[116.2423849,41.1634447]},"properties":{"ele":"2136","name":"黑草头","natural":"peak"}}
{"type":"Feature","geometry":{"type":"Point","coordinates":[116.2374856,41.139217]},"properties":{"ele":"2134.9","name":"摩黑梁","natural":"peak"}}
{"type":"Feature","geometry":{"type":"Point","coordinates":[138.0885169,35.4667498]},"properties":{"ele":"2075","natural":"peak"}}
{"type":"Feature","geometry":{"type":"Point","coordinates":[138.1380864,35.415226]},"properties":{"ele":"2662","name":"小聖岳","name:en":"Mount Ko-Hijiri","name:ja":"小聖岳","natural":"peak"}}
{"type":"Feature","geometry":{"type":"Point","coordinates":[137.938216,36.057794]},"properties":{"ele":"1244","natural":"peak"}}
{"type":"Feature","geometry":{"type":"Point","coordinates":[137.9273642,36.0486833]},"properties":{"ele":"1298.3","man_made":"survey_point","natural":"peak"}}
{"type":"Feature","geometry":{"type":"Point","coordinates":[137.9166436,36.0356275]},"properties":{"ele":"1338","natural":"peak"}}
{"type":"Feature","geometry":{"type":"Point","coordinates":[137.9044325,36.0344896]},"properties":{"ele":"1393.1","man_made":"survey_point","natural":"peak"}}
{"type":"Feature","geometry":{"type":"Point","coordinates":[137.8829317,36.0188563]},"properties":{"ele":"1294","man_made":"survey_point","natural":"peak"}}
{"type":"Feature","geometry":{"type":"Point","coordinates":[137.8876202,36.0644113]},"properties":{"ele":"1181","name":"尖剣山","name:en":"Mt. Senken","natural":"peak"}}
{"type":"Feature","geometry":{"type":"Point","coordinates":[137.8799897,36.0619157]},"properties":{"ele":"1342","natural":"peak"}}
{"type":"Feature","geometry":{"type":"Point","coordinates":[137.8679949,36.0445157]},"properties":{"ele":"1459.8","man_made":"survey_point","natural":"peak"}}
{"type":"Feature","geometry":{"type":"Point","coordinates":[137.8525836,36.0319728]},"properties":{"ele":"1508.3","man_made":"survey_point","natural":"peak"}}
{"type":"Feature","geometry":{"type":"Point","coordinates":[137.7356292,36.0692839]},"properties":{"ele":"2374","man_made":"survey_point","name":"小鉢盛山","name:en":"Mount Kohachimori","name:ja":"小鉢盛山","natural":"peak","survey_point:purpose":"horizontal","survey_point:structure":"block"}}
{"type":"Feature","geometry":{"type":"Point","coordinates":[137.796338,36.0784265]},"properties":{"ele":"1952.1","man_made":"survey_point","name":"烏帽子岳","name:en":"Mt. Eboshi","natural":"peak"}}
{"type":"Feature","geometry":{"type":"Point","coordinates":[137.8245764,36.0682876]},"properties":{"ele":"1686","natural":"peak"}}
{"type":"Feature","geometry":{"type":"Point","coordinates":[137.825501,36.0735855]},"properties":{"ele":"1641.3","man_made":"survey_point","natural":"peak"}}
{"type":"Feature","geometry":{"type":"Point","coordinates":[137.7820763,36.0730906]},"properties":{"ele":"2022","natural":"peak"}}
{"type":"Feature","geometry":{"type":"Point","coordinates":[137.7424655,36.0432541]},"properties":{"ele":"2111","natural":"peak"}}
{"type":"Feature","geometry":{"type":"Point","coordinates":[137.7177932,35.9477554]},"properties":{"ele":"1711","name":"奥峰","name:en":"Mount Oku","name:ja":"奥峰","natural":"peak"}}
{"type":"Feature","geometry":{"type":"Point","coordinates":[137.7425326,36.0366938]},"properties":{"ele":"2096.2","man_made":"survey_point","natural":"peak"}}
{"type":"Feature","geometry":{"type":"Point","coordinates":[137.8243395,46.7646688]},"properties":{"ele":"1031","man_made":"survey_point","natural":"peak"}}
{"type":"Feature","geometry":{"type":"Point","coordinates":[137.9018415,46.8379957]},"properties":{"ele":"1006","man_made":"survey_point","natural":"peak"}}
{"type":"Feature","geometry":{"type":"Point","coordinates":[138.0140962,46.7092835]},"properties":{"ele":"782","man_made":"survey_point","natural":"peak"}}
{"type":"Feature","geometry":{"type":"Point","coordinates":[70.0599089,39.3002849]},"properties":{"ele":"4250","natural":"peak"}}
{"type":"Feature","geometry":{"type":"Point","coordinates":[138.1334237,46.7646674]},"properties":{"ele":"591","man_made":"survey_point","name":"Пея","natural":"peak"}}
{"type":"Feature","geometry":{"type":"Point","coordinates":[105.0584149,33.4912315]},"properties":{"natural":"peak"}}
{"type":"Feature","geometry":{"type":"Point","coordinates":[105.0539946,33.5290355]},"properties":{"natural":"peak"}}
{"type":"Feature","geometry":{"type":"Point","coordinates":[105.0448,33.4724396]},"properties":{"natural":"peak"}}
{"type":"Feature","geometry":{"type":"Point","coordinates":[105.0461197,33.448953]},"properties":{"natural":"peak"}}
{"type":"Feature","geometry":{"type":"Point","coordinates":[105.0420964,33.4467777]},"properties":{"natural":"peak"}}
{"type":"Feature","geometry":{"type":"Point","coordinates":[105.0670516,33.4833573]},"properties":{"natural":"peak"}}
{"type":"Feature","geometry":{"type":"Point","coordinates":[115.8107726,39.7966995]},"properties":{"ele":"853","name":"大西沟尖","natural":"peak"}}
{"type":"Feature","geometry":{"type":"Point","coordinates":[135.8255971,35.1646565]},"properties":{"ele":"812","name":"ナッチョ","name:en":"Mt. Naccho","natural":"peak"}}
{"type":"Feature","geometry":{"type":"Point","coordinates":[115.6381424,41.5061285]},"properties":{"ele":"1621","name":"鸡冠山","natural":"peak"}}
{"type":"Feature","geometry":{"type":"Point","coordinates":[115.4971541,41.4189676]},"properties":{"ele":"1612","name":"脑包山","natural":"peak"}}
{"type":"Feature","geometry":{"type":"Point","coordinates":[115.460939,41.5100367]},"properties":{"ele":"1744","name":"大脑包山","natural":"peak"}}
{"type":"Feature","geometry":{"type":"Point","coordinates":[115.4855436,41.5219302]},"properties":{"ele":"1590","name":"狼尾巴山","natural":"peak"}}
{"type":"Feature","geometry":{"type":"Point","coordinates":[115.6083574,41.5032731]},"properties":{"ele":"1706","name":"脑包山","natural":"peak"}}
{"type":"Feature","geometry":{"type":"Point","coordinates":[115.7197813,41.518822]},"properties":{"ele":"1617","name":"李王山","natural":"peak"}}
{"type":"Feature","geometry":{"type":"Point","coordinates":[115.6767194,41.4568741]},"properties":{"ele":"1612","name":"西脑包","natural":"peak"}}
{"type":"Feature","geometry":{"type":"Point","coordinates":[115.7054643,41.4129688]},"properties":{"ele":"1658","name":"火神庙堆","natural":"peak"}}
{"type":"Feature","geometry":{"type":"Point","coordinates":[115.6462801,41.3639206]},"properties":{"ele":"1738","name":"大堆梁","natural":"peak"}}
{"type":"Feature","geometry":{"type":"Point","coordinates":[115.5654369,41.3100596]},"properties":{"ele":"1633","name":"磨石沟大梁","natural":"peak"}}
{"type":"Feature","geometry":{"type":"Point","coordinates":[115.535458,41.3014973]},"properties":{"ele":"1591","name":"后背梁","natural":"peak"}}
{"type":"Feature","geometry":{"type":"Point","coordinates":[115.5020412,41.3032371]},"properties":{"ele":"1731","name":"鸡冠山","natural":"peak"}}
{"type":"Feature","geometry":{"type":"Point","coordinates":[116.0313397,41.4122471]},"properties":{"ele":"1975","name":"砬子沟山","natural":"peak"}}
{"type":"Feature","geometry":{"type":"Point","coordinates":[116.0098526,41.4038877]},"properties":{"ele":"1858","name":"牛盘山","natural":"peak"}}
{"type":"Feature","geometry":{"type":"Point","coordinates":[115.9874729,41.3988325]},"properties":{"ele":"1928","name":"机关山","natural":"peak"}}
{"type":"Feature","geometry":{"type":"Point","coordinates":[115.9081374,41.3191242]},"properties":{"ele":"1721","name":"黑山咀","natural":"peak"}}
{"type":"Feature","geometry":{"type":"Point","coordinates":[115.9432218,41.3007472]},"properties":{"ele":"1857","name":"东长沟梁","natural":"peak"}}
{"type":"Feature","geometry":{"type":"Point","coordinates":[115.8762747,41.297006]},"properties":{"ele":"2010","name":"黄花梁","natural":"peak"}}
{"type":"Feature","geometry":{"type":"Point","coordinates":[115.8564396,41.3206744]},"properties":{"ele":"1998","name":"双墩山","natural":"peak"}}
{"type":"Feature","geometry":{"type":"Point","coordinates":[115.8226744,41.350601]},"properties":{"ele":"1784","name":"盘道沟埌","natural":"peak"}}
{"type":"Feature","geometry":{"type":"Point","coordinates":[115.5421618,41.2720716]},"properties":{"ele":"1522","name":"墩洼梁","natural":"peak"}}
{"type":"Feature","geometry":{"type":"Point","coordinates":[115.9291371,41.5217876]},"properties":{"ele":"1636","name":"大石砬","natural":"peak"}}
{"type":"Feature","geometry":{"type":"Point","coordinates":[115.9692706,41.5170505]},"properties":{"ele":"1704","name":"二扎拉梁","natural":"peak"}}
{"type":"Feature","geometry":{"type":"Point","coordinates":[115.9514519,41.4565218]},"properties":{"ele":"1805","name":"大仙庙山","natural":"peak"}}
{"type":"Feature","geometry":{"type":"Point","coordinates":[114.9286913,41.5448785]},"properties":{"ele":"1495","name":"脑包山","natural":"peak"}}
{"type":"Feature","geometry":{"type":"Point","coordinates":[115.6609726,41.7058419]},"properties":{"ele":"1493","name":"元山子","natural":"peak"}}
{"type":"Feature","geometry":{"type":"Point","coordinates":[116.0490383,41.7361673]},"properties":{"ele":"1514","name":"马神庙山","natural":"peak"}}
{"type":"Feature","geometry":{"type":"Point","coordinates":[115.7278941,41.8464503]},"properties":{"ele":"1462","name":"沟口山","natural":"peak"}}
{"type":"Feature","geometry":{"type":"Point","coordinates":[115.7700239,41.8551703]},"properties":{"ele":"1563","name":"死人沟山","natural":"peak"}}
{"type":"Feature","geometry":{"type":"Point","coordinates":[115.7207647,41.8617281]},"properties":{"ele":"1509","name":"别列脑包山","natural":"peak"}}
{"type":"Feature","geometry":{"type":"Point","coordinates":[35.3270937,31.3474037]},"properties":{"natural":"peak"}}
{"type":"Feature","geometry":{"type":"Point","coordinates":[75.3304916,13.1283843]},"properties":{"addr:city":"Samse","addr:postcode":"574214","name":"Netravati","name:kn":"ನೇತ್ರಾವತಿ","natural":"peak"}}
{"type":"Feature","geometry":{"type":"Point","coordinates":[103.6246294,-1.479019]},