{"type":"Feature","geometry":{"type":"Point","coordinates":[79.2122018,30.9648262]},"properties":{"ele":"6796","name":"Pilapani Parvat","natural":"peak"}}
{"type":"Feature","geometry":{"type":"Point","coordinates":[79.4101135,30.8445507]},"properties":{"description":"First ascenders : Eric Shipton & Frank Smythe","ele":"6196","name":"Avalanche Peak I","natural":"peak"}}
{"type":"Feature","geometry":{"type":"Point","coordinates":[44.9915725,40.2475351]},"properties":{"ele":"2961","natural":"peak"}}
{"type":"Feature","geometry":{"type":"Point","coordinates":[79.6142828,30.8802936]},"properties":{"ele":"7272","name":"Mana Peak","natural":"peak","wikidata":"Q1888527"}}
{"type":"Feature","geometry":{"type":"Point","coordinates":[89.2980127,50.0078008]},"properties":{"ele":"3411","name":"Сайлюгем","natural":"peak","wikipedia":"ru:Cайлюгем (гора, Алтайские горы)"}}
{"type":"Feature","geometry":{"type":"Point","coordinates":[89.3050075,49.9725252]},"properties":{"ele":"3505.7","name":"Талдуайр","natural":"peak"}}
{"type":"Feature","geometry":{"type":"Point","coordinates":[88.773473,49.887887]},"properties":{"ele":"1831","name":"Мишельдык","natural":"peak"}}
{"type":"Feature","geometry":{"type":"Point","coordinates":[88.751843,49.803426]},"properties":{"ele":"2013","natural":"peak"}}
{"type":"Feature","geometry":{"type":"Point","coordinates":[88.713391,49.812732]},"properties":{"ele":"2248","natural":"peak"}}
{"type":"Feature","geometry":{"type":"Point","coordinates":[88.9240197,49.7697341]},"properties":{"ele":"2382.3","name":"Керегетас","natural":"peak"}}
{"type":"Feature","geometry":{"type":"Point","coordinates":[88.816388,49.796557]},"properties":{"ele":"2060.8","name":"Демисин","natural":"peak"}}
{"type":"Feature","geometry":{"type":"Point","coordinates":[45.5190986,40.0189918]},"properties":{"natural":"peak"}}
{"type":"Feature","geometry":{"type":"Point","coordinates":[113.5592006,23.5394101]},"properties":{"name":"风云岭","natural":"peak"}}
{"type":"Feature","geometry":{"type":"Point","coordinates":[100.5719375,5.4072763]},"properties":{"ele":"141","name":"Bukit Jelutong","natural":"peak","wikidata":"Q30665716"}}
{"type":"Feature","geometry":{"type":"Point","coordinates":[120.8089627,23.6448033]},"properties":{"ele":"1990","name":"金柑樹山西北峰","name:en":"Jinganshushanxibeifeng","name:zh":"金柑樹山西北峰","name:zh-Bopo":"ㄐㄧㄣㄍㄢㄕㄨˋㄕㄢㄒㄧㄅㄟˇㄈㄥ","name:zh-Hans":"金柑树山西北峰","name:zh-Hant":"金柑樹山西北峰","name:zh-Latn-pinyin":"jīngānshùshānxīběifēng","natural":"peak"}}
{"type":"Feature","geometry":{"type":"Point","coordinates":[43.95932,37.4980767]},"properties":{"ele":"4060","name":"suppa durek","natural":"peak"}}
{"type":"Feature","geometry":{"type":"Point","coordinates":[114.2077491,22.489236]},"properties":{"description":"The highest hill peak on wilson trail section 9","description:en":"The highest hill peak on wilson trail section 9","ele":"639","landform":"peak","name":"黃嶺 Wong Leng","name:en":"Wong Leng","name:yue":"黃嶺","name:yue-Hant":"黃嶺","name:yue-Latn":"Wong Leng","name:yue-Latn-HK":"Wong Leng","name:yue-Latn-jyutping":"Wong4 Leng5","name:zh":"黃嶺","natural":"peak"}}
{"type":"Feature","geometry":{"type":"Point","coordinates":[114.1925397,22.4957175]},"properties":{"ele":"499","name":"青山頂","name:zh":"青山頂","natural":"peak"}}
{"type":"Feature","geometry":{"type":"Point","coordinates":[70.5921364,41.0717001]},"properties":{"natural":"peak"}}
{"type":"Feature","geometry":{"type":"Point","coordinates":[70.59381,41.0609093]},"properties":{"natural":"peak"}}
{"type":"Feature","geometry":{"type":"Point","coordinates":[113.4014564,33.7807969]},"properties":{"ele":"392","name":"紫云山","natural":"peak"}}
{"type":"Feature","geometry":{"type":"Point","coordinates":[70.6492137,41.26484]},"properties":{"natural":"peak"}}
{"type":"Feature","geometry":{"type":"Point","coordinates":[70.6433773,41.2762907]},"properties":{"natural":"peak"}}
{"type":"Feature","geometry":{"type":"Point","coordinates":[70.6538057,41.2721299]},"properties":{"natural":"peak"}}
{"type":"Feature","geometry":{"type":"Point","coordinates":[70.7168483,41.2479668]},"properties":{"natural":"peak"}}
{"type":"Feature","geometry":{"type":"Point","coordinates":[70.706892,41.2545811]},"properties":{"natural":"peak"}}
{"type":"Feature","geometry":{"type":"Point","coordinates":[70.7026434,41.2568718]},"properties":{"ele":"3002","natural":"peak"}}
{"type":"Feature","geometry":{"type":"Point","coordinates":[70.6878805,41.2519355]},"properties":{"natural":"peak"}}
{"type":"Feature","geometry":{"type":"Point","coordinates":[70.6786536,41.2512257]},"properties":{"natural":"peak"}}
{"type":"Feature","geometry":{"type":"Point","coordinates":[70.6960773,41.25029]},"properties":{"natural":"peak"}}
{"type":"Feature","geometry":{"type":"Point","coordinates":[70.7369327,41.2740974]},"properties":{"natural":"peak"}}
{"type":"Feature","geometry":{"type":"Point","coordinates":[139.2152633,35.8155416]},"properties":{"ele":"494","name":"雷電山","natural":"peak","source":"GSImaps/std"}}
{"type":"Feature","geometry":{"type":"Point","coordinates":[120.8143919,23.6353123]},"properties":{"ele":"2117","natural":"peak"}}
{"type":"Feature","geometry":{"type":"Point","coordinates":[118.4944649,28.2296771]},"properties":{"ele":"1146","name":"浮盖山","name:en":"Fugai Mountain","name:zh":"浮盖山","natural":"peak","wikidata":"Q11149454","wikipedia":"zh:浮盖山"}}
{"type":"Feature","geometry":{"type":"Point","coordinates":[48.4819136,33.9591477]},"properties":{"addr:city":"Borujerd","addr:province":"لرستان","alt_name":"بازگیر 1","ele":"3646","loc_name":"گرو;واینه","name":"گرین(واینه)","name:en":"Garrin Mountain","natural":"peak","prominence":"1777","source:prominence":"GFT","wikidata":"Q3323055","wikipedia":"en:Garrin Mountain"}}
{"type":"Feature","geometry":{"type":"Point","coordinates":[137.9945321,35.2306645]},"properties":{"ele":"1473","name":"矢筈山","name:en":"Mount Yahazu","name:ja":"矢筈山","natural":"peak"}}
{"type":"Feature","geometry":{"type":"Point","coordinates":[138.0181931,35.2369969]},"properties":{"ele":"1747.4","man_made":"survey_point","name":"六呂場山","natural":"peak","survey_point:purpose":"horizontal","survey_point:structure":"block"}}
{"type":"Feature","geometry":{"type":"Point","coordinates":[123.3380792,10.4583519]},"properties":{"name":"Malatamban Peak","natural":"peak"}}
{"type":"Feature","geometry":{"type":"Point","coordinates":[138.0331193,35.2202521]},"properties":{"ele":"2075","name":"鎌崩岳","natural":"peak"}}
{"type":"Feature","geometry":{"type":"Point","coordinates":[59.2726994,56.2409041]},"properties":{"ele":"348","int_name":"Kladbishchenskaya","name":"Кладбищенская","natural":"peak"}}
{"type":"Feature","geometry":{"type":"Point","coordinates":[120.9909639,24.0062651]},"properties":{"ele":"1008.5","natural":"peak","source":"NLSC"}}
{"type":"Feature","geometry":{"type":"Point","coordinates":[128.2107861,37.2030365]},"properties":{"ele":"873","name":"용두산","name:en":"Yongdusan","name:ko":"용두산","natural":"peak","wikidata":"Q27307412"}}
{"type":"Feature","geometry":{"type":"Point","coordinates":[120.77984,23.6806934]},"properties":{"ele":"1256","name":"竹崙山","name:en":"Zhulunshan","name:zh":"竹崙山","name:zh-Bopo":"ㄓㄨˊㄌㄨㄣˊㄕㄢ","name:zh-Hans":"竹仑山","name:zh-Hant":"竹崙山","name:zh-Latn-pinyin":"zhúlúnshān","natural":"peak"}}
{"type":"Feature","geometry":{"type":"Point","coordinates":[120.7778579,23.6785323]},"properties":{"ele":"1308","name":"志騰山","name:en":"Zhitengshan","name:zh":"志騰山","name:zh-Bopo":"ㄓˋㄊㄥˊㄕㄢ","name:zh-Hans":"志腾山","name:zh-Hant":"志騰山","name:zh-Latn-pinyin":"zhìténgshān","natural":"peak"}}
{"type":"Feature","geometry":{"type":"Point","coordinates":[114.1748216,22.5564134]},"properties":{"ele":"156.6","name":"嚤囉樓山 Mo Lor Lau Shan","name:en":"Mo Lor Lau Shan","name:zh":"嚤囉樓山","natural":"peak"}}
{"type":"Feature","geometry":{"type":"Point","coordinates":[120.9918924,24.1451303]},"properties":{"ele":"1846","natural":"peak"}}
{"type":"Feature","geometry":{"type":"Point","coordinates":[121.0066288,24.144511]},"properties":{"ele":"2177","natural":"peak"}}
{"type":"Feature","geometry":{"type":"Point","coordinates":[113.2657007,33.7927617]},"properties":{"ele":"505","name":"擂鼓台","natural":"peak"}}
{"type":"Feature","geometry":{"type":"Point","coordinates":[113.2970224,33.7806815]},"properties":{"ele":"493","name":"落凫山","natural":"peak"}}
{"type":"Feature","geometry":{"type":"Point","coordinates":[113.321243,33.7751506]},"properties":{"ele":"427","name":"平顶山","natural":"peak"}}
{"type":"Feature","geometry":{"type":"Point","coordinates":[90.3016812,50.6062082]},"properties":{"ele":"3340","name":"Красноярск","natural":"peak"}}
{"type":"Feature","geometry":{"type":"Point","coordinates":[90.2670059,50.596902]},"properties":{"ele":"3577","name":"Мунхулик","name:en":"Munkhulik","natural":"peak"}}
{"type":"Feature","geometry":{"type":"Point","coordinates":[113.1358262,33.8234265]},"properties":{"name":"东小山","natural":"peak"}}
{"type":"Feature","geometry":{"type":"Point","coordinates":[113.1757017,33.8271806]},"properties":{"name":"蜘蛛山","natural":"peak"}}
{"type":"Feature","geometry":{"type":"Point","coordinates":[113.1617308,33.834276]},"properties":{"name":"红石山","natural":"peak"}}
{"type":"Feature","geometry":{"type":"Point","coordinates":[113.2286556,33.8189987]},"properties":{"name":"三龙山","natural":"peak"}}
{"type":"Feature","geometry":{"type":"Point","coordinates":[113.2719713,33.81391]},"properties":{"name":"横岭山","natural":"peak"}}
{"type":"Feature","geometry":{"type":"Point","coordinates":[113.2600487,33.8015401]},"properties":{"name":"窑沟","natural":"peak"}}
{"type":"Feature","geometry":{"type":"Point","coordinates":[113.196682,33.7549012]},"properties":{"name":"锅底山","natural":"peak"}}
{"type":"Feature","geometry":{"type":"Point","coordinates":[68.183738,39.2459183]},"properties":{"ele":"3445","name":"Флюорит","name:en":"Fluorite Peak","natural":"peak","westra_ref":"10127"}}
{"type":"Feature","geometry":{"type":"Point","coordinates":[68.2936119,39.1898572]},"properties":{"ele":"5152","name":"Бодхона","natural":"peak","westra_ref":"10171","wikidata":"Q21663317"}}
{"type":"Feature","geometry":{"type":"Point","coordinates":[68.2475906,39.1886016]},"properties":{"ele":"4272","name":"Фагитор","natural":"peak","westra_ref":"10147"}}
{"type":"Feature","geometry":{"type":"Point","coordinates":[68.2542157,39.1786345]},"properties":{"ele":"4277","name":"Чинал","natural":"peak","westra_ref":"10149"}}
{"type":"Feature","geometry":{"type":"Point","coordinates":[68.244667,39.2458643]},"properties":{"natural":"peak"}}
{"type":"Feature","geometry":{"type":"Point","coordinates":[78.4059691,42.3158213]},"properties":{"ele":"4200","name":"Треугольник","natural":"peak","westra_ref":"8290"}}
{"type":"Feature","geometry":{"type":"Point","coordinates":[75.3391206,41.6440271]},"properties":{"natural":"peak"}}
{"type":"Feature","geometry":{"type":"Point","coordinates":[107.3658036,25.8398373]},"properties":{"natural":"peak"}}
{"type":"Feature","geometry":{"type":"Point","coordinates":[107.3144768,25.8398662]},"properties":{"natural":"peak"}}
{"type":"Feature","geometry":{"type":"Point","coordinates":[107.4574731,25.8398592]},"properties":{"natural":"peak"}}
{"type":"Feature","geometry":{"type":"Point","coordinates":[120.8148069,23.602075]},"properties":{"ele":"2271.4","name":"烏松坑山","name:en":"Wusongkengshan","name:zh":"烏松坑山","name:zh-Bopo":"ㄨㄙㄨㄥㄎㄥㄕㄢ","name:zh-Hans":"乌松坑山","name:zh-Hant":"烏松坑山","name:zh-Latn-pinyin":"wūsōngkēngshān","natural":"peak","source":"NLSC","wikidata":"Q31593727"}}
{"type":"Feature","geometry":{"type":"Point","coordinates":[42.0680167,27.0206167]},"properties":{"alt_name":"جفير","int_name":"jfeer","name":"جفير","name:ar":"جفير","name:de":"jfeer","name:en":"jfeer","name:fr":"jfeer","natural":"peak"}}
{"type":"Feature","geometry":{"type":"Point","coordinates":[42.0845833,27.0263667]},"properties":{"alt_name":"العبدا","name":"العبدا","name:ar":"العبدا","name:en":"Al Abda","natural":"peak"}}
{"type":"Feature","geometry":{"type":"Point","coordinates":[42.1004675,27.0225838]},"properties":{"alt_name":"الشعشاعي","int_name":"alshashaey","name":"الشعشاعي","name:ar":"الشعشاعي","name:de":"Jabal alshashaey","name:en":"Jabal alshashaey","name:fr":"Jabal alshashaey","natural":"peak"}}
{"type":"Feature","geometry":{"type":"Point","coordinates":[113.0941076,34.1005106]},"properties":{"name":"中蛇山","natural":"peak"}}
{"type":"Feature","geometry":{"type":"Point","coordinates":[113.1184783,34.09275]},"properties":{"name":"三蛇山","natural":"peak"}}
{"type":"Feature","geometry":{"type":"Point","coordinates":[113.2225542,33.7346415]},"properties":{"name":"紫金山","natural":"peak"}}
{"type":"Feature","geometry":{"type":"Point","coordinates":[70.6071138,41.1894738]},"properties":{"natural":"peak"}}
{"type":"Feature","geometry":{"type":"Point","coordinates":[68.3789921,39.2046239]},"properties":{"ele":"4046","name":"Патруш","natural":"peak","westra_ref":"10137"}}
{"type":"Feature","geometry":{"type":"Point","coordinates":[68.3150267,39.1757694]},"properties":{"ele":"4293","name":"Собор","natural":"peak","westra_ref":"10151"}}
{"type":"Feature","geometry":{"type":"Point","coordinates":[68.3011329,39.1218038]},"properties":{"ele":"4259","name":"Биоб","natural":"peak","westra_ref":"10092"}}
{"type":"Feature","geometry":{"type":"Point","coordinates":[68.3160352,39.114229]},"properties":{"ele":"4287","name":"Анзалык","natural":"peak","westra_ref":"10150"}}
{"type":"Feature","geometry":{"type":"Point","coordinates":[68.3129883,39.1200392]},"properties":{"ele":"4314","name":"Саци-Илан","natural":"peak","westra_ref":"10153"}}
{"type":"Feature","geometry":{"type":"Point","coordinates":[68.3107567,39.1288785]},"properties":{"ele":"4746","name":"пик Красных Зорь","natural":"peak","westra_ref":"9642"}}
{"type":"Feature","geometry":{"type":"Point","coordinates":[42.3127028,41.8037461]},"properties":{"ele":"2654","int_name":"Naordvali","name":"ნაორდვალი","name:en":"Naordvali","name:ka":"ნაორდვალი","name:ru":"Наордвали","natural":"peak"}}
{"type":"Feature","geometry":{"type":"Point","coordinates":[34.8462811,32.1386965]},"properties":{"ele":"70","natural":"peak"}}
{"type":"Feature","geometry":{"type":"Point","coordinates":[87.825737,27.4636995]},"properties":{"ele":"3860","natural":"peak","source":"DEM (OpenCycleMap)"}}
{"type":"Feature","geometry":{"type":"Point","coordinates":[87.8336227,27.4622621]},"properties":{"ele":"3920","natural":"peak","source":"DEM (OpenCycleMap)"}}
{"type":"Feature","geometry":{"type":"Point","coordinates":[87.8114784,27.4548078]},"properties":{"ele":"3810","natural":"peak","source":"DEM (OpenCycleMap)"}}
{"type":"Feature","geometry":{"type":"Point","coordinates":[87.7679468,27.4289577]},"properties":{"ele":"3770","natural":"peak","source":"DEM (OpenCycleMap)"}}
{"type":"Feature","geometry":{"type":"Point","coordinates":[88.0897953,27.5946131]},"properties":{"alt_name":"Rāthoṅ","ele":"6678","name":"Rathong","natural":"peak","source":"estimated from DEM"}}
{"type":"Feature","geometry":{"type":"Point","coordinates":[104.3896015,10.4608563]},"properties":{"ele":"101","name":"Phnom Angkoul","natural":"peak"}}
{"type":"Feature","geometry":{"type":"Point","coordinates":[85.0488722,27.6499869]},"properties":{"name":"Keyu  Vir","natural":"peak"}}
{"type":"Feature","geometry":{"type":"Point","coordinates":[119.3146766,26.3074031]},"properties":{"name":"柳坪尖","natural":"peak"}}
{"type":"Feature","geometry":{"type":"Point","coordinates":[119.3339027,26.3082495]},"properties":{"name":"金山顶","natural":"peak"}}
{"type":"Feature","geometry":{"type":"Point","coordinates":[119.3358125,26.2861462]},"properties":{"name":"漏渚山","natural":"peak"}}
{"type":"Feature","geometry":{"type":"Point","coordinates":[70.6005907,41.1023315]},"properties":{"natural":"peak"}}
{"type":"Feature","geometry":{"type":"Point","coordinates":[70.6159973,41.0152516]},"properties":{"natural":"peak"}}
{"type":"Feature","geometry":{"type":"Point","coordinates":[70.6073713,41.0226179]},"properties":{"natural":"peak"}}
{"type":"Feature","geometry":{"type":"Point","coordinates":[76.1921972,50.3913042]},"properties":{"ele":"1055","int_name":"Äwlïetas","man_made":"survey_point","name":"Әулиетас","name:kk":"Әулиетас","name:ru":"Аулиетас","natural":"peak"}}
{"type":"Feature","geometry":{"type":"Point","coordinates":[83.6430841,52.2295179]},"properties":{"ele":"167","name":"Елбан","natural":"peak"}}
{"type":"Feature","geometry":{"type":"Point","coordinates":[35.3413154,33.4092431]},"properties":{"name":"ضهر عمار","name:ar":"ضهر عمار","name:de":"Dahr Ammar","name:fr":"Dahr Ammar","natural":"peak"}}
{"type":"Feature","geometry":{"type":"Point","coordinates":[35.3387778,33.420106]},"properties":{"name":"ضهر حسون","name:ar":"ضهر حسون","natural":"peak"}}
{"type":"Feature","geometry":{"type":"Point","coordinates":[75.5315208,12.3308623]},"properties":{"alt_name":"Nishani Betta","name":"Nishani Motte","name:kn":"ನಿಶಾನಿ ಮೊಟ್ಟೆ","natural":"peak","note":"There is another peak of this name near Madikeri."}}
{"type":"Feature","geometry":{"type":"Point","coordinates":[82.9801655,52.131025]},"properties":{"ele":"209","name":"курган Красильников Бугор","natural":"peak"}}
{"type":"Feature","geometry":{"type":"Point","coordinates":[82.8902578,52.1856156]},"properties":{"name":"грива Елбан","natural":"peak"}}
{"type":"Feature","geometry":{"type":"Point","coordinates":[82.6399379,52.1106334]},"properties":{"ele":"169.2","name":"Елбан","natural":"peak"}}
{"type":"Feature","geometry":{"type":"Point","coordinates":[100.1925704,6.4224422]},"properties":{"name":"Bukit Lagi","name:en":"Bukit Lagi","name:zh":"打石山","natural":"peak"}}
{"type":"Feature","geometry":{"type":"Point","coordinates":[70.6859922,41.2053531]},"properties":{"natural":"peak"}}
{"type":"Feature","geometry":{"type":"Point","coordinates":[70.6357813,41.2141751]},"properties":{"natural":"peak"}}
{"type":"Feature","geometry":{"type":"Point","coordinates":[70.677967,41.2173388]},"properties":{"natural":"peak"}}
{"type":"Feature","geometry":{"type":"Point","coordinates":[113.3226855,23.5582794]},"properties":{"name":"大王窝","name:zh":"大王窝","natural":"peak"}}
{"type":"Feature","geometry":{"type":"Point","coordinates":[45.7099056,50.8102331]},"properties":{"name":"Шихан","natural":"peak"}}
{"type":"Feature","geometry":{"type":"Point","coordinates":[45.8920276,51.0771938]},"properties":{"name":"гора Лазоревая","natural":"peak"}}
{"type":"Feature","geometry":{"type":"Point","coordinates":[46.0090202,50.9034456]},"properties":{"name":"гора Семи братьев","natural":"peak"}}
{"type":"Feature","geometry":{"type":"Point","coordinates":[113.3044582,23.5739583]},"properties":{"name":"石牙顶","natural":"peak"}}
{"type":"Feature","geometry":{"type":"Point","coordinates":[113.3383077,23.5412477]},"properties":{"ele":"406","name":"枫树窝顶","natural":"peak"}}
{"type":"Feature","geometry":{"type":"Point","coordinates":[113.2312889,23.5231968]},"properties":{"name":"山猪叫","natural":"peak"}}
{"type":"Feature","geometry":{"type":"Point","coordinates":[113.1970964,23.5795815]},"properties":{"name":"望天狮","natural":"peak"}}
{"type":"Feature","geometry":{"type":"Point","coordinates":[113.22291,23.5457933]},"properties":{"ele":"437","name":"吊谷上棚顶","natural":"peak"}}
{"type":"Feature","geometry":{"type":"Point","coordinates":[113.2942551,23.4956814]},"properties":{"name":"文笔岭","natural":"peak"}}
{"type":"Feature","geometry":{"type":"Point","coordinates":[113.1702141,23.9888726]},"properties":{"name":"人字脑","name:zh":"人字脑","natural":"peak"}}
{"type":"Feature","geometry":{"type":"Point","coordinates":[70.6939101,41.3017974]},"properties":{"natural":"peak"}}
{"type":"Feature","geometry":{"type":"Point","coordinates":[118.7458777,25.537214]},"properties":{"name":"横马山","natural":"peak"}}
{"type":"Feature","geometry":{"type":"Point","coordinates":[118.8181534,25.5370217]},"properties":{"ele":"1007","name":"云居山","natural":"peak"}}
{"type":"Feature","geometry":{"type":"Point","coordinates":[118.5972405,25.6015926]},"properties":{"ele":"1091","name":"乌坪旗","natural":"peak"}}
{"type":"Feature","geometry":{"type":"Point","coordinates":[118.5568786,25.6018635]},"properties":{"ele":"1357","name":"老狮坑","natural":"peak"}}
{"type":"Feature","geometry":{"type":"Point","coordinates":[118.8911247,25.673866]},"properties":{"ele":"1083","name":"望江山","natural":"peak"}}
{"type":"Feature","geometry":{"type":"Point","coordinates":[124.7439992,41.1371842]},"properties":{"name":"盘道岭","natural":"peak"}}
{"type":"Feature","geometry":{"type":"Point","coordinates":[68.1528679,39.2381958]},"properties":{"ele":"3986","name":"Зиерат","name:en":"Ziyorat","natural":"peak","westra_ref":"10133"}}
{"type":"Feature","geometry":{"type":"Point","coordinates":[138.0116232,35.0675449]},"properties":{"ele":"1212","name":"入手山","natural":"peak"}}
{"type":"Feature","geometry":{"type":"Point","coordinates":[137.3613953,-3.3183533]},"properties":{"natural":"peak"}}
{"type":"Feature","geometry":{"type":"Point","coordinates":[138.0265065,35.3146098]},"properties":{"ele":"2248","name":"鶏冠山 南峰","name:en":"Mount Tosaka South Peak","name:ja":"鶏冠山 南峰","natural":"peak"}}
{"type":"Feature","geometry":{"type":"Point","coordinates":[113.2955907,23.1854547]},"properties":{"ele":"382","name":"摩星岭","name:en":"Moxing Summit","natural":"peak","wikidata":"Q32156574","wikimedia_commons":"Category:Moxing Summit"}}
{"type":"Feature","geometry":{"type":"Point","coordinates":[109.9019209,25.7579935]},"properties":{"gns:dsg":"MT: mountain","name:en":"Longqianshanbei","natural":"peak","source:name":"GNS"}}
{"type":"Feature","geometry":{"type":"Point","coordinates":[82.8246939,52.5033244]},"properties":{"ele":"169","name":"гора Елбань","natural":"peak"}}
{"type":"Feature","geometry":{"type":"Point","coordinates":[114.4449217,23.8569935]},"properties":{"name":"七姑仙","natural":"peak"}}
{"type":"Feature","geometry":{"type":"Point","coordinates":[140.7828715,38.2564173]},"properties":{"ele":"372.5","man_made":"survey_point","name":"西風蕃山","name:en":"Narai-Banzan","name:ja":"西風蕃山","name:ja_kana":"ならいばんざん","natural":"peak","source":"survey"}}
{"type":"Feature","geometry":{"type":"Point","coordinates":[140.7916337,38.2556083]},"properties":{"ele":"356","name":"蕃山","name:en":"Banzan","name:ja":"蕃山","name:ja_kana":"ばんざん","natural":"peak","source":"survey"}}
{"type":"Feature","geometry":{"type":"Point","coordinates":[140.8615423,37.8617094]},"properties":{"ele":"429.3","name":"鹿狼山","name:en":"Mt Karou","name:ja_kana":"かろうさん","natural":"peak","source":"survey","wikidata":"Q11677238","wikipedia":"ja:鹿狼山"}}
{"type":"Feature","geometry":{"type":"Point","coordinates":[140.8531407,37.9606108]},"properties":{"ele":"286.6","man_made":"survey_point","name":"深山","name:en":"Shinzan","name:ja_kana":"しんざん","natural":"peak","source":"survey"}}
{"type":"Feature","geometry":{"type":"Point","coordinates":[140.697314,38.4221691]},"properties":{"ele":"1253","name":"北泉ヶ岳","name:en":"Mt. Kita-Izumigadake","name:ja":"北泉ヶ岳","name:ja-Hira":"きたいずみがだけ","name:ja-Latn":"Kitaizumigadake","natural":"peak","source":"survey","wikidata":"Q20043900","wikipedia":"ja:北泉ヶ岳"}}
{"type":"Feature","geometry":{"type":"Point","coordinates":[114.4277152,23.8738304]},"properties":{"name":"横山岗","natural":"peak"}}
{"type":"Feature","geometry":{"type":"Point","coordinates":[114.4890456,23.8780471]},"properties":{"name":"石棺材","natural":"peak"}}
{"type":"Feature","geometry":{"type":"Point","coordinates":[131.6459229,42.8991784]},"properties":{"ele":"45","name":"о.Пахтусова","name:en":"Pakhtysovs","natural":"peak"}}
{"type":"Feature","geometry":{"type":"Point","coordinates":[138.0259007,35.3180712]},"properties":{"ele":"2204","name":"鶏冠山 北峰","name:en":"Mount Tosaka North Peak","name:ja":"鶏冠山 北峰","natural":"peak"}}
{"type":"Feature","geometry":{"type":"Point","coordinates":[113.8217476,22.0044852]},"properties":{"name":"竹洲北山","name:zh":"竹洲北山","natural":"peak"}}
{"type":"Feature","geometry":{"type":"Point","coordinates":[113.8264075,21.9963516]},"properties":{"name":"竹洲顶","name:zh":"竹洲顶","natural":"peak"}}
{"type":"Feature","geometry":{"type":"Point","coordinates":[113.804032,22.0057462]},"properties":{"name":"横洲顶","name:zh":"横洲顶","natural":"peak"}}
{"type":"Feature","geometry":{"type":"Point","coordinates":[113.9211923,22.0419782]},"properties":{"name":"平头顶","name:zh":"平头顶","natural":"peak"}}
{"type":"Feature","geometry":{"type":"Point","coordinates":[116.9578855,23.4340324]},"properties":{"name":"西角山","natural":"peak"}}
{"type":"Feature","geometry":{"type":"Point","coordinates":[116.9974527,23.4415537]},"properties":{"ele":"156.6","name":"黄花山","natural":"peak"}}
{"type":"Feature","geometry":{"type":"Point","coordinates":[116.9818154,23.448183]},"properties":{"ele":"354.2","name":"龙颈山","natural":"peak"}}
{"type":"Feature","geometry":{"type":"Point","coordinates":[42.20362,43.2572095]},"properties":{"ele":"3302.9","natural":"peak"}}
{"type":"Feature","geometry":{"type":"Point","coordinates":[82.3565948,51.8180666]},"properties":{"ele":"195","name":"Воструха","natural":"peak"}}
{"type":"Feature","geometry":{"type":"Point","coordinates":[119.0594709,25.9230807]},"properties":{"ele":"544","name":"天牛山","natural":"peak"}}
{"type":"Feature","geometry":{"type":"Point","coordinates":[119.0986097,25.8905001]},"properties":{"ele":"733","name":"方广山","natural":"peak"}}
{"type":"Feature","geometry":{"type":"Point","coordinates":[119.0755212,25.8435435]},"properties":{"ele":"437","name":"坪岗尾","natural":"peak"}}
{"type":"Feature","geometry":{"type":"Point","coordinates":[119.1133726,25.8436208]},"properties":{"ele":"649","name":"剪刀剪","natural":"peak"}}
{"type":"Feature","geometry":{"type":"Point","coordinates":[119.0621316,25.8370546]},"properties":{"ele":"806","name":"企人石","natural":"peak"}}
{"type":"Feature","geometry":{"type":"Point","coordinates":[119.0964639,25.8304881]},"properties":{"ele":"603","name":"平头山","natural":"peak"}}
{"type":"Feature","geometry":{"type":"Point","coordinates":[119.0676033,25.7853433]},"properties":{"ele":"973","name":"斗湖山","natural":"peak"}}
{"type":"Feature","geometry":{"type":"Point","coordinates":[100.020996,28.8364592]},"properties":{"natural":"peak","source":"cyclemap"}}
{"type":"Feature","geometry":{"type":"Point","coordinates":[99.8997861,28.898379]},"properties":{"natural":"peak","source":"cyclemap"}}
{"type":"Feature","geometry":{"type":"Point","coordinates":[99.9729406,28.8848456]},"properties":{"natural":"peak","source":"cyclemap"}}
{"type":"Feature","geometry":{"type":"Point","coordinates":[100.0206899,28.9038723]},"properties":{"natural":"peak","source":"cyclemap"}}
{"type":"Feature","geometry":{"type":"Point","coordinates":[99.9659006,28.9249048]},"properties":{"natural":"peak","source":"cyclemap"}}
{"type":"Feature","geometry":{"type":"Point","coordinates":[99.7683064,28.9275861]},"properties":{"natural":"peak","source":"cyclemap"}}
{"type":"Feature","geometry":{"type":"Point","coordinates":[99.9429442,28.938433]},"properties":{"natural":"peak","source":"cyclemap"}}
{"type":"Feature","geometry":{"type":"Point","coordinates":[119.1049397,25.8123898]},"properties":{"ele":"599","name":"狮头岩","natural":"peak"}}
{"type":"Feature","geometry":{"type":"Point","coordinates":[119.1031802,25.7940375]},"properties":{"ele":"716","name":"顶岩山","natural":"peak"}}
{"type":"Feature","geometry":{"type":"Point","coordinates":[119.0981591,25.8121193]},"properties":{"ele":"718","name":"牛鼻山","natural":"peak"}}
{"type":"Feature","geometry":{"type":"Point","coordinates":[119.0861428,25.796974]},"properties":{"ele":"874","name":"大岩山","natural":"peak"}}
{"type":"Feature","geometry":{"type":"Point","coordinates":[119.0315116,25.7933419]},"properties":{"name":"牛角湾","natural":"peak"}}
{"type":"Feature","geometry":{"type":"Point","coordinates":[119.099578,25.769552]},"properties":{"name":"白石下","natural":"peak"}}
{"type":"Feature","geometry":{"type":"Point","coordinates":[119.1204349,25.7611652]},"properties":{"name":"董斜","natural":"peak"}}
{"type":"Feature","geometry":{"type":"Point","coordinates":[119.1074744,25.7638321]},"properties":{"name":"鼎炉寨","natural":"peak"}}
{"type":"Feature","geometry":{"type":"Point","coordinates":[119.06787,25.7578086]},"properties":{"name":"十八倒","natural":"peak"}}
{"type":"Feature","geometry":{"type":"Point","coordinates":[120.9712909,23.830821]},"properties":{"ele":"2035.8","name":"水社大山南峰","natural":"peak","source":"NLSC"}}
{"type":"Feature","geometry":{"type":"Point","coordinates":[82.4700951,51.5812833]},"properties":{"name":"Теремок","natural":"peak"}}
{"type":"Feature","geometry":{"type":"Point","coordinates":[82.4472213,51.5932688]},"properties":{"name":"Нартова","natural":"peak"}}
{"type":"Feature","geometry":{"type":"Point","coordinates":[82.4590874,51.5988606]},"properties":{"name":"Нартова 2-я","natural":"peak"}}
{"type":"Feature","geometry":{"type":"Point","coordinates":[99.7882297,28.5720726]},"properties":{"name":"热王拉山","natural":"peak","source":"cyclemap"}}
{"type":"Feature","geometry":{"type":"Point","coordinates":[99.7887423,28.6231507]},"properties":{"natural":"peak","source":"cyclemap"}}
{"type":"Feature","geometry":{"type":"Point","coordinates":[82.5077963,51.704554]},"properties":{"name":"сопка Займище","natural":"peak"}}
{"type":"Feature","geometry":{"type":"Point","coordinates":[99.7235996,28.7814886]},"properties":{"natural":"peak","source":"cyclemap"}}
{"type":"Feature","geometry":{"type":"Point","coordinates":[77.1767234,13.9332758]},"properties":{"name:kn":"ಚಿಗಿಲಿಕೊಂಡ","name:te":"చిగిలి కొండ","natural":"peak"}}
{"type":"Feature","geometry":{"type":"Point","coordinates":[77.1184015,13.8496222]},"properties":{"name":"Rolla Betta","name:kn":"ರೊಳ್ಳ ಬೆಟ್ಟ","name:te":"రొళ్ళ బెట్ట","natural":"peak"}}
{"type":"Feature","geometry":{"type":"Point","coordinates":[80.7114565,6.4338975]},"properties":{"name":"Wadakahadeniya","natural":"peak"}}
{"type":"Feature","geometry":{"type":"Point","coordinates":[80.6199476,6.4397479]},"properties":{"alt_name":"Suriya Kanda","ele":"1255","name":"Sooriya Kanda","natural":"peak","note":"Elevation is approximate","wikidata":"Q27457454"}}
{"type":"Feature","geometry":{"type":"Point","coordinates":[103.8149184,33.2190544]},"properties":{"natural":"peak","source":"cyclemap"}}
{"type":"Feature","geometry":{"type":"Point","coordinates":[104.169176,33.2330343]},"properties":{"natural":"peak","source":"cyclemap"}}
{"type":"Feature","geometry":{"type":"Point","coordinates":[104.0486955,33.2872984]},"properties":{"natural":"peak","source":"cyclemap"}}
{"type":"Feature","geometry":{"type":"Point","coordinates":[103.9801763,33.3646515]},"properties":{"natural":"peak","source":"cyclemap"}}
{"type":"Feature","geometry":{"type":"Point","coordinates":[104.2308656,33.4031827]},"properties":{"natural":"peak","source":"cyclemap"}}
{"type":"Feature","geometry":{"type":"Point","coordinates":[103.9848196,33.4604857]},"properties":{"natural":"peak","source":"cyclemap"}}
{"type":"Feature","geometry":{"type":"Point","coordinates":[71.98058,38.97215]},"properties":{"name":"Груди","natural":"peak"}}
{"type":"Feature","geometry":{"type":"Point","coordinates":[71.9531375,39.0004887]},"properties":{"ele":"5700","natural":"peak"}}
{"type":"Feature","geometry":{"type":"Point","coordinates":[71.962595,38.968168]},"properties":{"ele":"6372","name":"Кирова","natural":"peak","westra_ref":"7724"}}
{"type":"Feature","geometry":{"type":"Point","coordinates":[71.8879008,39.018917]},"properties":{"natural":"peak"}}
{"type":"Feature","geometry":{"type":"Point","coordinates":[71.9713285,38.9299964]},"properties":{"ele":"5563","name":"Ольги","natural":"peak","westra_ref":"12797"}}
{"type":"Feature","geometry":{"type":"Point","coordinates":[72.06088,38.87835]},"properties":{"ele":"5714","name":"Глуховцева","name:ru":"Глуховцева","natural":"peak","westra_ref":"7778"}}
{"type":"Feature","geometry":{"type":"Point","coordinates":[72.076743,38.907514]},"properties":{"ele":"5866","name":"Радиоклуба","name:ru":"Радиоклуба","natural":"peak","westra_ref":"7775"}}
{"type":"Feature","geometry":{"type":"Point","coordinates":[72.0050352,38.8896917]},"properties":{"ele":"6445","name":"Патриот","name:ja":"パトリオット峰","name:ru":"Патриот","natural":"peak","westra_ref":"7764"}}
{"type":"Feature","geometry":{"type":"Point","coordinates":[72.0559895,38.9718799]},"properties":{"ele":"6682","name":"40-летия Узбекистана","name:ru":"40-летия Узбекистана","natural":"peak","source:name":"https://static.turclubmai.ru/papers/2154/"}}
{"type":"Feature","geometry":{"type":"Point","coordinates":[172.1307391,69.6726883]},"properties":{"ele":"1101","name":"Куваева","natural":"peak"}}
{"type":"Feature","geometry":{"type":"Point","coordinates":[80.659368,6.4547186]},"properties":{"name":"Palamcotta Peak","natural":"peak","wikidata":"Q27457457"}}
{"type":"Feature","geometry":{"type":"Point","coordinates":[80.6422877,6.4611577]},"properties":{"name":"Kurulugala Peak","natural":"peak","wikidata":"Q27447422"}}
{"type":"Feature","geometry":{"type":"Point","coordinates":[80.5503844,6.4142485]},"properties":{"name":"Kudagoda","natural":"peak"}}
{"type":"Feature","geometry":{"type":"Point","coordinates":[80.5679797,6.4140779]},"properties":{"name":"Ilumbakanda","natural":"peak"}}
{"type":"Feature","geometry":{"type":"Point","coordinates":[34.5807189,30.6070044]},"properties":{"ele":"865","natural":"peak"}}
{"type":"Feature","geometry":{"type":"Point","coordinates":[80.6984853,6.3806844]},"properties":{"name":"Kella","natural":"peak","wikidata":"Q27457451"}}
{"type":"Feature","geometry":{"type":"Point","coordinates":[80.6735623,6.3824117]},"properties":{"name":"Naigala","natural":"peak","wikidata":"Q27447395"}}
{"type":"Feature","geometry":{"type":"Point","coordinates":[94.4056496,29.7671485]},"properties":{"name":"八及隆巴","natural":"peak"}}
{"type":"Feature","geometry":{"type":"Point","coordinates":[113.3851004,23.1848559]},"properties":{"description":"火炉山森林公园高点","ele":"327","name":"白架顶","name:en":"Baijiading","name:yue":"Mt Huolu Summit (Bak Ka Ding)","name:zh":"白架顶","natural":"peak"}}
{"type":"Feature","geometry":{"type":"Point","coordinates":[113.3926109,23.2168069]},"properties":{"ele":"373","name":"凤凰山","natural":"peak","source":"gps;strava;survey"}}
{"type":"Feature","geometry":{"type":"Point","coordinates":[83.5042754,44.229161]},"properties":{"natural":"peak","source":"cyclemap"}}
{"type":"Feature","geometry":{"type":"Point","coordinates":[83.4179535,44.2462218]},"properties":{"natural":"peak","source":"cyclemap"}}
{"type":"Feature","geometry":{"type":"Point","coordinates":[83.4157211,44.3536977]},"properties":{"natural":"peak","source":"cyclemap"}}
{"type":"Feature","geometry":{"type":"Point","coordinates":[83.5920389,44.3907266]},"properties":{"natural":"peak","source":"cyclemap"}}
{"type":"Feature","geometry":{"type":"Point","coordinates":[83.4822484,44.4320765]},"properties":{"natural":"peak","source":"cyclemap"}}
{"type":"Feature","geometry":{"type":"Point","coordinates":[35.0230774,30.8651739]},"properties":{"ele":"465","natural":"peak"}}
{"type":"Feature","geometry":{"type":"Point","coordinates":[35.0357837,30.8701352]},"properties":{"ele":"475","natural":"peak"}}
{"type":"Feature","geometry":{"type":"Point","coordinates":[35.0386675,30.8750328]},"properties":{"ele":"475","natural":"peak"}}
{"type":"Feature","geometry":{"type":"Point","coordinates":[83.4442285,44.2533094]},"properties":{"natural":"peak","source":"cyclemap"}}
{"type":"Feature","geometry":{"type":"Point","coordinates":[83.5145786,44.3109128]},"properties":{"natural":"peak","source":"cyclemap"}}
{"type":"Feature","geometry":{"type":"Point","coordinates":[119.0432779,25.837371]},"properties":{"ele":"938","name":"梅岩尖","natural":"peak"}}
{"type":"Feature","geometry":{"type":"Point","coordinates":[118.0598953,27.9290551]},"properties":{"ele":"1091","name":"磨石尖","natural":"peak"}}
{"type":"Feature","geometry":{"type":"Point","coordinates":[118.0117659,27.9370932]},"properties":{"ele":"1182","name":"绿村洋","natural":"peak"}}
{"type":"Feature","geometry":{"type":"Point","coordinates":[118.7714016,25.7597013]},"properties":{"ele":"529","name":"狮头","natural":"peak"}}
{"type":"Feature","geometry":{"type":"Point","coordinates":[117.5740784,31.7523507]},"properties":{"name":"萝卜山","natural":"peak"}}
{"type":"Feature","geometry":{"type":"Point","coordinates":[86.0587469,44.3034992]},"properties":{"name":"未名山","natural":"peak"}}
{"type":"Feature","geometry":{"type":"Point","coordinates":[34.5795351,30.8484806]},"properties":{"ele":"455","gns_ref":"-781270","natural":"peak","source":"GEOnet Names Server (gns)"}}
{"type":"Feature","geometry":{"type":"Point","coordinates":[77.1908881,32.3539668]},"properties":{"ele":"4230","name":"Patalsu Peak","natural":"peak","westra_ref":"13165"}}
{"type":"Feature","geometry":{"type":"Point","coordinates":[120.1363021,30.221697]},"properties":{"ele":"201","name":"九曜山","natural":"peak"}}
{"type":"Feature","geometry":{"type":"Point","coordinates":[99.822067,48.1745787]},"properties":{"natural":"peak"}}
{"type":"Feature","geometry":{"type":"Point","coordinates":[100.5784337,27.1006334]},"properties":{"natural":"peak","source":"cyclemap"}}
{"type":"Feature","geometry":{"type":"Point","coordinates":[100.6960158,27.1269845]},"properties":{"natural":"peak","source":"cyclemap"}}
{"type":"Feature","geometry":{"type":"Point","coordinates":[100.7977084,27.1323433]},"properties":{"natural":"peak","source":"cyclemap"}}
{"type":"Feature","geometry":{"type":"Point","coordinates":[100.5451494,27.1515435]},"properties":{"natural":"peak","source":"cyclemap"}}
{"type":"Feature","geometry":{"type":"Point","coordinates":[100.8505618,27.1580917]},"properties":{"natural":"peak","source":"cyclemap"}}
{"type":"Feature","geometry":{"type":"Point","coordinates":[100.8122598,27.1927608]},"properties":{"natural":"peak","source":"cyclemap"}}
{"type":"Feature","geometry":{"type":"Point","coordinates":[100.4670401,27.2507665]},"properties":{"natural":"peak","source":"cyclemap"}}
{"type":"Feature","geometry":{"type":"Point","coordinates":[100.7704454,27.0418048]},"properties":{"natural":"peak","source":"cyclemap"}}
{"type":"Feature","geometry":{"type":"Point","coordinates":[100.6271056,27.0726378]},"properties":{"natural":"peak","source":"cyclemap"}}
{"type":"Feature","geometry":{"type":"Point","coordinates":[100.8328325,27.0878277]},"properties":{"natural":"peak","source":"cyclemap"}}
{"type":"Feature","geometry":{"type":"Point","coordinates":[80.2607489,6.13776]},"properties":{"name":"Dolaaramba","natural":"peak"}}
{"type":"Feature","geometry":{"type":"Point","coordinates":[72.5193438,38.5093373]},"properties":{"alt_name":"Снежная Красавица","ele":"6134","name":"пик Шверника","natural":"peak","westra_ref":"8566"}}
{"type":"Feature","geometry":{"type":"Point","coordinates":[72.5226333,38.492697]},"properties":{"ele":"6124","name":"Ховраздара","natural":"peak","westra_ref":"6992"}}
{"type":"Feature","geometry":{"type":"Point","coordinates":[110.5953702,24.7772242]},"properties":{"natural":"peak"}}
{"type":"Feature","geometry":{"type":"Point","coordinates":[110.5936482,24.7771462]},"properties":{"natural":"peak"}}
{"type":"Feature","geometry":{"type":"Point","coordinates":[110.596486,24.7772242]},"properties":{"natural":"peak"}}
{"type":"Feature","geometry":{"type":"Point","coordinates":[110.5962231,24.7767176]},"properties":{"natural":"peak"}}
{"type":"Feature","geometry":{"type":"Point","coordinates":[110.5947103,24.7762354]},"properties":{"natural":"peak"}}
{"type":"Feature","geometry":{"type":"Point","coordinates":[110.5873017,24.78011]},"properties":{"natural":"peak"}}
{"type":"Feature","geometry":{"type":"Point","coordinates":[110.5905998,24.7825379]},"properties":{"natural":"peak"}}
{"type":"Feature","geometry":{"type":"Point","coordinates":[110.5905676,24.7810816]},"properties":{"natural":"peak"}}
{"type":"Feature","geometry":{"type":"Point","coordinates":[110.5884057,24.7784028]},"properties":{"natural":"peak"}}
{"type":"Feature","geometry":{"type":"Point","coordinates":[110.5897951,24.7797861]},"properties":{"natural":"peak"}}
{"type":"Feature","geometry":{"type":"Point","coordinates":[110.5889261,24.7797666]},"properties":{"natural":"peak"}}
{"type":"Feature","geometry":{"type":"Point","coordinates":[110.592134,24.7794062]},"properties":{"natural":"peak"}}
{"type":"Feature","geometry":{"type":"Point","coordinates":[110.588395,24.7735176]},"properties":{"natural":"peak"}}
{"type":"Feature","geometry":{"type":"Point","coordinates":[110.5876225,24.772899]},"properties":{"natural":"peak"}}
{"type":"Feature","geometry":{"type":"Point","coordinates":[110.5899829,24.7759627]},"properties":{"natural":"peak"}}
{"type":"Feature","geometry":{"type":"Point","coordinates":[110.5942395,24.7745112]},"properties":{"natural":"peak"}}
{"type":"Feature","geometry":{"type":"Point","coordinates":[110.6014064,24.7646184]},"properties":{"natural":"peak"}}
{"type":"Feature","geometry":{"type":"Point","coordinates":[113.3884891,23.1831897]},"properties":{"ele":"236.8","name":"鸡枕石","natural":"peak"}}
{"type":"Feature","geometry":{"type":"Point","coordinates":[113.3796482,23.1856672]},"properties":{"ele":"240","name":"猪头石","name:en":"Zhutoushi","name:yue":"Joo Tau Shek","name:zh":"猪头石","natural":"peak"}}
{"type":"Feature","geometry":{"type":"Point","coordinates":[80.2867985,6.217311]},"properties":{"name":"Ethumale","natural":"peak"}}
{"type":"Feature","geometry":{"type":"Point","coordinates":[88.9000613,27.2739637]},"properties":{"alt_name":"Gyemo Chen","ele":"4380","name":"Gipmochi","name:en":"Gipmochi","name:zh":"吉姆马珍山（支莫挚山）","natural":"peak","note":"The conventional elvatioin of the pass is 14,523 ft (4427 m)","wikidata":"Q21154924","wikipedia":"en:Gipmochi"}}
{"type":"Feature","geometry":{"type":"Point","coordinates":[88.9207948,27.3272984]},"properties":{"alt_name:en":"Batangla peak","ele":"4545","name":"Batang La peak","name:en":"Batang La peak","name:zh":"巴塘拉","natural":"peak"}}
{"type":"Feature","geometry":{"type":"Point","coordinates":[88.9599165,27.4314136]},"properties":{"ele":"3790","natural":"peak"}}
{"type":"Feature","geometry":{"type":"Point","coordinates":[88.9648357,27.4254]},"properties":{"ele":"3595","natural":"peak"}}
{"type":"Feature","geometry":{"type":"Point","coordinates":[88.9596506,27.4483152]},"properties":{"ele":"4175","natural":"peak"}}
{"type":"Feature","geometry":{"type":"Point","coordinates":[88.945929,27.4648059]},"properties":{"ele":"4050","name":"恰塘","natural":"peak"}}
{"type":"Feature","geometry":{"type":"Point","coordinates":[88.9392519,27.3819232]},"properties":{"ele":"4045","natural":"peak"}}
{"type":"Feature","geometry":{"type":"Point","coordinates":[88.9339618,27.3811328]},"properties":{"ele":"4075","natural":"peak"}}
{"type":"Feature","geometry":{"type":"Point","coordinates":[88.9215171,27.3823091]},"properties":{"ele":"4265","natural":"peak"}}
{"type":"Feature","geometry":{"type":"Point","coordinates":[88.9965883,27.4123934]},"properties":{"ele":"3970","name":"加仁","natural":"peak"}}
{"type":"Feature","geometry":{"type":"Point","coordinates":[113.3056557,23.1607649]},"properties":{"ele":"101","name":"马头岗","name:zh":"马头岗","natural":"peak"}}
{"type":"Feature","geometry":{"type":"Point","coordinates":[113.3039319,23.165558]},"properties":{"name":"狮子岗","name:zh":"狮子岗","natural":"peak"}}
{"type":"Feature","geometry":{"type":"Point","coordinates":[113.2844413,23.1615564]},"properties":{"ele":"134.9","name":"马鞍岭","name:zh":"马鞍岭","natural":"peak"}}
{"type":"Feature","geometry":{"type":"Point","coordinates":[113.2700435,23.1541634]},"properties":{"name":"睡狮头","natural":"peak"}}
{"type":"Feature","geometry":{"type":"Point","coordinates":[113.2658443,23.1501923]},"properties":{"ele":"100","name":"玉屏岗","natural":"peak"}}
{"type":"Feature","geometry":{"type":"Point","coordinates":[113.3447566,23.2094253]},"properties":{"ele":"264","name":"大坦岭","natural":"peak"}}
{"type":"Feature","geometry":{"type":"Point","coordinates":[113.3432546,23.1992665]},"properties":{"ele":"229.2","name":"圆岗岭","natural":"peak"}}
{"type":"Feature","geometry":{"type":"Point","coordinates":[88.915553,27.3370196]},"properties":{"ele":"4550","natural":"peak"}}
{"type":"Feature","geometry":{"type":"Point","coordinates":[88.9186644,27.3290708]},"properties":{"ele":"4555","name":"Batang La","name:zh":"巴塘拉","natural":"peak"}}
{"type":"Feature","geometry":{"type":"Point","coordinates":[88.9302891,27.3363525]},"properties":{"ele":"4575","natural":"peak"}}
{"type":"Feature","geometry":{"type":"Point","coordinates":[89.0472066,27.2959397]},"properties":{"ele":"4180","natural":"peak"}}
{"type":"Feature","geometry":{"type":"Point","coordinates":[89.0535366,27.2933082]},"properties":{"ele":"4170","name":"甲贡章","natural":"peak"}}
{"type":"Feature","geometry":{"type":"Point","coordinates":[73.4506042,39.4634361]},"properties":{"ele":"5505","name":"ТССР","natural":"peak"}}
{"type":"Feature","geometry":{"type":"Point","coordinates":[73.4417581,39.4810733]},"properties":{"natural":"peak"}}
{"type":"Feature","geometry":{"type":"Point","coordinates":[121.5885685,24.1512573]},"properties":{"ele":"1749","name":"丹錐山","name:en":"Danzhuishan","name:zh":"丹錐山","name:zh-Bopo":"ㄉㄢㄓㄨㄟㄕㄢ","name:zh-Hans":"丹锥山","name:zh-Hant":"丹錐山","name:zh-Latn-pinyin":"dānzhuīshān","natural":"peak","wikidata":"Q31596389"}}
{"type":"Feature","geometry":{"type":"Point","coordinates":[121.5823881,24.1400266]},"properties":{"ele":"1802","name":"托莫灣山","name:en":"Tuomowanshan","name:zh":"托莫灣山","name:zh-Bopo":"ㄊㄨㄛㄇㄛˋㄨㄢㄕㄢ","name:zh-Hans":"托莫湾山","name:zh-Hant":"托莫灣山","name:zh-Latn-pinyin":"tuōmòwānshān","natural":"peak","wikidata":"Q31615425"}}
{"type":"Feature","geometry":{"type":"Point","coordinates":[70.7787967,41.2240853]},"properties":{"natural":"peak"}}
{"type":"Feature","geometry":{"type":"Point","coordinates":[70.7858142,41.2027051]},"properties":{"natural":"peak"}}
{"type":"Feature","geometry":{"type":"Point","coordinates":[70.8026361,41.2025198]},"properties":{"ele":"3219.8","natural":"peak"}}
{"type":"Feature","geometry":{"type":"Point","coordinates":[128.2793173,38.4815997]},"properties":{"natural":"peak","source":"OpenTopoMap"}}
{"type":"Feature","geometry":{"type":"Point","coordinates":[70.8084512,41.2094414]},"properties":{"natural":"peak"}}
{"type":"Feature","geometry":{"type":"Point","coordinates":[128.2897345,38.520781]},"properties":{"natural":"peak","source":"OpenTopoMap"}}
{"type":"Feature","geometry":{"type":"Point","coordinates":[128.2771641,38.506432]},"properties":{"natural":"peak","source":"OpenTopoMap"}}
{"type":"Feature","geometry":{"type":"Point","coordinates":[128.2790631,38.4392853]},"properties":{"natural":"peak","source":"OpenTopoMap"}}
{"type":"Feature","geometry":{"type":"Point","coordinates":[128.2577725,38.4517085]},"properties":{"natural":"peak","source":"OpenTopoMap"}}
{"type":"Feature","geometry":{"type":"Point","coordinates":[70.7181787,41.2265384]},"properties":{"natural":"peak"}}
{"type":"Feature","geometry":{"type":"Point","coordinates":[70.7641625,41.1991779]},"properties":{"ele":"3281.6","natural":"peak"}}
{"type":"Feature","geometry":{"type":"Point","coordinates":[70.7511163,41.1947216]},"properties":{"natural":"peak"}}
{"type":"Feature","geometry":{"type":"Point","coordinates":[70.7401084,41.2041343]},"properties":{"natural":"peak"}}
{"type":"Feature","geometry":{"type":"Point","coordinates":[40.2702233,43.6333654]},"properties":{"ele":"2462","natural":"peak","wikidata":"Q4058486"}}
{"type":"Feature","geometry":{"type":"Point","coordinates":[34.8068298,30.51529]},"properties":{"ele":"752","name":"הר שמעי","name:en":"Mt. Sham'ay","name:he":"הר שמעי","natural":"peak","wikidata":"Q26768834"}}
{"type":"Feature","geometry":{"type":"Point","coordinates":[34.8042117,30.5102044]},"properties":{"ele":"773","name":"הר w","name:he":"הר לבני","natural":"peak","wikidata":"Q26768835"}}
{"type":"Feature","geometry":{"type":"Point","coordinates":[34.9452621,30.5777663]},"properties":{"ele":"530","natural":"peak"}}
{"type":"Feature","geometry":{"type":"Point","coordinates":[34.9442214,30.5726951]},"properties":{"ele":"542","natural":"peak"}}
{"type":"Feature","geometry":{"type":"Point","coordinates":[34.9615888,30.5705946]},"properties":{"ele":"552","natural":"peak"}}
{"type":"Feature","geometry":{"type":"Point","coordinates":[34.9956694,30.5770374]},"properties":{"ele":"483","natural":"peak"}}
{"type":"Feature","geometry":{"type":"Point","coordinates":[141.2383924,45.1939689]},"properties":{"ele":"1218.7","man_made":"survey_point","name":"長官山","natural":"peak","source":"GSImaps/std","survey_point:structure":"block"}}
{"type":"Feature","geometry":{"type":"Point","coordinates":[70.7372761,41.1741802]},"properties":{"ele":"3284.4","natural":"peak"}}
{"type":"Feature","geometry":{"type":"Point","coordinates":[70.7403874,41.1851623]},"properties":{"natural":"peak"}}
{"type":"Feature","geometry":{"type":"Point","coordinates":[48.0524709,39.74331]},"properties":{"name":"Qızıltəpə","natural":"peak"}}
{"type":"Feature","geometry":{"type":"Point","coordinates":[70.6950044,41.1458768]},"properties":{"ele":"2395.8","natural":"peak"}}
{"type":"Feature","geometry":{"type":"Point","coordinates":[70.6633544,41.1879721]},"properties":{"ele":"3049.0","man_made":"survey_point","natural":"peak"}}
{"type":"Feature","geometry":{"type":"Point","coordinates":[34.7182272,30.6523533]},"properties":{"ele":"775","natural":"peak"}}
{"type":"Feature","geometry":{"type":"Point","coordinates":[34.6232736,30.400557]},"properties":{"ele":"890","natural":"peak"}}
{"type":"Feature","geometry":{"type":"Point","coordinates":[34.5999491,30.393672]},"properties":{"ele":"825","natural":"peak"}}
{"type":"Feature","geometry":{"type":"Point","coordinates":[34.6068585,30.3972071]},"properties":{"ele":"860","natural":"peak"}}
{"type":"Feature","geometry":{"type":"Point","coordinates":[34.6109784,30.3988173]},"properties":{"ele":"880","natural":"peak"}}
{"type":"Feature","geometry":{"type":"Point","coordinates":[34.7138382,30.7037621]},"properties":{"ele":"685","natural":"peak"}}
{"type":"Feature","geometry":{"type":"Point","coordinates":[137.5139094,36.2295804]},"properties":{"ele":"1672","name":"福地山","name:en":"Mt. Fukuji","natural":"peak","tourism":"viewpoint"}}
{"type":"Feature","geometry":{"type":"Point","coordinates":[113.2776138,23.1525307]},"properties":{"name":"塘帽岗","natural":"peak"}}
{"type":"Feature","geometry":{"type":"Point","coordinates":[83.0620587,51.341544]},"properties":{"ele":"650","name":"Белый Камень","natural":"peak"}}
{"type":"Feature","geometry":{"type":"Point","coordinates":[83.0927753,51.3628315]},"properties":{"ele":"722.3","name":"гора Пещерная","natural":"peak"}}
{"type":"Feature","geometry":{"type":"Point","coordinates":[83.0268359,51.3451831]},"properties":{"ele":"581.3","name":"гора Сурьева","natural":"peak"}}
{"type":"Feature","geometry":{"type":"Point","coordinates":[35.0345997,31.0120348]},"properties":{"ele":"654","natural":"peak"}}
{"type":"Feature","geometry":{"type":"Point","coordinates":[70.9447932,41.1229763]},"properties":{"natural":"peak"}}
{"type":"Feature","geometry":{"type":"Point","coordinates":[70.926404,41.1328922]},"properties":{"ele":"2399.3","man_made":"survey_point","name":"Джамбулак","name:ru":"Джамбулак","natural":"peak"}}
{"type":"Feature","geometry":{"type":"Point","coordinates":[70.8869648,41.1537454]},"properties":{"natural":"peak"}}
{"type":"Feature","geometry":{"type":"Point","coordinates":[70.9013629,41.1418451]},"properties":{"natural":"peak"}}
{"type":"Feature","geometry":{"type":"Point","coordinates":[70.9041524,41.1371183]},"properties":{"natural":"peak"}}
{"type":"Feature","geometry":{"type":"Point","coordinates":[70.9150529,41.1420148]},"properties":{"natural":"peak"}}
{"type":"Feature","geometry":{"type":"Point","coordinates":[70.9218335,41.1377971]},"properties":{"natural":"peak"}}
{"type":"Feature","geometry":{"type":"Point","coordinates":[70.8286857,41.1696415]},"properties":{"natural":"peak"}}
{"type":"Feature","geometry":{"type":"Point","coordinates":[70.8470106,41.1637617]},"properties":{"natural":"peak"}}
{"type":"Feature","geometry":{"type":"Point","coordinates":[70.8411741,41.1651186]},"properties":{"ele":"3330.4","natural":"peak"}}
{"type":"Feature","geometry":{"type":"Point","coordinates":[70.8596492,41.157429]},"properties":{"ele":"3340.3","man_made":"survey_point","natural":"peak"}}
{"type":"Feature","geometry":{"type":"Point","coordinates":[83.0683565,51.2862791]},"properties":{"ele":"680","name":"Россыпная","natural":"peak"}}
{"type":"Feature","geometry":{"type":"Point","coordinates":[83.0142832,51.2847358]},"properties":{"ele":"918","name":"Листвяжная","natural":"peak"}}
{"type":"Feature","geometry":{"type":"Point","coordinates":[83.0321212,51.1376928]},"properties":{"ele":"715","name":"Чайная","natural":"peak"}}
{"type":"Feature","geometry":{"type":"Point","coordinates":[83.0151844,51.1574388]},"properties":{"ele":"764.5","name":"сопка Маяк","natural":"peak"}}
{"type":"Feature","geometry":{"type":"Point","coordinates":[82.8512907,51.1117671]},"properties":{"name":"Маяк","natural":"peak"}}
{"type":"Feature","geometry":{"type":"Point","coordinates":[82.9581616,51.1392268]},"properties":{"ele":"718.7","name":"Толстая Сопка","natural":"peak"}}
{"type":"Feature","geometry":{"type":"Point","coordinates":[82.9743445,51.1425479]},"properties":{"ele":"588","name":"Шляпная","natural":"peak"}}
{"type":"Feature","geometry":{"type":"Point","coordinates":[83.0799864,51.0661042]},"properties":{"ele":"1787.6","name":"Бекусова","natural":"peak"}}
{"type":"Feature","geometry":{"type":"Point","coordinates":[83.0644677,51.1876522]},"properties":{"name":"Семипещерная","natural":"peak"}}
{"type":"Feature","geometry":{"type":"Point","coordinates":[83.1035457,51.2108774]},"properties":{"ele":"929","name":"Громотуха","natural":"peak"}}
{"type":"Feature","geometry":{"type":"Point","coordinates":[83.0271452,51.2221799]},"properties":{"alt_name":"Дунькин Пуп","ele":"992.2","name":"Сердцево","natural":"peak"}}
{"type":"Feature","geometry":{"type":"Point","coordinates":[82.7299524,51.2326225]},"properties":{"ele":"669.8","name":"Палатцы","natural":"peak"}}
{"type":"Feature","geometry":{"type":"Point","coordinates":[82.6614283,51.3169811]},"properties":{"ele":"666.1","name":"Озёрная","natural":"peak"}}
{"type":"Feature","geometry":{"type":"Point","coordinates":[118.8972831,25.7621093]},"properties":{"ele":"983","name":"苦竹山","natural":"peak"}}
{"type":"Feature","geometry":{"type":"Point","coordinates":[118.9187408,25.7723124]},"properties":{"ele":"856","name":"大怕尾","natural":"peak"}}
{"type":"Feature","geometry":{"type":"Point","coordinates":[118.9369369,25.7584762]},"properties":{"ele":"667","name":"大湖山尾","natural":"peak"}}
{"type":"Feature","geometry":{"type":"Point","coordinates":[113.2831662,23.1721356]},"properties":{"ele":"127","name":"飞燕山","name:zh":"飞燕山","natural":"peak","note":"是否飞燕山不能确定，海拔为GPS测量"}}
{"type":"Feature","geometry":{"type":"Point","coordinates":[113.2862002,23.1732082]},"properties":{"ele":"144","name":"飞凤山","name:zh":"飞凤山","natural":"peak","note":"海拔为GPS测得"}}
{"type":"Feature","geometry":{"type":"Point","coordinates":[118.317815,39.744622]},"properties":{"name":"巍山","natural":"peak"}}
{"type":"Feature","geometry":{"type":"Point","coordinates":[118.1831672,39.6305585]},"properties":{"ele":"88","name":"凤凰山","name:en":"Fenghuang Mountain","name:ja":"鳳凰山","natural":"peak","old_name":"双凤山","old_name:en":"Shuangfeng Mountain"}}
{"type":"Feature","geometry":{"type":"Point","coordinates":[118.1948836,39.6415324]},"properties":{"ele":"122","name":"大城山","name:en":"Dacheng Mountain","name:ja":"大城山","natural":"peak","old_name":"唐山","old_name:en":"Tang Mountain"}}
{"type":"Feature","geometry":{"type":"Point","coordinates":[116.9547298,26.7615062]},"properties":{"name":"宝峰山","natural":"peak"}}
{"type":"Feature","geometry":{"type":"Point","coordinates":[116.9300223,26.7571208]},"properties":{"ele":"1858","name":"白石顶","name:en":"Baishi Ding","name:zh":"白石顶","name:zh-Hans":"白石顶","natural":"peak"}}
{"type":"Feature","geometry":{"type":"Point","coordinates":[118.7621457,27.1073244]},"properties":{"name":"大龙岗","natural":"peak"}}
{"type":"Feature","geometry":{"type":"Point","coordinates":[82.6065444,51.3563733]},"properties":{"ele":"720.9","name":"Очаровательная","natural":"peak"}}
{"type":"Feature","geometry":{"type":"Point","coordinates":[98.097557,13.9311893]},"properties":{"ele":"595","name":"လက်ခတ်တောင်","name:en":"Let Kat Taung","name:my":"လက်ခတ်တောင်","natural":"peak","tourism":"viewpoint"}}
{"type":"Feature","geometry":{"type":"Point","coordinates":[70.6360202,41.1512764]},"properties":{"natural":"peak"}}
{"type":"Feature","geometry":{"type":"Point","coordinates":[70.6549859,41.0985802]},"properties":{"natural":"peak"}}
{"type":"Feature","geometry":{"type":"Point","coordinates":[70.654664,41.1148938]},"properties":{"natural":"peak"}}
{"type":"Feature","geometry":{"type":"Point","coordinates":[104.4768271,10.5846746]},"properties":{"natural":"peak"}}
{"type":"Feature","geometry":{"type":"Point","coordinates":[104.5381687,10.6573262]},"properties":{"natural":"peak"}}
{"type":"Feature","geometry":{"type":"Point","coordinates":[82.800715,51.2803469]},"properties":{"ele":"448","name":"Алтай","natural":"peak"}}
{"type":"Feature","geometry":{"type":"Point","coordinates":[82.7507829,51.2300608]},"properties":{"ele":"612.1","name":"Висячая","natural":"peak"}}
{"type":"Feature","geometry":{"type":"Point","coordinates":[82.7726698,51.2402514]},"properties":{"ele":"578.5","name":"Полынская","natural":"peak"}}
{"type":"Feature","geometry":{"type":"Point","coordinates":[82.7715539,51.2498018]},"properties":{"ele":"608.7","name":"Рудничная","natural":"peak"}}
{"type":"Feature","geometry":{"type":"Point","coordinates":[82.7728412,51.2612168]},"properties":{"ele":"638.9","name":"Острая","natural":"peak"}}
{"type":"Feature","geometry":{"type":"Point","coordinates":[83.0149698,51.5802165]},"properties":{"ele":"372","name":"Ревун","natural":"peak"}}
{"type":"Feature","geometry":{"type":"Point","coordinates":[51.5030755,35.5923041]},"properties":{"ele":"1530","name":"بی‌بی شهربانو","natural":"peak"}}
{"type":"Feature","geometry":{"type":"Point","coordinates":[83.08357,51.6282475]},"properties":{"ele":"412","name":"Толстая","natural":"peak"}}
{"type":"Feature","geometry":{"type":"Point","coordinates":[83.226242,51.5136035]},"properties":{"ele":"573.3","name":"Теремок","natural":"peak"}}
{"type":"Feature","geometry":{"type":"Point","coordinates":[119.2700494,26.2601725]},"properties":{"name":"湖顶","natural":"peak"}}
{"type":"Feature","geometry":{"type":"Point","coordinates":[118.6902146,26.8834101]},"properties":{"ele":"1472","name":"大仙岩","natural":"peak"}}
{"type":"Feature","geometry":{"type":"Point","coordinates":[113.5843873,-8.4420738]},"properties":{"description":"view teluk love","name":"bukit domba","natural":"peak"}}
{"type":"Feature","geometry":{"type":"Point","coordinates":[96.320824,19.771035]},"properties":{"name":"လှေခွင်းတောင်","name:en":"Hlae Khwin Taung","name:my":"လှေခွင်းတောင်","natural":"peak"}}
{"type":"Feature","geometry":{"type":"Point","coordinates":[82.878971,51.5370466]},"properties":{"name":"Андронова","natural":"peak"}}
{"type":"Feature","geometry":{"type":"Point","coordinates":[82.846291,51.5445336]},"properties":{"name":"Саратовская","natural":"peak"}}
{"type":"Feature","geometry":{"type":"Point","coordinates":[82.7830123,51.5116271]},"properties":{"ele":"488.4","name":"Калмацкая","natural":"peak"}}
{"type":"Feature","geometry":{"type":"Point","coordinates":[82.7537012,51.5981475]},"properties":{"ele":"369","name":"Рудничная","natural":"peak"}}
{"type":"Feature","geometry":{"type":"Point","coordinates":[82.7852869,51.5609846]},"properties":{"ele":"480.2","name":"Пастухова","natural":"peak"}}
{"type":"Feature","geometry":{"type":"Point","coordinates":[82.8557966,51.4961336]},"properties":{"ele":"522","name":"Толстая","natural":"peak"}}
{"type":"Feature","geometry":{"type":"Point","coordinates":[82.8921889,51.5278097]},"properties":{"ele":"448.5","name":"Верблюжья","natural":"peak"}}
{"type":"Feature","geometry":{"type":"Point","coordinates":[84.8865938,50.8136837]},"properties":{"natural":"peak"}}
{"type":"Feature","geometry":{"type":"Point","coordinates":[84.8978591,50.8164427]},"properties":{"natural":"peak"}}
{"type":"Feature","geometry":{"type":"Point","coordinates":[82.7045631,51.5569024]},"properties":{"ele":"434","name":"Араповская","natural":"peak"}}
{"type":"Feature","geometry":{"type":"Point","coordinates":[82.6773654,51.5545277]},"properties":{"ele":"500.3","name":"Черёмушка","natural":"peak"}}
{"type":"Feature","geometry":{"type":"Point","coordinates":[70.6489248,41.0706624]},"properties":{"natural":"peak"}}
{"type":"Feature","geometry":{"type":"Point","coordinates":[82.6019096,51.6093557]},"properties":{"ele":"477","name":"Мурзинка","natural":"peak"}}
{"type":"Feature","geometry":{"type":"Point","coordinates":[101.4473109,47.4886015]},"properties":{"name":"Булган уул","natural":"peak"}}
{"type":"Feature","geometry":{"type":"Point","coordinates":[101.4477646,47.4655409]},"properties":{"name":"Мааньт уул","natural":"peak"}}
{"type":"Feature","geometry":{"type":"Point","coordinates":[82.6704303,51.6079277]},"properties":{"ele":"372.9","name":"Кирилловская","natural":"peak"}}
{"type":"Feature","geometry":{"type":"Point","coordinates":[84.9416971,50.7857393]},"properties":{"natural":"peak"}}
{"type":"Feature","geometry":{"type":"Point","coordinates":[84.9049938,50.7774565]},"properties":{"natural":"peak"}}
{"type":"Feature","geometry":{"type":"Point","coordinates":[84.8721421,50.7726191]},"properties":{"natural":"peak"}}
{"type":"Feature","geometry":{"type":"Point","coordinates":[84.9171388,50.7851492]},"properties":{"natural":"peak"}}
{"type":"Feature","geometry":{"type":"Point","coordinates":[84.9098754,50.7822798]},"properties":{"natural":"peak"}}
{"type":"Feature","geometry":{"type":"Point","coordinates":[84.9024296,50.7865397]},"properties":{"natural":"peak"}}
{"type":"Feature","geometry":{"type":"Point","coordinates":[84.8998761,50.7886966]},"properties":{"natural":"peak"}}
{"type":"Feature","geometry":{"type":"Point","coordinates":[84.8864651,50.7898564]},"properties":{"natural":"peak"}}
{"type":"Feature","geometry":{"type":"Point","coordinates":[84.9407101,50.7934984]},"properties":{"natural":"peak"}}
{"type":"Feature","geometry":{"type":"Point","coordinates":[84.9277067,50.7883439]},"properties":{"natural":"peak"}}
{"type":"Feature","geometry":{"type":"Point","coordinates":[84.8879349,50.8035481]},"properties":{"natural":"peak"}}
{"type":"Feature","geometry":{"type":"Point","coordinates":[84.9301207,50.8047007]},"properties":{"natural":"peak"}}
{"type":"Feature","geometry":{"type":"Point","coordinates":[84.9182868,50.8049584]},"properties":{"natural":"peak"}}
{"type":"Feature","geometry":{"type":"Point","coordinates":[84.9160981,50.8029853]},"properties":{"natural":"peak"}}
{"type":"Feature","geometry":{"type":"Point","coordinates":[84.9042964,50.801541]},"properties":{"natural":"peak"}}
{"type":"Feature","geometry":{"type":"Point","coordinates":[84.9055195,50.8095552]},"properties":{"natural":"peak"}}
{"type":"Feature","geometry":{"type":"Point","coordinates":[84.8990929,50.8076365]},"properties":{"natural":"peak"}}
{"type":"Feature","geometry":{"type":"Point","coordinates":[84.8867977,50.8060975]},"properties":{"natural":"peak"}}
{"type":"Feature","geometry":{"type":"Point","coordinates":[83.1215367,51.444611]},"properties":{"name":"скала Будаковская","natural":"peak"}}
{"type":"Feature","geometry":{"type":"Point","coordinates":[83.1135892,51.4766254]},"properties":{"ele":"583","name":"Чагырка","natural":"peak"}}
{"type":"Feature","geometry":{"type":"Point","coordinates":[83.230276,51.466788]},"properties":{"ele":"666.4","name":"Пустынка","natural":"peak"}}
{"type":"Feature","geometry":{"type":"Point","coordinates":[83.1682634,51.4256245]},"properties":{"ele":"652.5","name":"Поскотная","natural":"peak"}}
{"type":"Feature","geometry":{"type":"Point","coordinates":[84.9042749,50.7691723]},"properties":{"natural":"peak"}}
{"type":"Feature","geometry":{"type":"Point","coordinates":[83.3239173,51.4734445]},"properties":{"ele":"637.4","name":"Синий Утёс","natural":"peak"}}
{"type":"Feature","geometry":{"type":"Point","coordinates":[84.9245202,50.754337]},"properties":{"natural":"peak"}}
{"type":"Feature","geometry":{"type":"Point","coordinates":[84.8675394,50.7482957]},"properties":{"natural":"peak"}}
{"type":"Feature","geometry":{"type":"Point","coordinates":[84.8767447,50.7443175]},"properties":{"natural":"peak"}}
{"type":"Feature","geometry":{"type":"Point","coordinates":[84.896357,50.7555316]},"properties":{"natural":"peak"}}
{"type":"Feature","geometry":{"type":"Point","coordinates":[84.8824525,50.7488931]},"properties":{"natural":"peak"}}
{"type":"Feature","geometry":{"type":"Point","coordinates":[84.9021935,50.7532442]},"properties":{"natural":"peak"}}
{"type":"Feature","geometry":{"type":"Point","coordinates":[82.932626,51.4619688]},"properties":{"name":"Егоркин камень","natural":"peak"}}
{"type":"Feature","geometry":{"type":"Point","coordinates":[82.9463911,51.4776144]},"properties":{"ele":"452","name":"Верблюд","natural":"peak"}}
{"type":"Feature","geometry":{"type":"Point","coordinates":[82.9218434,51.4747543]},"properties":{"ele":"556","name":"Оструха","natural":"peak"}}
{"type":"Feature","geometry":{"type":"Point","coordinates":[82.716043,51.4310428]},"properties":{"ele":"626","name":"Теремки","natural":"peak"}}
{"type":"Feature","geometry":{"type":"Point","coordinates":[82.8620623,51.406595]},"properties":{"ele":"555.5","name":"Зайчиха","natural":"peak"}}
{"type":"Feature","geometry":{"type":"Point","coordinates":[83.1236529,51.2520313]},"properties":{"ele":"927","name":"Небо","natural":"peak"}}
{"type":"Feature","geometry":{"type":"Point","coordinates":[83.5480213,51.2279177]},"properties":{"alt_name":"Болокольная","ele":"1227.7","name":"Колокольня","natural":"peak"}}
{"type":"Feature","geometry":{"type":"Point","coordinates":[83.6322211,51.2514941]},"properties":{"ele":"1043","name":"Острая","natural":"peak"}}
{"type":"Feature","geometry":{"type":"Point","coordinates":[83.6325644,51.2312903]},"properties":{"ele":"1341.3","name":"Три Шпиля","natural":"peak"}}
{"type":"Feature","geometry":{"type":"Point","coordinates":[83.6040686,51.2332251]},"properties":{"ele":"1390.4","name":"Иванова","natural":"peak"}}
{"type":"Feature","geometry":{"type":"Point","coordinates":[83.5198688,51.2671781]},"properties":{"ele":"981.5","name":"Бучильная","natural":"peak"}}
{"type":"Feature","geometry":{"type":"Point","coordinates":[83.6000346,51.314842]},"properties":{"ele":"1004","name":"Чала","natural":"peak"}}
{"type":"Feature","geometry":{"type":"Point","coordinates":[83.6319636,51.2850981]},"properties":{"ele":"910","name":"Бабья","natural":"peak"}}
{"type":"Feature","geometry":{"type":"Point","coordinates":[83.6363409,51.2614853]},"properties":{"ele":"951","name":"Рудничная","natural":"peak"}}
{"type":"Feature","geometry":{"type":"Point","coordinates":[83.1529426,51.4389084]},"properties":{"name":"Рудничная","natural":"peak"}}
{"type":"Feature","geometry":{"type":"Point","coordinates":[82.894206,51.738364]},"properties":{"ele":"403.1","name":"Кукуя","natural":"peak"}}
{"type":"Feature","geometry":{"type":"Point","coordinates":[82.8827691,51.6710648]},"properties":{"ele":"388.1","name":"Мохнатая","natural":"peak"}}
{"type":"Feature","geometry":{"type":"Point","coordinates":[82.8751895,51.6797213]},"properties":{"ele":"346.2","name":"Вострушка","natural":"peak"}}
{"type":"Feature","geometry":{"type":"Point","coordinates":[84.8921192,50.7298071]},"properties":{"natural":"peak"}}
{"type":"Feature","geometry":{"type":"Point","coordinates":[84.9000692,50.7230087]},"properties":{"natural":"peak"}}
{"type":"Feature","geometry":{"type":"Point","coordinates":[84.913888,50.7245301]},"properties":{"natural":"peak"}}
{"type":"Feature","geometry":{"type":"Point","coordinates":[84.9082339,50.7287001]},"properties":{"natural":"peak"}}
{"type":"Feature","geometry":{"type":"Point","coordinates":[84.953134,50.7208352]},"properties":{"natural":"peak"}}
{"type":"Feature","geometry":{"type":"Point","coordinates":[84.9481344,50.7259021]},"properties":{"natural":"peak"}}
{"type":"Feature","geometry":{"type":"Point","coordinates":[84.9478984,50.7453901]},"properties":{"natural":"peak"}}
{"type":"Feature","geometry":{"type":"Point","coordinates":[84.9368047,50.740176]},"properties":{"natural":"peak"}}
{"type":"Feature","geometry":{"type":"Point","coordinates":[84.9754226,50.6629458]},"properties":{"natural":"peak"}}
{"type":"Feature","geometry":{"type":"Point","coordinates":[84.9413902,50.7109373]},"properties":{"natural":"peak"}}
{"type":"Feature","geometry":{"type":"Point","coordinates":[84.9523616,50.6630913]},"properties":{"natural":"peak"}}
{"type":"Feature","geometry":{"type":"Point","coordinates":[84.9603652,50.6545759]},"properties":{"natural":"peak"}}
{"type":"Feature","geometry":{"type":"Point","coordinates":[84.9149608,50.6960499]},"properties":{"natural":"peak"}}
{"type":"Feature","geometry":{"type":"Point","coordinates":[84.9393367,50.6747328]},"properties":{"natural":"peak"}}
{"type":"Feature","geometry":{"type":"Point","coordinates":[85.0079369,50.7045577]},"properties":{"natural":"peak"}}
{"type":"Feature","geometry":{"type":"Point","coordinates":[85.0048685,50.6832037]},"properties":{"natural":"peak"}}
{"type":"Feature","geometry":{"type":"Point","coordinates":[85.0023794,50.6779826]},"properties":{"natural":"peak"}}
{"type":"Feature","geometry":{"type":"Point","coordinates":[84.9874019,50.6451065]},"properties":{"natural":"peak"}}
{"type":"Feature","geometry":{"type":"Point","coordinates":[84.9979162,50.6392689]},"properties":{"natural":"peak"}}
{"type":"Feature","geometry":{"type":"Point","coordinates":[84.9986136,50.6481543]},"properties":{"natural":"peak"}}
{"type":"Feature","geometry":{"type":"Point","coordinates":[84.9890864,50.6554669]},"properties":{"natural":"peak"}}
{"type":"Feature","geometry":{"type":"Point","coordinates":[84.983907,50.7251109]},"properties":{"natural":"peak"}}
{"type":"Feature","geometry":{"type":"Point","coordinates":[105.7728588,25.0320085]},"properties":{"natural":"peak"}}
{"type":"Feature","geometry":{"type":"Point","coordinates":[121.2736832,24.6644974]},"properties":{"ele":"1589","name":"魯壁山","name:en":"Lubishan","name:zh":"魯壁山","name:zh-Bopo":"ㄌㄨˇㄅㄧˋㄕㄢ","name:zh-Hans":"鲁壁山","name:zh-Hant":"魯壁山","name:zh-Latn-pinyin":"lǔbìshān","natural":"peak"}}
{"type":"Feature","geometry":{"type":"Point","coordinates":[60.4043192,56.6769245]},"properties":{"ele":"386","name":"Большой Бугор","natural":"peak"}}
{"type":"Feature","geometry":{"type":"Point","coordinates":[83.298254,51.6097555]},"properties":{"ele":"684.7","name":"Круглая","natural":"peak"}}
{"type":"Feature","geometry":{"type":"Point","coordinates":[83.1526851,51.6890264]},"properties":{"ele":"466","name":"Межа","natural":"peak"}}
{"type":"Feature","geometry":{"type":"Point","coordinates":[83.2799506,51.71319]},"properties":{"ele":"429","name":"Толстая Сопка","natural":"peak"}}
{"type":"Feature","geometry":{"type":"Point","coordinates":[83.0729162,51.7188867]},"properties":{"ele":"483.9","name":"Болотная","natural":"peak"}}
{"type":"Feature","geometry":{"type":"Point","coordinates":[100.2596988,5.3417274]},"properties":{"name":"Tang Hang Hill","natural":"peak","tourism":"attraction"}}
{"type":"Feature","geometry":{"type":"Point","coordinates":[88.8970757,27.3438668]},"properties":{"name":"白登贡扎","name:en":"Badengonza","name:zh-Latn-pinyin":"Bái dēng gòng zhā","natural":"peak"}}
{"type":"Feature","geometry":{"type":"Point","coordinates":[88.881256,27.360667]},"properties":{"name":"察曲龙郭","name:en":"Chaqu Longguo","name:zh-Latn-pinyin":"Chá qū lóng guō","natural":"peak"}}
{"type":"Feature","geometry":{"type":"Point","coordinates":[88.9056641,27.3290751]},"properties":{"name":"拉巴","name:en":"Laba","name:zh-Latn-pinyin":"Lābā","natural":"peak"}}
{"type":"Feature","geometry":{"type":"Point","coordinates":[88.9239514,27.3121367]},"properties":{"ele":"4350","name":"恩穷拉山","name:en":"Nqiongla","name:zh-Latn-pinyin":"Ēn qióng lā shān","natural":"peak","wikipedia":"zh:恩穷拉山"}}
{"type":"Feature","geometry":{"type":"Point","coordinates":[88.973701,27.2929455]},"properties":{"name":"莫热岗","name:en":"Mauregang","name:zh-Latn-pinyin":"Mò rè gǎng","natural":"peak"}}
{"type":"Feature","geometry":{"type":"Point","coordinates":[88.9905023,27.3002106]},"properties":{"name":"果拉","name:en":"Gola","name:zh-Latn-pinyin":"Guǒ lā","natural":"peak"}}
{"type":"Feature","geometry":{"type":"Point","coordinates":[88.9604909,27.2471593]},"properties":{"ele":"3932","name":"仁岗贡","name:en":"Renganggong","name:zh-Latn-pinyin":"Rén gǎng gòng","natural":"peak"}}
{"type":"Feature","geometry":{"type":"Point","coordinates":[88.9447102,27.3307828]},"properties":{"ele":"4429","name":"夏巨拉","name:en":"Shajula","name:zh-Latn-pinyin":"Xià jù lā","natural":"peak"}}
{"type":"Feature","geometry":{"type":"Point","coordinates":[88.8985884,27.3753211]},"properties":{"alt_name:en":"Gyendoring","ele":"4728","name":"节节日","name:en":"Jandorhi","name:zh-Latn-pinyin":"Jié jiérì","natural":"peak","note":"The elevation is 15512 ft. according to the Suvey of India map of Sikkim, 1923"}}
{"type":"Feature","geometry":{"type":"Point","coordinates":[88.8365221,27.4130525]},"properties":{"name":"玉仑","name:zh-Latn-pinyin":"Yù lún","natural":"peak"}}
{"type":"Feature","geometry":{"type":"Point","coordinates":[35.0926226,30.4629025]},"properties":{"ele":"255","natural":"peak"}}
{"type":"Feature","geometry":{"type":"Point","coordinates":[88.9851165,27.4351462]},"properties":{"ele":"3590","name":"尖姆奇","name:en":"Janmuchi","name:zh-Latn-pinyin":"Jiān mǔ qí","natural":"peak","wikipedia":"zh:尖姆奇"}}
{"type":"Feature","geometry":{"type":"Point","coordinates":[88.9671779,27.459982]},"properties":{"ele":"4362","name":"曲普章","name:en":"Qu Puzhang","name:zh-Latn-pinyin":"Qū pǔ zhāng","natural":"peak","source":"《西藏自治区地图集》2012年8月"}}
{"type":"Feature","geometry":{"type":"Point","coordinates":[88.955808,27.4360889]},"properties":{"name":"司杠","name:en":"Sigang","name:zh-Latn-pinyin":"Sī gāng","natural":"peak"}}
{"type":"Feature","geometry":{"type":"Point","coordinates":[89.0417862,27.4778545]},"properties":{"ele":"4360","name":"邦戛拉山","name:en":"Bangalla","name:zh":"邦戛拉山","name:zh-Latn-pinyin":"Bāng jiá lā shān","natural":"peak","note":"Google translate from Mandarin","wikipedia":"zh:邦戛拉山"}}
{"type":"Feature","geometry":{"type":"Point","coordinates":[109.1564759,18.3014867]},"properties":{"name":"金顶","name:en":"Golden Summit","name:ru":"Золотая верхушка","natural":"peak"}}
{"type":"Feature","geometry":{"type":"Point","coordinates":[138.5834851,35.6734942]},"properties":{"ele":"439","name":"夢見山","natural":"peak"}}
{"type":"Feature","geometry":{"type":"Point","coordinates":[118.1422769,39.5852117]},"properties":{"ele":"52","name":"凤凰台","natural":"peak"}}
{"type":"Feature","geometry":{"type":"Point","coordinates":[118.1564305,39.5993747]},"properties":{"name":"龙山","natural":"peak"}}
{"type":"Feature","geometry":{"type":"Point","coordinates":[118.167904,39.6086788]},"properties":{"name":"龟石山","natural":"peak"}}
{"type":"Feature","geometry":{"type":"Point","coordinates":[36.0898687,34.2765541]},"properties":{"ele":"2932","name":"Machraa Tourmous","name:en":"Machraa Tourmous","natural":"peak"}}
{"type":"Feature","geometry":{"type":"Point","coordinates":[36.0745108,34.2904309]},"properties":{"ele":"2845","name":"Dahr Qloussia","name:en":"Dahr Qloussia","natural":"peak"}}
{"type":"Feature","geometry":{"type":"Point","coordinates":[36.159773,34.3314698]},"properties":{"ele":"2839","name":"Harf Ain el Baida","name:en":"Harf Ain el Baida","natural":"peak"}}
{"type":"Feature","geometry":{"type":"Point","coordinates":[125.0380691,41.1164327]},"properties":{"ele":"1336.1","name":"花脖山","name:zh-Hans":"花脖山","natural":"peak"}}
{"type":"Feature","geometry":{"type":"Point","coordinates":[136.5524034,36.4233949]},"properties":{"ele":"137.7","name":"虚空蔵山","natural":"peak"}}
{"type":"Feature","geometry":{"type":"Point","coordinates":[137.8812108,35.0563801]},"properties":{"ele":"1260","name":"天神山","natural":"peak"}}
{"type":"Feature","geometry":{"type":"Point","coordinates":[137.94176,35.1114392]},"properties":{"ele":"1334","name":"大島山","natural":"peak"}}
{"type":"Feature","geometry":{"type":"Point","coordinates":[113.361335,23.2338501]},"properties":{"ele":"320","name":"乌仔山","natural":"peak"}}
{"type":"Feature","geometry":{"type":"Point","coordinates":[86.1837921,27.2594679]},"properties":{"natural":"peak"}}
{"type":"Feature","geometry":{"type":"Point","coordinates":[86.2149209,27.2769222]},"properties":{"natural":"peak"}}
{"type":"Feature","geometry":{"type":"Point","coordinates":[102.4362035,23.0809574]},"properties":{"natural":"peak","source":"cyclemap"}}
{"type":"Feature","geometry":{"type":"Point","coordinates":[102.3977198,23.086328]},"properties":{"natural":"peak","source":"cyclemap"}}
{"type":"Feature","geometry":{"type":"Point","coordinates":[102.5102845,23.1060074]},"properties":{"natural":"peak","source":"cyclemap"}}
{"type":"Feature","geometry":{"type":"Point","coordinates":[102.4356078,23.1264367]},"properties":{"natural":"peak","source":"cyclemap"}}
{"type":"Feature","geometry":{"type":"Point","coordinates":[102.4414458,23.1722291]},"properties":{"natural":"peak","source":"cyclemap"}}
{"type":"Feature","geometry":{"type":"Point","coordinates":[40.1006176,44.4573182]},"properties":{"ele":"486","name":"Жёлтая","natural":"peak"}}
{"type":"Feature","geometry":{"type":"Point","coordinates":[40.0876033,44.4730829]},"properties":{"ele":"482","name":"Казачья","natural":"peak"}}
{"type":"Feature","geometry":{"type":"Point","coordinates":[46.9753504,42.5293656]},"properties":{"name":"Кикуни","natural":"peak"}}
{"type":"Feature","geometry":{"type":"Point","coordinates":[86.2781185,27.1706488]},"properties":{"natural":"peak"}}
{"type":"Feature","geometry":{"type":"Point","coordinates":[82.4679246,51.793054]},"properties":{"ele":"372.7","natural":"peak"}}
{"type":"Feature","geometry":{"type":"Point","coordinates":[82.7564524,51.8778363]},"properties":{"ele":"313.1","name":"сопка Лешакова","natural":"peak"}}
{"type":"Feature","geometry":{"type":"Point","coordinates":[82.9517786,51.9260221]},"properties":{"ele":"409","natural":"peak"}}
{"type":"Feature","geometry":{"type":"Point","coordinates":[102.3459322,23.2618124]},"properties":{"name":"落恐尖山","name:en":"Luokongjian Mountain","natural":"peak","source:name":"GNS"}}
{"type":"Feature","geometry":{"type":"Point","coordinates":[70.6691909,41.1486236]},"properties":{"natural":"peak"}}
{"type":"Feature","geometry":{"type":"Point","coordinates":[70.665307,41.157736]},"properties":{"natural":"peak"}}
{"type":"Feature","geometry":{"type":"Point","coordinates":[70.6719804,41.1534304]},"properties":{"natural":"peak"}}
{"type":"Feature","geometry":{"type":"Point","coordinates":[80.8442927,7.0430787]},"properties":{"ele":"2069","name":"Mahakudugala","natural":"peak"}}
{"type":"Feature","geometry":{"type":"Point","coordinates":[80.7828425,6.812823]},"properties":{"alt_name":"Kudahagala Kanda","ele":"2320","name":"Agrabopath","natural":"peak"}}
{"type":"Feature","geometry":{"type":"Point","coordinates":[80.8090256,6.7666928]},"properties":{"ele":"2034","name":"Gommolli Kanda","natural":"peak","wikidata":"Q5581213","wikipedia":"en:Gonmollikanda"}}
{"type":"Feature","geometry":{"type":"Point","coordinates":[81.1139,6.9322823]},"properties":{"ele":"2036","name":"Namunukula","natural":"peak"}}
{"type":"Feature","geometry":{"type":"Point","coordinates":[80.6188154,6.8945165]},"properties":{"ele":"1753","name":"Kotagala","natural":"peak","wikidata":"Q27457475"}}
{"type":"Feature","geometry":{"type":"Point","coordinates":[80.743798,6.7220774]},"properties":{"alt_name":"Hawagala","ele":"1400","name":"Hagala","name:si":"හාගල","natural":"peak"}}
{"type":"Feature","geometry":{"type":"Point","coordinates":[80.649706,6.3852835]},"properties":{"ele":"1358","name":"Gongala","natural":"peak","wikidata":"Q27457450","wikimedia_commons":"Category:Gongala","wikipedia":"en:Gongala"}}
{"type":"Feature","geometry":{"type":"Point","coordinates":[130.1385373,33.3347519]},"properties":{"ele":"994","name":"雨山","natural":"peak"}}
{"type":"Feature","geometry":{"type":"Point","coordinates":[81.6212169,7.4890231]},"properties":{"name":"Rajagala","natural":"peak"}}
{"type":"Feature","geometry":{"type":"Point","coordinates":[121.1260696,15.5102273]},"properties":{"name":"Mount Mapait","natural":"peak","wikidata":"Q30470308"}}
{"type":"Feature","geometry":{"type":"Point","coordinates":[121.627198,25.0945052]},"properties":{"ele":"156.68","name":"老鷲尖南峰","name:en":"Laojiujiannanfeng","name:zh":"老鷲尖南峰","name:zh-Bopo":"ㄌㄠˇㄐㄧㄡˋㄐㄧㄢㄋㄢˊㄈㄥ","name:zh-Hans":"老鹫尖南峰","name:zh-Hant":"老鷲尖南峰","name:zh-Latn-pinyin":"lǎojiùjiānnánfēng","natural":"peak","source":"NLSC"}}
{"type":"Feature","geometry":{"type":"Point","coordinates":[121.6365125,25.0773716]},"properties":{"name":"學頭坡山","name:en":"Xuetouposhan","name:zh":"學頭坡山","name:zh-Bopo":"ㄒㄩㄝˊㄊㄡˊㄆㄛㄕㄢ","name:zh-Hans":"学头坡山","name:zh-Hant":"學頭坡山","name:zh-Latn-pinyin":"xuétóupōshān","natural":"peak","wikidata":"Q31392422"}}
{"type":"Feature","geometry":{"type":"Point","coordinates":[83.3724116,51.7922668]},"properties":{"ele":"480.2","natural":"peak"}}
{"type":"Feature","geometry":{"type":"Point","coordinates":[83.354988,51.8010254]},"properties":{"ele":"448.1","natural":"peak"}}
{"type":"Feature","geometry":{"type":"Point","coordinates":[83.3927535,51.7882851]},"properties":{"ele":"530.2","natural":"peak"}}
{"type":"Feature","geometry":{"type":"Point","coordinates":[113.3776058,23.2374891]},"properties":{"ele":"388","name":"杓麻山","natural":"peak"}}
{"type":"Feature","geometry":{"type":"Point","coordinates":[113.3500767,23.2299507]},"properties":{"name":"鬼王山","natural":"peak"}}
{"type":"Feature","geometry":{"type":"Point","coordinates":[113.3454258,23.2260722]},"properties":{"name":"洞旗峰","natural":"peak"}}
{"type":"Feature","geometry":{"type":"Point","coordinates":[43.2079545,42.408116]},"properties":{"ele":"1996","name:en":"Mt. Satsalike","name:ka":"მთის საცალიკე","name:ru":"Гора. Сацалике","natural":"peak"}}
{"type":"Feature","geometry":{"type":"Point","coordinates":[80.4104483,7.8102812]},"properties":{"ele":"254","name":"Kalugala","natural":"peak"}}
{"type":"Feature","geometry":{"type":"Point","coordinates":[44.2596332,15.3464417]},"properties":{"GNS:dsg_code":"MT","GNS:dsg_name":"mountain","GNS:id":"-3190443","alt_name":"Jebel Nukum; Jabal Nuqm","int_name":"Jabal Nuqum","name":"جبل نقم","name:ar":"جبل نقم","name:en":"Jabal Nuqum","natural":"peak","source:name":"GNS"}}
{"type":"Feature","geometry":{"type":"Point","coordinates":[83.5804003,51.6950913]},"properties":{"ele":"805.7","name":"Оструха","natural":"peak"}}
{"type":"Feature","geometry":{"type":"Point","coordinates":[83.5024881,51.7013425]},"properties":{"ele":"832","name":"Чайная","natural":"peak"}}
{"type":"Feature","geometry":{"type":"Point","coordinates":[83.5410261,51.7083903]},"properties":{"ele":"537","name":"Змеиная","natural":"peak"}}
{"type":"Feature","geometry":{"type":"Point","coordinates":[59.8512049,56.8956605]},"properties":{"name":"Высоковольтная","natural":"peak"}}
{"type":"Feature","geometry":{"type":"Point","coordinates":[59.8355812,56.8957118]},"properties":{"name":"Осиногорка","natural":"peak"}}
{"type":"Feature","geometry":{"type":"Point","coordinates":[113.3679175,33.7815331]},"properties":{"ele":"432","name":"金牛山","natural":"peak"}}
{"type":"Feature","geometry":{"type":"Point","coordinates":[113.3860246,33.7771725]},"properties":{"ele":"387","name":"老寨脊","natural":"peak"}}
{"type":"Feature","geometry":{"type":"Point","coordinates":[113.2863538,23.1967868]},"properties":{"ele":"155.2","name":"梁山","natural":"peak"}}
{"type":"Feature","geometry":{"type":"Point","coordinates":[113.2842206,23.1975353]},"properties":{"name:en":"Qiantougang","name:zh":"钱头岗","natural":"peak"}}
{"type":"Feature","geometry":{"type":"Point","coordinates":[113.2837014,23.184137]},"properties":{"ele":"152","name":"鸡公山","name:zh":"鸡公山","natural":"peak"}}
{"type":"Feature","geometry":{"type":"Point","coordinates":[113.2768675,23.1821205]},"properties":{"ele":"137.4","name":"大马岭","natural":"peak"}}
{"type":"Feature","geometry":{"type":"Point","coordinates":[113.2773418,23.1722803]},"properties":{"ele":"149","name":"将军岭","natural":"peak","note":"海拔为GPS测量"}}
{"type":"Feature","geometry":{"type":"Point","coordinates":[113.2803382,23.1788568]},"properties":{"ele":"136.3","name":"灯芯窝","name:zh":"灯芯窝","natural":"peak"}}
{"type":"Feature","geometry":{"type":"Point","coordinates":[113.2851502,23.1790021]},"properties":{"ele":"171.5","name":"大龙岭","natural":"peak"}}
{"type":"Feature","geometry":{"type":"Point","coordinates":[102.3910692,23.1912235]},"properties":{"natural":"peak","source":"cyclemap"}}
{"type":"Feature","geometry":{"type":"Point","coordinates":[83.470602,51.67185]},"properties":{"ele":"725.6","natural":"peak"}}
{"type":"Feature","geometry":{"type":"Point","coordinates":[83.546133,51.6765471]},"properties":{"ele":"971.1","name":"Грабен","natural":"peak"}}
{"type":"Feature","geometry":{"type":"Point","coordinates":[83.5327863,51.7594733]},"properties":{"ele":"575.9","name":"Казачья","natural":"peak"}}
{"type":"Feature","geometry":{"type":"Point","coordinates":[113.2652864,23.1481913]},"properties":{"name":"花果山","natural":"peak"}}
{"type":"Feature","geometry":{"type":"Point","coordinates":[117.8901663,31.7333473]},"properties":{"name":"小独山","natural":"peak"}}
{"type":"Feature","geometry":{"type":"Point","coordinates":[82.6526141,51.2791792]},"properties":{"ele":"610","name":"сопка Двуглавая","natural":"peak"}}
{"type":"Feature","geometry":{"type":"Point","coordinates":[82.5546384,51.2655938]},"properties":{"name":"Динамитная","natural":"peak"}}
{"type":"Feature","geometry":{"type":"Point","coordinates":[82.6193976,51.1785359]},"properties":{"ele":"1014.5","name":"Чеснокова","natural":"peak"}}
{"type":"Feature","geometry":{"type":"Point","coordinates":[82.6634073,51.2134703]},"properties":{"ele":"985.3","name":"Толстая","natural":"peak"}}
{"type":"Feature","geometry":{"type":"Point","coordinates":[82.5544559,51.2083488]},"properties":{"ele":"850.4","name":"Осиновая","natural":"peak"}}
{"type":"Feature","geometry":{"type":"Point","coordinates":[82.5867605,51.2225021]},"properties":{"ele":"1091.1","name":"Россыпуха","natural":"peak"}}
{"type":"Feature","geometry":{"type":"Point","coordinates":[82.5823831,51.2354285]},"properties":{"ele":"973.3","name":"Маралья","natural":"peak"}}
{"type":"Feature","geometry":{"type":"Point","coordinates":[82.6450179,51.3548592]},"properties":{"ele":"725.1","name":"Сторожевая","natural":"peak"}}
{"type":"Feature","geometry":{"type":"Point","coordinates":[82.4363958,51.3502961]},"properties":{"ele":"478","name":"Воскресенская","natural":"peak"}}
{"type":"Feature","geometry":{"type":"Point","coordinates":[82.4138116,51.3995002]},"properties":{"ele":"432.1","name":"Вострушка","natural":"peak"}}
{"type":"Feature","geometry":{"type":"Point","coordinates":[82.3929977,51.4638204]},"properties":{"ele":"498.1","natural":"peak"}}
{"type":"Feature","geometry":{"type":"Point","coordinates":[82.413082,51.4539802]},"properties":{"ele":"556.9","name":"Сопка Острая","natural":"peak"}}
{"type":"Feature","geometry":{"type":"Point","coordinates":[82.4497317,51.4395906]},"properties":{"ele":"573.2","name":"Боровушка","natural":"peak"}}
{"type":"Feature","geometry":{"type":"Point","coordinates":[82.641692,51.412484]},"properties":{"ele":"671.3","name":"Мохнатая","natural":"peak"}}
{"type":"Feature","geometry":{"type":"Point","coordinates":[82.534618,51.4177836]},"properties":{"name":"Плитная","natural":"peak"}}
{"type":"Feature","geometry":{"type":"Point","coordinates":[82.5582379,52.1155518]},"properties":{"name":"гора Поклонная","natural":"peak"}}
{"type":"Feature","geometry":{"type":"Point","coordinates":[82.3902726,51.3631262]},"properties":{"name":"хребет Горный","natural":"peak"}}
{"type":"Feature","geometry":{"type":"Point","coordinates":[113.2613255,23.1457545]},"properties":{"name":"上山冈","natural":"peak"}}
{"type":"Feature","geometry":{"type":"Point","coordinates":[70.7419538,41.0072367]},"properties":{"ele":"1316.3","man_made":"survey_point","natural":"peak"}}
{"type":"Feature","geometry":{"type":"Point","coordinates":[70.7556438,41.0081435]},"properties":{"ele":"1564.6","man_made":"survey_point","natural":"peak"}}
{"type":"Feature","geometry":{"type":"Point","coordinates":[70.7889247,41.0272315]},"properties":{"ele":"2232.6","man_made":"survey_point","natural":"peak"}}
{"type":"Feature","geometry":{"type":"Point","coordinates":[70.7878089,41.0299024]},"properties":{"natural":"peak"}}
{"type":"Feature","geometry":{"type":"Point","coordinates":[70.7803631,41.0231197]},"properties":{"natural":"peak"}}
{"type":"Feature","geometry":{"type":"Point","coordinates":[70.7737326,41.0121753]},"properties":{"ele":"1810.4","man_made":"survey_point","natural":"peak"}}
{"type":"Feature","geometry":{"type":"Point","coordinates":[70.7643556,41.0022655]},"properties":{"ele":"1456.4","natural":"peak"}}
{"type":"Feature","geometry":{"type":"Point","coordinates":[35.2312107,31.8226559]},"properties":{"ele":"839","name":"גבעה","name:ar":"جبعة","name:de":"Gibea","name:en":"Gibeah","name:he":"גבעה","natural":"peak","source":"wikipedia","wikidata":"Q1021662","wikipedia":"ar:قرية جبعة","wikipedia:ar":"قرية جبعة"}}
{"type":"Feature","geometry":{"type":"Point","coordinates":[70.674448,40.9965488]},"properties":{"natural":"peak"}}
{"type":"Feature","geometry":{"type":"Point","coordinates":[82.7328871,51.3641713]},"properties":{"ele":"622.5","name":"Пуприха","natural":"peak"}}
{"type":"Feature","geometry":{"type":"Point","coordinates":[82.8101348,51.3410682]},"properties":{"ele":"668.8","name":"Волчья","natural":"peak"}}
{"type":"Feature","geometry":{"type":"Point","coordinates":[82.8460119,51.3045405]},"properties":{"ele":"677.1","name":"Чудская","natural":"peak"}}
{"type":"Feature","geometry":{"type":"Point","coordinates":[82.8376005,51.3174171]},"properties":{"ele":"468.7","name":"Сосновая","natural":"peak"}}
{"type":"Feature","geometry":{"type":"Point","coordinates":[82.8136968,51.3142518]},"properties":{"ele":"614","natural":"peak"}}
{"type":"Feature","geometry":{"type":"Point","coordinates":[82.7764891,51.3200992]},"properties":{"ele":"705.5","name":"Сурья","natural":"peak"}}
{"type":"Feature","geometry":{"type":"Point","coordinates":[82.7715969,51.3005695]},"properties":{"ele":"665","natural":"peak"}}
{"type":"Feature","geometry":{"type":"Point","coordinates":[75.9461956,41.7999611]},"properties":{"ele":"3195","natural":"peak"}}
{"type":"Feature","geometry":{"type":"Point","coordinates":[70.7541418,41.0250138]},"properties":{"natural":"peak"}}
{"type":"Feature","geometry":{"type":"Point","coordinates":[70.7680034,41.0462492]},"properties":{"ele":"2381.5","man_made":"survey_point","natural":"peak"}}
{"type":"Feature","geometry":{"type":"Point","coordinates":[70.7437992,41.0262926]},"properties":{"natural":"peak"}}
{"type":"Feature","geometry":{"type":"Point","coordinates":[70.7355594,41.040941]},"properties":{"ele":"1746.2","man_made":"survey_point","natural":"peak"}}
{"type":"Feature","geometry":{"type":"Point","coordinates":[70.6478405,41.0089208]},"properties":{"natural":"peak"}}
{"type":"Feature","geometry":{"type":"Point","coordinates":[138.0139726,36.9042516]},"properties":{"ele":"2247","name":"金山","name:en":"Mt. Kanayama","name:ja":"金山","natural":"peak"}}
{"type":"Feature","geometry":{"type":"Point","coordinates":[82.9094838,51.3526213]},"properties":{"ele":"779.7","name":"Исачная","natural":"peak"}}
{"type":"Feature","geometry":{"type":"Point","coordinates":[82.3016309,51.2697827]},"properties":{"ele":"633.7","name":"Острые Шкили","natural":"peak"}}
{"type":"Feature","geometry":{"type":"Point","coordinates":[82.3582631,51.2647412]},"properties":{"name":"останец Барыня","natural":"peak"}}
{"type":"Feature","geometry":{"type":"Point","coordinates":[82.2146845,51.3744728]},"properties":{"name":"Ортитовая сопка","natural":"peak"}}
{"type":"Feature","geometry":{"type":"Point","coordinates":[131.5082037,34.1272771]},"properties":{"ele":"377.3","name":"岳山","natural":"peak","source":"GSImaps/std"}}
{"type":"Feature","geometry":{"type":"Point","coordinates":[70.6952405,41.1342901]},"properties":{"natural":"peak"}}
{"type":"Feature","geometry":{"type":"Point","coordinates":[70.6832242,41.1480096]},"properties":{"natural":"peak"}}
{"type":"Feature","geometry":{"type":"Point","coordinates":[70.6889802,41.1229197]},"properties":{"natural":"peak"}}
{"type":"Feature","geometry":{"type":"Point","coordinates":[70.6794476,41.1321892]},"properties":{"natural":"peak"}}
{"type":"Feature","geometry":{"type":"Point","coordinates":[70.6951868,41.101325]},"properties":{"natural":"peak"}}
{"type":"Feature","geometry":{"type":"Point","coordinates":[70.6931376,41.1055329]},"properties":{"ele":"2129.2","man_made":"survey_point","natural":"peak"}}
{"type":"Feature","geometry":{"type":"Point","coordinates":[70.6922149,41.0903329]},"properties":{"natural":"peak"}}
{"type":"Feature","geometry":{"type":"Point","coordinates":[70.6849622,41.0829095]},"properties":{"natural":"peak"}}
{"type":"Feature","geometry":{"type":"Point","coordinates":[70.6959915,41.0720155]},"properties":{"natural":"peak"}}
{"type":"Feature","geometry":{"type":"Point","coordinates":[102.3769564,13.4247382]},"properties":{"natural":"peak"}}
{"type":"Feature","geometry":{"type":"Point","coordinates":[86.897763,28.069127]},"properties":{"ele":"6916","name":"长征峰","name:en":"Changzheng","name:zh":"长征峰","natural":"peak"}}
{"type":"Feature","geometry":{"type":"Point","coordinates":[58.4984317,42.3145319]},"properties":{"ele":"102","natural":"peak"}}
{"type":"Feature","geometry":{"type":"Point","coordinates":[58.1545372,42.6348918]},"properties":{"ele":"201","natural":"peak"}}
{"type":"Feature","geometry":{"type":"Point","coordinates":[85.0960421,50.4160246]},"properties":{"natural":"peak"}}
{"type":"Feature","geometry":{"type":"Point","coordinates":[117.6736067,40.1578731]},"properties":{"description":"清东陵之案山（墓穴与朝山之间的小山）","name":"影壁山","natural":"peak"}}
{"type":"Feature","geometry":{"type":"Point","coordinates":[117.6444038,40.2068515]},"properties":{"description":"清东陵之靠山（陵墓后靠之山）","ele":"383","name":"昌瑞山","natural":"peak"}}
{"type":"Feature","geometry":{"type":"Point","coordinates":[118.1965899,40.1877854]},"properties":{"ele":"610","name":"景忠山","natural":"peak"}}
{"type":"Feature","geometry":{"type":"Point","coordinates":[118.4635542,39.8368077]},"properties":{"name":"青龙山","natural":"peak"}}
{"type":"Feature","geometry":{"type":"Point","coordinates":[118.1052075,39.7348364]},"properties":{"ele":"60","name":"车轴山","natural":"peak"}}
{"type":"Feature","geometry":{"type":"Point","coordinates":[118.2051631,39.6691238]},"properties":{"ele":"43","name":"弯道山","natural":"peak"}}
{"type":"Feature","geometry":{"type":"Point","coordinates":[117.1547498,31.2534283]},"properties":{"name":"大葫芦顶","natural":"peak"}}
{"type":"Feature","geometry":{"type":"Point","coordinates":[117.1588911,31.2659379]},"properties":{"name":"砍头山","natural":"peak"}}
{"type":"Feature","geometry":{"type":"Point","coordinates":[117.1535053,31.2408253]},"properties":{"name":"芝麻山","natural":"peak"}}
{"type":"Feature","geometry":{"type":"Point","coordinates":[117.1617665,31.2433754]},"properties":{"name":"秋基岭","natural":"peak"}}
{"type":"Feature","geometry":{"type":"Point","coordinates":[117.152647,31.2469894]},"properties":{"name":"陶家岭","natural":"peak"}}
{"type":"Feature","geometry":{"type":"Point","coordinates":[117.1547713,31.2486221]},"properties":{"name":"冷饭岭","natural":"peak"}}
{"type":"Feature","geometry":{"type":"Point","coordinates":[117.1658005,31.2521075]},"properties":{"name":"虎山","natural":"peak"}}
{"type":"Feature","geometry":{"type":"Point","coordinates":[117.1657147,31.268469]},"properties":{"name":"董家岭","natural":"peak"}}
{"type":"Feature","geometry":{"type":"Point","coordinates":[117.1695556,31.2626548]},"properties":{"name":"鸭池山","natural":"peak"}}
{"type":"Feature","geometry":{"type":"Point","coordinates":[117.1767654,31.2782625]},"properties":{"name":"蜈蚣岭","natural":"peak"}}
{"type":"Feature","geometry":{"type":"Point","coordinates":[117.1850051,31.2786843]},"properties":{"name":"老虎山","natural":"peak"}}
{"type":"Feature","geometry":{"type":"Point","coordinates":[117.1761431,31.2891552]},"properties":{"name":"何家山","natural":"peak"}}
{"type":"Feature","geometry":{"type":"Point","coordinates":[117.1393144,31.1763177]},"properties":{"name":"浮祥山","natural":"peak"}}
{"type":"Feature","geometry":{"type":"Point","coordinates":[83.447814,51.5464952]},"properties":{"ele":"552","name":"Барсучья","natural":"peak"}}
{"type":"Feature","geometry":{"type":"Point","coordinates":[83.3876037,51.5535404]},"properties":{"ele":"715.1","name":"Сурья","natural":"peak"}}
{"type":"Feature","geometry":{"type":"Point","coordinates":[83.3787631,51.5399028]},"properties":{"ele":"739.4","name":"Благая","natural":"peak"}}
{"type":"Feature","geometry":{"type":"Point","coordinates":[83.4217751,51.5312337]},"properties":{"ele":"637.4","name":"Попова","natural":"peak"}}
{"type":"Feature","geometry":{"type":"Point","coordinates":[83.4312914,51.4989923]},"properties":{"ele":"819.2","name":"Толстая","natural":"peak"}}
{"type":"Feature","geometry":{"type":"Point","coordinates":[117.2269574,31.3637552]},"properties":{"name":"马山","natural":"peak"}}
{"type":"Feature","geometry":{"type":"Point","coordinates":[118.6035399,24.9572138]},"properties":{"ele":"498","name":"清源山","name:en":"Qingyuan Mountain","natural":"peak","tourism:level:CN":"AAAAA","wikidata":"Q3322051"}}
{"type":"Feature","geometry":{"type":"Point","coordinates":[35.9042612,33.9220931]},"properties":{"ele":"2006","name":"Aarid es Saqie","name:en":"Aarid es Saqie","natural":"peak"}}
{"type":"Feature","geometry":{"type":"Point","coordinates":[36.047709,34.3182742]},"properties":{"ele":"2376","name":"Dahr el Ahlat","name:en":"Dahr el Ahlat","natural":"peak"}}
{"type":"Feature","geometry":{"type":"Point","coordinates":[116.0141011,40.0725951]},"properties":{"ele":"1291","name":"妙峰山","name:en":"Miaofeng Shan","name:zh":"妙峰山","natural":"peak","wikidata":"Q15895800","wikimedia_commons":"Category:Miaofengshan","wikipedia":"zh:妙峰山"}}
{"type":"Feature","geometry":{"type":"Point","coordinates":[119.0529728,25.9626957]},"properties":{"name":"猪母仙","natural":"peak"}}
{"type":"Feature","geometry":{"type":"Point","coordinates":[119.0570927,25.9701037]},"properties":{"ele":"647","name":"鸡山尾","natural":"peak"}}
{"type":"Feature","geometry":{"type":"Point","coordinates":[119.0751171,25.9674801]},"properties":{"name":"光金马","natural":"peak"}}
{"type":"Feature","geometry":{"type":"Point","coordinates":[119.0657616,25.9633516]},"properties":{"name":"牛楼山","natural":"peak"}}
{"type":"Feature","geometry":{"type":"Point","coordinates":[119.0720701,25.9494606]},"properties":{"name":"老牛岩","natural":"peak"}}
{"type":"Feature","geometry":{"type":"Point","coordinates":[119.0658903,25.951853]},"properties":{"name":"牛坑尾","natural":"peak"}}
{"type":"Feature","geometry":{"type":"Point","coordinates":[119.0439177,25.9549786]},"properties":{"ele":"693","name":"松柏仑","natural":"peak"}}
{"type":"Feature","geometry":{"type":"Point","coordinates":[119.0613842,25.941511]},"properties":{"ele":"404","name":"大湖山","natural":"peak"}}
{"type":"Feature","geometry":{"type":"Point","coordinates":[119.109694,25.9386289]},"properties":{"ele":"891","name":"大山顶","natural":"peak"}}
{"type":"Feature","geometry":{"type":"Point","coordinates":[119.0752437,25.9224962]},"properties":{"ele":"575","name":"王洋山尾","natural":"peak"}}
{"type":"Feature","geometry":{"type":"Point","coordinates":[119.08726,25.9542191]},