{"type":"Feature","geometry":{"type":"Point","coordinates":[58.4531485,54.5633941]},"properties":{"natural":"peak"}}
{"type":"Feature","geometry":{"type":"Point","coordinates":[58.4694167,54.5670112]},"properties":{"ele":"1203","name":"Антенная","natural":"peak"}}
{"type":"Feature","geometry":{"type":"Point","coordinates":[58.4830905,54.573725]},"properties":{"natural":"peak"}}
{"type":"Feature","geometry":{"type":"Point","coordinates":[58.580051,54.6224063]},"properties":{"natural":"peak"}}
{"type":"Feature","geometry":{"type":"Point","coordinates":[58.6013771,54.6378831]},"properties":{"ele":"1240","name":"Мохнатый Дол","natural":"peak"}}
{"type":"Feature","geometry":{"type":"Point","coordinates":[58.6349161,54.6459954]},"properties":{"ele":"1371","fixme":"Отметки высоты с MAPS.ME ios 9.1.10. Возможно что фейковые, надо проверить","name":"Круглая","natural":"peak"}}
{"type":"Feature","geometry":{"type":"Point","coordinates":[58.6830538,54.6743013]},"properties":{"alt_name":"Евлакта","ele":"1310","name":"Евлахта","natural":"peak"}}
{"type":"Feature","geometry":{"type":"Point","coordinates":[58.6974848,54.680007]},"properties":{"ele":"1270","natural":"peak"}}
{"type":"Feature","geometry":{"type":"Point","coordinates":[86.5472278,27.8377252]},"properties":{"alt_name":"Parchamo;Pachermo;Pacchermo;Pachermo Peak;Pacchermo Peak","ele":"6279","name":"Parchemuche","natural":"peak","source:alt_name":"https://de.wikipedia.org/wiki/Diskussion:Parchamo#Pachermo_Peak","wikidata":"Q20191139","wikipedia":"de:Parchamo"}}
{"type":"Feature","geometry":{"type":"Point","coordinates":[132.8881839,34.3537987]},"properties":{"description":"二等三角点","ele":"454.1","man_made":"survey_point","name":"朝日山","name:ja":"朝日山","natural":"peak","source":"survey;Bing"}}
{"type":"Feature","geometry":{"type":"Point","coordinates":[121.5135252,25.1710626]},"properties":{"ele":"983","name":"大屯山西峰","name:en":"Mt. Datun West Peak","name:zh":"大屯山西峰","natural":"peak","source":"NLSC"}}
{"type":"Feature","geometry":{"type":"Point","coordinates":[121.51768,25.1698431]},"properties":{"ele":"960.31","name":"大屯山南峰","name:en":"Mt. Datun South Peak","name:zh":"大屯山南峰","natural":"peak","source":"NLSC"}}
{"type":"Feature","geometry":{"type":"Point","coordinates":[121.5221914,25.1787406]},"properties":{"ele":"1093.6","name":"大屯山","name:en":"Datunshan","name:zh":"大屯山","natural":"peak","ref":"小百岳#1","wikidata":"Q10935061","wikipedia":"zh:大屯山","wikipedia:zh":"大屯山"}}
{"type":"Feature","geometry":{"type":"Point","coordinates":[139.162436,35.945996]},"properties":{"alt_name":"ガンゼ山","ele":"780","name":"川越山","name:en":"Mt. Kanze","natural":"peak"}}
{"type":"Feature","geometry":{"type":"Point","coordinates":[139.163552,35.948919]},"properties":{"ele":"766.4","name":"正丸山","name:en":"Mt. Shomaru","natural":"peak"}}
{"type":"Feature","geometry":{"type":"Point","coordinates":[139.1454475,35.9593087]},"properties":{"ele":"847","name":"甲仁田山","natural":"peak"}}
{"type":"Feature","geometry":{"type":"Point","coordinates":[139.132989,35.989294]},"properties":{"ele":"633","name":"日向山","natural":"peak"}}
{"type":"Feature","geometry":{"type":"Point","coordinates":[138.3261472,34.9227395]},"properties":{"ele":"470","name":"満観峰","natural":"peak","wikidata":"Q17987608","wikipedia":"ja:満観峰"}}
{"type":"Feature","geometry":{"type":"Point","coordinates":[138.316953,34.905469]},"properties":{"ele":"501","name":"高草山","natural":"peak","wikidata":"Q11672759","wikipedia":"ja:高草山"}}
{"type":"Feature","geometry":{"type":"Point","coordinates":[121.2311408,24.3875106]},"properties":{"ele":"3882","name":"北稜角","name:en":"BeiLingJiao Mountain","name:zh":"北稜角","natural":"peak","wikidata":"Q31607558"}}
{"type":"Feature","geometry":{"type":"Point","coordinates":[135.3733745,49.3599079]},"properties":{"ele":"105","natural":"peak"}}
{"type":"Feature","geometry":{"type":"Point","coordinates":[135.2370754,49.3600253]},"properties":{"ele":"223","natural":"peak"}}
{"type":"Feature","geometry":{"type":"Point","coordinates":[135.1440349,49.5157387]},"properties":{"ele":"444","natural":"peak"}}
{"type":"Feature","geometry":{"type":"Point","coordinates":[135.0018993,49.4641104]},"properties":{"ele":"525","natural":"peak"}}
{"type":"Feature","geometry":{"type":"Point","coordinates":[138.3575565,34.9692591]},"properties":{"ele":"43.7","name":"舟山","natural":"peak"}}
{"type":"Feature","geometry":{"type":"Point","coordinates":[78.1951195,32.4360641]},"properties":{"ele":"6250","name":"Lakhang","natural":"peak","note":"Mount Lakhang (6250m) sits at the head of Shilla Nala in Spiti, Himachal Pradesh, India."}}
{"type":"Feature","geometry":{"type":"Point","coordinates":[114.2601703,22.4968327]},"properties":{"ele":"249","landform":"peak","natural":"peak","old_name":"二嶺"}}
{"type":"Feature","geometry":{"type":"Point","coordinates":[135.506588,49.1078233]},"properties":{"ele":"79","name":"г. Сирота","natural":"peak"}}
{"type":"Feature","geometry":{"type":"Point","coordinates":[135.6274376,49.0444028]},"properties":{"ele":"95","name":"г.Отдельная","natural":"peak"}}
{"type":"Feature","geometry":{"type":"Point","coordinates":[135.6519852,49.1564527]},"properties":{"ele":"56","natural":"peak"}}
{"type":"Feature","geometry":{"type":"Point","coordinates":[135.8971176,49.2030267]},"properties":{"ele":"118","name":"г. Змеиная","natural":"peak"}}
{"type":"Feature","geometry":{"type":"Point","coordinates":[135.8492241,49.1341123]},"properties":{"ele":"52","name":"г. Обзорная","natural":"peak"}}
{"type":"Feature","geometry":{"type":"Point","coordinates":[135.7261,49.0055402]},"properties":{"ele":"137","name":"г. Высокая","natural":"peak"}}
{"type":"Feature","geometry":{"type":"Point","coordinates":[70.276797,42.0996258]},"properties":{"ele":"3263","natural":"peak"}}
{"type":"Feature","geometry":{"type":"Point","coordinates":[70.2599011,42.1002431]},"properties":{"ele":"3142","natural":"peak"}}
{"type":"Feature","geometry":{"type":"Point","coordinates":[70.4856533,42.1550906]},"properties":{"ele":"3652","natural":"peak"}}
{"type":"Feature","geometry":{"type":"Point","coordinates":[70.4805357,42.1378211]},"properties":{"ele":"4236.1","int_name":"Sairam","man_made":"survey_point","name":"Сайрам","name:en":"Sairam","name:kk":"Сайрам","name:ru":"Сайрамский","natural":"peak"}}
{"type":"Feature","geometry":{"type":"Point","coordinates":[138.3277502,34.9134176]},"properties":{"ele":"285","mountain_pass":"yes","name":"鞍掛峠","natural":"peak"}}
{"type":"Feature","geometry":{"type":"Point","coordinates":[135.8684502,48.9307353]},"properties":{"ele":"68","name":"г. Кабар-Хурани","natural":"peak"}}
{"type":"Feature","geometry":{"type":"Point","coordinates":[121.4526429,24.7920212]},"properties":{"alt_name":"塔開山","ele":"1726.3","name":"北插天山","name:en":"Beichatianshan","name:zh":"北插天山","name:zh-Bopo":"ㄅㄟˇㄔㄚㄊㄧㄢㄕㄢ","name:zh-Hans":"北插天山","name:zh-Hant":"北插天山","name:zh-Latn-pinyin":"běichātiānshān","natural":"peak","source":"NLSC","wikidata":"Q31596733"}}
{"type":"Feature","geometry":{"type":"Point","coordinates":[135.7316361,48.8968965]},"properties":{"ele":"123","name":"г. Баба Маланья","natural":"peak"}}
{"type":"Feature","geometry":{"type":"Point","coordinates":[135.5636439,48.9100577]},"properties":{"ele":"152","name":"г. Тахомо-Кхе","natural":"peak"}}
{"type":"Feature","geometry":{"type":"Point","coordinates":[135.6605683,48.9768396]},"properties":{"ele":"136","natural":"peak"}}
{"type":"Feature","geometry":{"type":"Point","coordinates":[135.4556046,48.9482182]},"properties":{"ele":"139","name":"г. Дабанда","natural":"peak"}}
{"type":"Feature","geometry":{"type":"Point","coordinates":[134.9853812,49.0789428]},"properties":{"ele":"779","name":"г. Форель Новая","natural":"peak"}}
{"type":"Feature","geometry":{"type":"Point","coordinates":[135.3254853,49.1664433]},"properties":{"ele":"87","name":"г. Дубовая","natural":"peak"}}
{"type":"Feature","geometry":{"type":"Point","coordinates":[135.1960526,49.1598205]},"properties":{"ele":"202","name":"г. Пионерская","natural":"peak"}}
{"type":"Feature","geometry":{"type":"Point","coordinates":[135.0719414,49.1265809]},"properties":{"ele":"610","name":"г. Острая","natural":"peak"}}
{"type":"Feature","geometry":{"type":"Point","coordinates":[134.9582844,49.1173631]},"properties":{"ele":"848","name":"г. Еловая","natural":"peak"}}
{"type":"Feature","geometry":{"type":"Point","coordinates":[135.2307239,49.0182942]},"properties":{"ele":"289","natural":"peak"}}
{"type":"Feature","geometry":{"type":"Point","coordinates":[70.7712045,42.3639863]},"properties":{"ele":"4027.4","man_made":"survey_point","name":"Аксуат","name:ru":"Аксуат","natural":"peak"}}
{"type":"Feature","geometry":{"type":"Point","coordinates":[70.7254355,42.3745913]},"properties":{"ele":"3923.7","natural":"peak"}}
{"type":"Feature","geometry":{"type":"Point","coordinates":[35.8321772,33.0417575]},"properties":{"ele":"965","name":"הר בני צפת","name:en":"Bnei Zfat","name:he":"הר בני צפת","natural":"peak","wikidata":"Q21596194"}}
{"type":"Feature","geometry":{"type":"Point","coordinates":[134.1043126,34.3556817]},"properties":{"ele":"292.1","name":"南嶺","name:en":"Yashima south ridge summit","name:ja":"南嶺","name:ja-Latn":"Yashima Nanrei","natural":"peak"}}
{"type":"Feature","geometry":{"type":"Point","coordinates":[121.1703157,24.2954923]},"properties":{"ele":"3256","name":"劍山","name:en":"Jianshan","name:zh":"劍山","natural":"peak","ref":"百岳#64;九嶂-5","wikidata":"Q31605903"}}
{"type":"Feature","geometry":{"type":"Point","coordinates":[121.2005007,24.3409271]},"properties":{"alt_name":"巴多瓦諾敏山","ele":"3593.3","name":"大劍山","name:en":"Dajianshan","name:zh":"大劍山","natural":"peak","ref":"百岳#18;十峻-6","source":"NLSC","wikidata":"Q5209875"}}
{"type":"Feature","geometry":{"type":"Point","coordinates":[121.1951071,24.3141351]},"properties":{"ele":"3167","name":"3167峰","name:en":"3167feng","name:zh":"3167峰","name:zh-Bopo":"3167ㄈㄥ","name:zh-Hans":"3167峰","name:zh-Hant":"3167峰","name:zh-Latn-pinyin":"3167fēng","natural":"peak"}}
{"type":"Feature","geometry":{"type":"Point","coordinates":[121.2052858,24.3220553]},"properties":{"ele":"3308","name":"油婆蘭山","name:en":"YouPoLan Mountain","name:zh":"油婆蘭山","natural":"peak","wikidata":"Q31607469"}}
{"type":"Feature","geometry":{"type":"Point","coordinates":[121.1984681,24.3169499]},"properties":{"ele":"3295","name":"布佚奇寒山","name:en":"BuYiQiHan Mountain","name:zh":"布佚奇寒山","natural":"peak"}}
{"type":"Feature","geometry":{"type":"Point","coordinates":[121.1879968,24.3066288]},"properties":{"ele":"3314","name":"佳陽山","name:en":"Jiayangshan","name:zh":"佳陽山","natural":"peak","ref":"百岳#50;八銳-4","wikidata":"Q10887052","wikipedia":"zh:佳陽山","wikipedia:zh":"佳陽山"}}
{"type":"Feature","geometry":{"type":"Point","coordinates":[121.243612,24.4699811]},"properties":{"alt_name":"江澤山","ele":"3296.3","name":"伊澤山","name:en":"Yizeshan","name:zh":"伊澤山","name:zh-Bopo":"ㄧㄗㄜˊㄕㄢ","name:zh-Hans":"伊泽山","name:zh-Hant":"伊澤山","name:zh-Latn-pinyin":"yīzéshān","natural":"peak","ref":"百岳#53;六易-2","source":"NLSC","wikidata":"Q10885048","wikipedia":"zh:伊澤山"}}
{"type":"Feature","geometry":{"type":"Point","coordinates":[121.288154,24.4310981]},"properties":{"alt_name":"玉羅府山;王羅府山","ele":"3300.2","name":"池有山","name:en":"Chryou Shan","name:zh":"池有山","natural":"peak","ref":"百岳#52;六易-1","source":"NLSC","wikidata":"Q11135731","wikipedia":"zh:池有山"}}
{"type":"Feature","geometry":{"type":"Point","coordinates":[121.2520909,24.4556307]},"properties":{"ele":"3419","name":"小霸尖山","name:en":"Xiaobajianshan","name:zh":"小霸尖山","name:zh-Bopo":"ㄒㄧㄠˇㄅㄚˋㄐㄧㄢㄕㄢ","name:zh-Hans":"小霸尖山","name:zh-Hant":"小霸尖山","name:zh-Latn-pinyin":"xiǎobàjiānshān","natural":"peak","ref":"百岳#36;八銳-2","wikidata":"Q11035333","wikipedia":"zh:小霸尖山"}}
{"type":"Feature","geometry":{"type":"Point","coordinates":[121.2161839,24.4594489]},"properties":{"ele":"3111.9","name":"加利山","name:en":"Jialishan","name:zh":"加利山","name:zh-Bopo":"ㄐㄧㄚㄌㄧˋㄕㄢ","name:zh-Hans":"加利山","name:zh-Hant":"加利山","name:zh-Latn-pinyin":"jiālìshān","natural":"peak","ref":"百岳#86;六肩稜-3","source":"NLSC","wikidata":"Q10900728","wikipedia":"zh:加利山"}}
{"type":"Feature","geometry":{"type":"Point","coordinates":[34.9940383,31.8817466]},"properties":{"historic":"ruins","image":"https://upload.wikimedia.org/wikipedia/commons/6/6a/IHM_גבעת_שר.jpeg","name":"גבעת שר","name:en":"Giv'at Sher","name:he":"גבעת שר","natural":"peak"}}
{"type":"Feature","geometry":{"type":"Point","coordinates":[60.1290914,55.3778047]},"properties":{"ele":"548","name":"Голая","natural":"peak"}}
{"type":"Feature","geometry":{"type":"Point","coordinates":[70.5486245,42.1824792]},"properties":{"ele":"4034","natural":"peak"}}
{"type":"Feature","geometry":{"type":"Point","coordinates":[70.802545,42.2160023]},"properties":{"ele":"4253.0","natural":"peak"}}
{"type":"Feature","geometry":{"type":"Point","coordinates":[70.5529805,42.2523262]},"properties":{"ele":"3690","man_made":"survey_point","natural":"peak"}}
{"type":"Feature","geometry":{"type":"Point","coordinates":[70.8508015,42.3256533]},"properties":{"ele":"3809.0","man_made":"survey_point","natural":"peak"}}
{"type":"Feature","geometry":{"type":"Point","coordinates":[70.7359105,42.2627292]},"properties":{"ele":"3715","man_made":"survey_point","name":"Майдантал Северный","name:ru":"Майдантал Северный","natural":"peak"}}
{"type":"Feature","geometry":{"type":"Point","coordinates":[70.6458247,42.2062459]},"properties":{"ele":"3698.6","man_made":"survey_point","name":"Урашт","name:ru":"Урашт","natural":"peak"}}
{"type":"Feature","geometry":{"type":"Point","coordinates":[70.3544405,42.3032303]},"properties":{"ele":"1773","int_name":"Arşa Konwsı","name":"Арша Конусы","name:kk":"Арша Конусы","name:ru":"Арчевая Шишка","natural":"peak"}}
{"type":"Feature","geometry":{"type":"Point","coordinates":[71.0214711,42.3218934]},"properties":{"ele":"4484.3","man_made":"survey_point","name":"Манас","name:ru":"Манас","natural":"peak"}}
{"type":"Feature","geometry":{"type":"Point","coordinates":[70.8670907,42.2992369]},"properties":{"name":"перевал Майдантал","name:ru":"перевал Майдантал","natural":"peak"}}
{"type":"Feature","geometry":{"type":"Point","coordinates":[87.1623409,51.1504502]},"properties":{"natural":"peak"}}
{"type":"Feature","geometry":{"type":"Point","coordinates":[86.9045191,51.1600784]},"properties":{"natural":"peak"}}
{"type":"Feature","geometry":{"type":"Point","coordinates":[86.887353,51.1678681]},"properties":{"natural":"peak"}}
{"type":"Feature","geometry":{"type":"Point","coordinates":[87.1450375,51.1690507]},"properties":{"natural":"peak"}}
{"type":"Feature","geometry":{"type":"Point","coordinates":[87.141043,51.1804295]},"properties":{"ele":"2605","natural":"peak"}}
{"type":"Feature","geometry":{"type":"Point","coordinates":[86.858333,51.185556]},"properties":{"ele":"2468.5","natural":"peak"}}
{"type":"Feature","geometry":{"type":"Point","coordinates":[86.8380832,51.1905602]},"properties":{"natural":"peak"}}
{"type":"Feature","geometry":{"type":"Point","coordinates":[86.8172264,51.2191422]},"properties":{"natural":"peak"}}
{"type":"Feature","geometry":{"type":"Point","coordinates":[86.808333,51.235556]},"properties":{"ele":"2489.5","natural":"peak"}}
{"type":"Feature","geometry":{"type":"Point","coordinates":[87.1534467,51.2393379]},"properties":{"natural":"peak"}}
{"type":"Feature","geometry":{"type":"Point","coordinates":[86.656111,51.241667]},"properties":{"ele":"2281.5","natural":"peak"}}
{"type":"Feature","geometry":{"type":"Point","coordinates":[86.8047166,51.2426627]},"properties":{"natural":"peak"}}
{"type":"Feature","geometry":{"type":"Point","coordinates":[86.6362467,51.2464063]},"properties":{"natural":"peak"}}
{"type":"Feature","geometry":{"type":"Point","coordinates":[86.672222,51.253611]},"properties":{"ele":"2217.5","natural":"peak"}}
{"type":"Feature","geometry":{"type":"Point","coordinates":[86.751111,51.256389]},"properties":{"ele":"2500","natural":"peak"}}
{"type":"Feature","geometry":{"type":"Point","coordinates":[86.7561565,51.2602159]},"properties":{"natural":"peak"}}
{"type":"Feature","geometry":{"type":"Point","coordinates":[86.772778,51.261111]},"properties":{"ele":"2448.6","name":"Балыкту","natural":"peak"}}
{"type":"Feature","geometry":{"type":"Point","coordinates":[86.74,51.261389]},"properties":{"ele":"2618.1","name":"Альбаган","natural":"peak"}}
{"type":"Feature","geometry":{"type":"Point","coordinates":[86.71,51.28]},"properties":{"ele":"2334.5","natural":"peak"}}
{"type":"Feature","geometry":{"type":"Point","coordinates":[86.7379081,51.2812596]},"properties":{"natural":"peak"}}
{"type":"Feature","geometry":{"type":"Point","coordinates":[86.715281,51.2849438]},"properties":{"natural":"peak"}}
{"type":"Feature","geometry":{"type":"Point","coordinates":[86.68,51.285833]},"properties":{"ele":"2328.5","natural":"peak"}}
{"type":"Feature","geometry":{"type":"Point","coordinates":[86.730556,51.288611]},"properties":{"ele":"2500","natural":"peak"}}
{"type":"Feature","geometry":{"type":"Point","coordinates":[86.669444,51.293889]},"properties":{"ele":"2340.5","natural":"peak"}}
{"type":"Feature","geometry":{"type":"Point","coordinates":[86.66,51.314444]},"properties":{"ele":"2343.5","natural":"peak"}}
{"type":"Feature","geometry":{"type":"Point","coordinates":[87.74659,51.5353979]},"properties":{"ele":"1423","natural":"peak"}}
{"type":"Feature","geometry":{"type":"Point","coordinates":[87.0202644,51.7080477]},"properties":{"ele":"909.7","name":"Верхний Садон","natural":"peak"}}
{"type":"Feature","geometry":{"type":"Point","coordinates":[87.0197168,51.7761749]},"properties":{"ele":"1246.6","name":"Урчин","natural":"peak"}}
{"type":"Feature","geometry":{"type":"Point","coordinates":[87.0121735,51.9037951]},"properties":{"ele":"674.3","name":"Баданная","natural":"peak"}}
{"type":"Feature","geometry":{"type":"Point","coordinates":[87.0247884,51.9887942]},"properties":{"ele":"708","natural":"peak"}}
{"type":"Feature","geometry":{"type":"Point","coordinates":[87.0093068,52.0090699]},"properties":{"ele":"610","natural":"peak"}}
{"type":"Feature","geometry":{"type":"Point","coordinates":[86.9925392,52.0140654]},"properties":{"ele":"525","natural":"peak"}}
{"type":"Feature","geometry":{"type":"Point","coordinates":[86.9915237,52.0192115]},"properties":{"ele":"594","natural":"peak"}}
{"type":"Feature","geometry":{"type":"Point","coordinates":[87.0018775,52.0347752]},"properties":{"ele":"559","natural":"peak"}}
{"type":"Feature","geometry":{"type":"Point","coordinates":[86.9045585,52.1216816]},"properties":{"ele":"705","name":"Малиновая","natural":"peak"}}
{"type":"Feature","geometry":{"type":"Point","coordinates":[39.5829329,44.1161128]},"properties":{"ele":"1732","natural":"peak"}}
{"type":"Feature","geometry":{"type":"Point","coordinates":[138.3737618,34.9891996]},"properties":{"ele":"140","name":"浅間山","natural":"peak"}}
{"type":"Feature","geometry":{"type":"Point","coordinates":[138.3748811,34.995455]},"properties":{"contact:tripadvisor":"16731765","ele":"171","name":"賤機山","name:en":"Mt. Shizuhata","name:fr":"Mont Shizuhata","name:ja-Hira":"しずはたやま","name:ja-Latn":"Shizuhata-yama","natural":"peak","wikidata":"Q11635100","wikimedia_commons":"Category:Mount Shizuhata","wikipedia":"ja:賤機山"}}
{"type":"Feature","geometry":{"type":"Point","coordinates":[138.3761047,35.0055711]},"properties":{"ele":"198","name":"一本松","natural":"peak"}}
{"type":"Feature","geometry":{"type":"Point","coordinates":[138.3484663,34.9899457]},"properties":{"ele":"226","name":"千代山","natural":"peak"}}
{"type":"Feature","geometry":{"type":"Point","coordinates":[138.2994411,34.9524519]},"properties":{"ele":"481.5","name":"飯間山","natural":"peak"}}
{"type":"Feature","geometry":{"type":"Point","coordinates":[138.3325424,34.9610819]},"properties":{"natural":"peak"}}
{"type":"Feature","geometry":{"type":"Point","coordinates":[138.3087661,34.9541889]},"properties":{"ele":"412.3","name":"宇津の山","natural":"peak"}}
{"type":"Feature","geometry":{"type":"Point","coordinates":[69.8138232,23.9335467]},"properties":{"alt_name":"Panchchhamayi","ele":"462","name":"Kalo Dungar","natural":"peak","wikidata":"Q6354157","wikimedia_commons":"Category:Kalo Dungar","wikipedia":"en:Kalo Dungar"}}
{"type":"Feature","geometry":{"type":"Point","coordinates":[93.0707093,55.9177031]},"properties":{"alt_name":"Каратаг","ele":"689","name":"Чёрная сопка","name:ru":"Чёрная сопка","natural":"peak","tourism":"attraction","wikidata":"Q4518690","wikipedia":"ru:Чёрная сопка"}}
{"type":"Feature","geometry":{"type":"Point","coordinates":[106.4004452,17.509599]},"properties":{"natural":"peak"}}
{"type":"Feature","geometry":{"type":"Point","coordinates":[86.6004824,49.81787]},"properties":{"ele":"4070.3","name":"Делоне","natural":"peak","note":"Height 4070 on topo maps match SRTM; please do not change unless surveyed with GPS","wikipedia":"ru:Список перевалов Алтайских гор"}}
{"type":"Feature","geometry":{"type":"Point","coordinates":[86.6041397,49.8252347]},"properties":{"ele":"3752","natural":"peak"}}
{"type":"Feature","geometry":{"type":"Point","coordinates":[86.6123648,49.8295853]},"properties":{"ele":"3550","name":"Томских студентов","natural":"peak"}}
{"type":"Feature","geometry":{"type":"Point","coordinates":[86.6034124,49.8407622]},"properties":{"ele":"3660","natural":"peak"}}
{"type":"Feature","geometry":{"type":"Point","coordinates":[86.6067196,49.854074]},"properties":{"ele":"3600","natural":"peak"}}
{"type":"Feature","geometry":{"type":"Point","coordinates":[86.6219448,49.8824421]},"properties":{"ele":"3620","natural":"peak"}}
{"type":"Feature","geometry":{"type":"Point","coordinates":[86.691771,50.0664023]},"properties":{"ele":"2815.2","name":"Томул","natural":"peak"}}
{"type":"Feature","geometry":{"type":"Point","coordinates":[88.7912454,50.117485]},"properties":{"natural":"peak"}}
{"type":"Feature","geometry":{"type":"Point","coordinates":[88.6634828,50.1215729]},"properties":{"natural":"peak"}}
{"type":"Feature","geometry":{"type":"Point","coordinates":[88.5262892,50.1321625]},"properties":{"natural":"peak"}}
{"type":"Feature","geometry":{"type":"Point","coordinates":[88.4931371,50.1383449]},"properties":{"natural":"peak"}}
{"type":"Feature","geometry":{"type":"Point","coordinates":[88.4635255,50.1417487]},"properties":{"natural":"peak"}}
{"type":"Feature","geometry":{"type":"Point","coordinates":[88.436623,50.145953]},"properties":{"ele":"3367","name":"Тыдтуярык","natural":"peak"}}
{"type":"Feature","geometry":{"type":"Point","coordinates":[88.9899041,50.1468441]},"properties":{"natural":"peak"}}
{"type":"Feature","geometry":{"type":"Point","coordinates":[88.4236736,50.1472182]},"properties":{"natural":"peak"}}
{"type":"Feature","geometry":{"type":"Point","coordinates":[88.8416206,50.1620393]},"properties":{"natural":"peak"}}
{"type":"Feature","geometry":{"type":"Point","coordinates":[88.9384393,50.1628182]},"properties":{"natural":"peak"}}
{"type":"Feature","geometry":{"type":"Point","coordinates":[88.9224963,50.1626275]},"properties":{"natural":"peak"}}
{"type":"Feature","geometry":{"type":"Point","coordinates":[88.8804451,50.1736321]},"properties":{"natural":"peak"}}
{"type":"Feature","geometry":{"type":"Point","coordinates":[88.3842213,50.1749574]},"properties":{"natural":"peak"}}
{"type":"Feature","geometry":{"type":"Point","coordinates":[88.8566319,50.1815469]},"properties":{"natural":"peak"}}
{"type":"Feature","geometry":{"type":"Point","coordinates":[88.3055633,50.210392]},"properties":{"natural":"peak"}}
{"type":"Feature","geometry":{"type":"Point","coordinates":[88.2887865,50.2175983]},"properties":{"natural":"peak"}}
{"type":"Feature","geometry":{"type":"Point","coordinates":[88.3331681,50.2194054]},"properties":{"ele":"3260.6","name":"Куюктанар","natural":"peak"}}
{"type":"Feature","geometry":{"type":"Point","coordinates":[88.2736413,50.221261]},"properties":{"natural":"peak"}}
{"type":"Feature","geometry":{"type":"Point","coordinates":[88.2381624,50.2329892]},"properties":{"natural":"peak"}}
{"type":"Feature","geometry":{"type":"Point","coordinates":[88.2012648,50.2384979]},"properties":{"natural":"peak"}}
{"type":"Feature","geometry":{"type":"Point","coordinates":[88.2156983,50.2386028]},"properties":{"name":"Тыдтугем","natural":"peak"}}
{"type":"Feature","geometry":{"type":"Point","coordinates":[88.1941868,50.2421446]},"properties":{"natural":"peak"}}
{"type":"Feature","geometry":{"type":"Point","coordinates":[88.1641687,50.2486319]},"properties":{"natural":"peak"}}
{"type":"Feature","geometry":{"type":"Point","coordinates":[87.0660076,50.259324]},"properties":{"natural":"peak"}}
{"type":"Feature","geometry":{"type":"Point","coordinates":[87.0554531,50.259643]},"properties":{"natural":"peak"}}
{"type":"Feature","geometry":{"type":"Point","coordinates":[88.0342082,50.3091154]},"properties":{"natural":"peak"}}
{"type":"Feature","geometry":{"type":"Point","coordinates":[88.0506505,50.3181884]},"properties":{"natural":"peak"}}
{"type":"Feature","geometry":{"type":"Point","coordinates":[87.7496089,50.3409858]},"properties":{"ele":"3038","name":"Верхняя","name:cs":"Verchňaja","natural":"peak"}}
{"type":"Feature","geometry":{"type":"Point","coordinates":[88.0393581,50.345177]},"properties":{"natural":"peak"}}
{"type":"Feature","geometry":{"type":"Point","coordinates":[88.0104185,50.3563929]},"properties":{"natural":"peak"}}
{"type":"Feature","geometry":{"type":"Point","coordinates":[87.3814344,50.413454]},"properties":{"natural":"peak"}}
{"type":"Feature","geometry":{"type":"Point","coordinates":[87.3432542,50.4425659]},"properties":{"natural":"peak"}}
{"type":"Feature","geometry":{"type":"Point","coordinates":[87.3622083,50.4513152]},"properties":{"ele":"2698","natural":"peak"}}
{"type":"Feature","geometry":{"type":"Point","coordinates":[87.4676514,50.5989433]},"properties":{"natural":"peak"}}
{"type":"Feature","geometry":{"type":"Point","coordinates":[87.4966192,50.6330494]},"properties":{"natural":"peak"}}
{"type":"Feature","geometry":{"type":"Point","coordinates":[87.4566189,50.7253524]},"properties":{"natural":"peak"}}
{"type":"Feature","geometry":{"type":"Point","coordinates":[87.4311618,50.790087]},"properties":{"natural":"peak"}}
{"type":"Feature","geometry":{"type":"Point","coordinates":[87.2361394,51.032466]},"properties":{"natural":"peak"}}
{"type":"Feature","geometry":{"type":"Point","coordinates":[87.2084821,51.0516768]},"properties":{"natural":"peak"}}
{"type":"Feature","geometry":{"type":"Point","coordinates":[87.2038588,51.0565038]},"properties":{"natural":"peak"}}
{"type":"Feature","geometry":{"type":"Point","coordinates":[87.2078043,51.0749525]},"properties":{"natural":"peak"}}
{"type":"Feature","geometry":{"type":"Point","coordinates":[87.1950155,51.0874856]},"properties":{"natural":"peak"}}
{"type":"Feature","geometry":{"type":"Point","coordinates":[87.2021231,51.1043993]},"properties":{"name":"Бель","natural":"peak"}}
{"type":"Feature","geometry":{"type":"Point","coordinates":[87.1944898,51.1138247]},"properties":{"natural":"peak"}}
{"type":"Feature","geometry":{"type":"Point","coordinates":[87.1690571,51.1433731]},"properties":{"ele":"2623","natural":"peak"}}
{"type":"Feature","geometry":{"type":"Point","coordinates":[86.578889,51.228056]},"properties":{"ele":"2466.5","natural":"peak"}}
{"type":"Feature","geometry":{"type":"Point","coordinates":[93.037391,55.8602332]},"properties":{"name":"Верблюд","natural":"peak"}}
{"type":"Feature","geometry":{"type":"Point","coordinates":[130.6319701,42.4273714]},"properties":{"name":"吴岗","natural":"peak"}}
{"type":"Feature","geometry":{"type":"Point","coordinates":[130.5922044,42.4556182]},"properties":{"name":"гора Махалина","name:ru":"гора Махалина","natural":"peak"}}
{"type":"Feature","geometry":{"type":"Point","coordinates":[130.5628523,42.501142]},"properties":{"name":"沙包子","natural":"peak"}}
{"type":"Feature","geometry":{"type":"Point","coordinates":[130.553968,42.5205974]},"properties":{"name":"依岗嘴子","natural":"peak"}}
{"type":"Feature","geometry":{"type":"Point","coordinates":[130.561936,42.5307671]},"properties":{"name":"田家山","natural":"peak"}}
{"type":"Feature","geometry":{"type":"Point","coordinates":[130.6035564,42.5526186]},"properties":{"ele":"303","name":"гора Барабаша 连城山","name:en":"Barabasha Mountain","name:ru":"гора Барабаша","name:zh":"连城山","natural":"peak"}}
{"type":"Feature","geometry":{"type":"Point","coordinates":[130.5244285,42.6999647]},"properties":{"ele":"453","name":"г. Малая Тигровая","name:ru":"г. Малая Тигровая","natural":"peak"}}
{"type":"Feature","geometry":{"type":"Point","coordinates":[138.3968198,34.9802448]},"properties":{"ele":"64","name":"清水山","natural":"peak"}}
{"type":"Feature","geometry":{"type":"Point","coordinates":[130.6127112,33.6155344]},"properties":{"ele":"615.5","name":"龍王山","natural":"peak"}}
{"type":"Feature","geometry":{"type":"Point","coordinates":[132.070076,43.2074244]},"properties":{"ele":"132","natural":"peak"}}
{"type":"Feature","geometry":{"type":"Point","coordinates":[135.0094567,48.7781501]},"properties":{"ele":"61","name":"сопка Партизанская","natural":"peak"}}
{"type":"Feature","geometry":{"type":"Point","coordinates":[135.1953659,48.7503147]},"properties":{"ele":"36","natural":"peak"}}
{"type":"Feature","geometry":{"type":"Point","coordinates":[135.1023255,48.7614055]},"properties":{"ele":"42","natural":"peak"}}
{"type":"Feature","geometry":{"type":"Point","coordinates":[69.682403,41.677471]},"properties":{"natural":"peak"}}
{"type":"Feature","geometry":{"type":"Point","coordinates":[69.7176136,41.6862163]},"properties":{"natural":"peak"}}
{"type":"Feature","geometry":{"type":"Point","coordinates":[69.7251434,41.6879261]},"properties":{"ele":"2193.6","natural":"peak"}}
{"type":"Feature","geometry":{"type":"Point","coordinates":[69.7373046,41.6985886]},"properties":{"ele":"2303.5","int_name":"Aqtam","man_made":"survey_point","name":"Ақтам - Актам","name:kk":"Ақтам","name:ky":"Актам","name:ru":"Актам","natural":"peak"}}
{"type":"Feature","geometry":{"type":"Point","coordinates":[69.7548265,41.6991246]},"properties":{"ele":"2211.6","man_made":"survey_point","natural":"peak"}}
{"type":"Feature","geometry":{"type":"Point","coordinates":[69.7456168,41.7008277]},"properties":{"natural":"peak"}}
{"type":"Feature","geometry":{"type":"Point","coordinates":[69.7882443,41.7011366]},"properties":{"natural":"peak"}}
{"type":"Feature","geometry":{"type":"Point","coordinates":[69.7974742,41.7073453]},"properties":{"ele":"2751.7","man_made":"survey_point","natural":"peak"}}
{"type":"Feature","geometry":{"type":"Point","coordinates":[69.8130483,41.709322]},"properties":{"ele":"2211.6","man_made":"survey_point","natural":"peak"}}
{"type":"Feature","geometry":{"type":"Point","coordinates":[69.8176009,41.7118193]},"properties":{"natural":"peak"}}
{"type":"Feature","geometry":{"type":"Point","coordinates":[69.8478869,41.7204401]},"properties":{"natural":"peak"}}
{"type":"Feature","geometry":{"type":"Point","coordinates":[69.9576833,41.7337735]},"properties":{"ele":"2056.9","man_made":"survey_point","natural":"peak"}}
{"type":"Feature","geometry":{"type":"Point","coordinates":[69.97185,41.7640073]},"properties":{"ele":"2373.7","man_made":"survey_point","natural":"peak"}}
{"type":"Feature","geometry":{"type":"Point","coordinates":[69.9724112,41.7695887]},"properties":{"natural":"peak"}}
{"type":"Feature","geometry":{"type":"Point","coordinates":[69.9740652,41.7775838]},"properties":{"ele":"2317.2","natural":"peak"}}
{"type":"Feature","geometry":{"type":"Point","coordinates":[70.0944192,41.8223118]},"properties":{"natural":"peak"}}
{"type":"Feature","geometry":{"type":"Point","coordinates":[70.1467559,41.8365785]},"properties":{"ele":"3225.9","natural":"peak"}}
{"type":"Feature","geometry":{"type":"Point","coordinates":[70.1327759,41.8438983]},"properties":{"natural":"peak"}}
{"type":"Feature","geometry":{"type":"Point","coordinates":[70.1562153,41.844448]},"properties":{"ele":"3377.8","man_made":"survey_point","natural":"peak"}}
{"type":"Feature","geometry":{"type":"Point","coordinates":[70.175865,41.855308]},"properties":{"natural":"peak"}}
{"type":"Feature","geometry":{"type":"Point","coordinates":[70.1811115,41.883104]},"properties":{"ele":"3353.7","natural":"peak"}}
{"type":"Feature","geometry":{"type":"Point","coordinates":[70.1970557,41.8872651]},"properties":{"natural":"peak"}}
{"type":"Feature","geometry":{"type":"Point","coordinates":[70.1968159,41.8975177]},"properties":{"ele":"3429.0","natural":"peak"}}
{"type":"Feature","geometry":{"type":"Point","coordinates":[70.1979977,41.9052901]},"properties":{"natural":"peak"}}
{"type":"Feature","geometry":{"type":"Point","coordinates":[70.2166968,41.9129532]},"properties":{"ele":"3503.1","natural":"peak"}}
{"type":"Feature","geometry":{"type":"Point","coordinates":[70.2284232,41.9211902]},"properties":{"natural":"peak"}}
{"type":"Feature","geometry":{"type":"Point","coordinates":[70.223625,41.926452]},"properties":{"ele":"3615.1","man_made":"survey_point","natural":"peak"}}
{"type":"Feature","geometry":{"type":"Point","coordinates":[70.2276807,41.9307241]},"properties":{"natural":"peak"}}
{"type":"Feature","geometry":{"type":"Point","coordinates":[70.2280452,41.9346252]},"properties":{"natural":"peak"}}
{"type":"Feature","geometry":{"type":"Point","coordinates":[70.2344983,41.9379665]},"properties":{"natural":"peak"}}
{"type":"Feature","geometry":{"type":"Point","coordinates":[70.2614384,41.9543202]},"properties":{"ele":"3572.1","man_made":"survey_point","natural":"peak"}}
{"type":"Feature","geometry":{"type":"Point","coordinates":[70.2812148,41.9567262]},"properties":{"natural":"peak"}}
{"type":"Feature","geometry":{"type":"Point","coordinates":[70.2910571,41.9624622]},"properties":{"natural":"peak"}}
{"type":"Feature","geometry":{"type":"Point","coordinates":[70.317092,41.968093]},"properties":{"natural":"peak"}}
{"type":"Feature","geometry":{"type":"Point","coordinates":[70.3088657,41.9681755]},"properties":{"natural":"peak"}}
{"type":"Feature","geometry":{"type":"Point","coordinates":[70.318183,41.970443]},"properties":{"ele":"3387.0","man_made":"survey_point","natural":"peak"}}
{"type":"Feature","geometry":{"type":"Point","coordinates":[70.3280758,41.9707474]},"properties":{"ele":"3508.4","man_made":"survey_point","natural":"peak"}}
{"type":"Feature","geometry":{"type":"Point","coordinates":[70.3352504,41.9747055]},"properties":{"natural":"peak"}}
{"type":"Feature","geometry":{"type":"Point","coordinates":[70.336853,41.98471]},"properties":{"ele":"3610.1","man_made":"survey_point","natural":"peak"}}
{"type":"Feature","geometry":{"type":"Point","coordinates":[70.3324464,41.9921677]},"properties":{"natural":"peak"}}
{"type":"Feature","geometry":{"type":"Point","coordinates":[70.3302483,41.9999932]},"properties":{"natural":"peak"}}
{"type":"Feature","geometry":{"type":"Point","coordinates":[70.6065563,42.0068513]},"properties":{"ele":"2945.5","natural":"peak"}}
{"type":"Feature","geometry":{"type":"Point","coordinates":[70.5765179,42.020431]},"properties":{"ele":"3383.1","natural":"peak"}}
{"type":"Feature","geometry":{"type":"Point","coordinates":[70.564636,42.022689]},"properties":{"ele":"3317.7","natural":"peak"}}
{"type":"Feature","geometry":{"type":"Point","coordinates":[70.5551812,42.0289298]},"properties":{"ele":"3430","natural":"peak"}}
{"type":"Feature","geometry":{"type":"Point","coordinates":[70.3232211,42.0301989]},"properties":{"natural":"peak"}}
{"type":"Feature","geometry":{"type":"Point","coordinates":[70.5487015,42.0350132]},"properties":{"ele":"3620.7","natural":"peak"}}
{"type":"Feature","geometry":{"type":"Point","coordinates":[70.6515544,42.0414161]},"properties":{"natural":"peak"}}
{"type":"Feature","geometry":{"type":"Point","coordinates":[70.5585293,42.0430256]},"properties":{"ele":"3596.0","natural":"peak"}}
{"type":"Feature","geometry":{"type":"Point","coordinates":[70.3320629,42.0475515]},"properties":{"natural":"peak"}}
{"type":"Feature","geometry":{"type":"Point","coordinates":[70.5575553,42.0480915]},"properties":{"ele":"3644.5","man_made":"survey_point","natural":"peak"}}
{"type":"Feature","geometry":{"type":"Point","coordinates":[70.3429091,42.0501473]},"properties":{"natural":"peak"}}
{"type":"Feature","geometry":{"type":"Point","coordinates":[70.3509493,42.0507735]},"properties":{"natural":"peak"}}
{"type":"Feature","geometry":{"type":"Point","coordinates":[70.3556137,42.0575529]},"properties":{"natural":"peak"}}
{"type":"Feature","geometry":{"type":"Point","coordinates":[70.5516285,42.0577653]},"properties":{"ele":"3498.2","natural":"peak"}}
{"type":"Feature","geometry":{"type":"Point","coordinates":[70.3722328,42.0643997]},"properties":{"ele":"3872.8","man_made":"survey_point","natural":"peak"}}
{"type":"Feature","geometry":{"type":"Point","coordinates":[70.6650687,42.0711033]},"properties":{"natural":"peak"}}
{"type":"Feature","geometry":{"type":"Point","coordinates":[70.3809678,42.0710891]},"properties":{"natural":"peak"}}
{"type":"Feature","geometry":{"type":"Point","coordinates":[70.545532,42.073982]},"properties":{"ele":"3426.3","natural":"peak"}}
{"type":"Feature","geometry":{"type":"Point","coordinates":[70.4101706,42.074743]},"properties":{"natural":"peak"}}
{"type":"Feature","geometry":{"type":"Point","coordinates":[70.4116984,42.0776767]},"properties":{"ele":"3629.4","natural":"peak"}}
{"type":"Feature","geometry":{"type":"Point","coordinates":[70.4229267,42.0834381]},"properties":{"ele":"3876.2","natural":"peak"}}
{"type":"Feature","geometry":{"type":"Point","coordinates":[70.5132277,42.0880945]},"properties":{"natural":"peak"}}
{"type":"Feature","geometry":{"type":"Point","coordinates":[70.527503,42.08522]},"properties":{"ele":"3718.0","natural":"peak"}}
{"type":"Feature","geometry":{"type":"Point","coordinates":[70.678779,42.088375]},"properties":{"ele":"3356.2","man_made":"survey_point","natural":"peak"}}
{"type":"Feature","geometry":{"type":"Point","coordinates":[70.5013841,42.0991394]},"properties":{"ele":"3841.1","natural":"peak"}}
{"type":"Feature","geometry":{"type":"Point","coordinates":[70.4692013,42.0977329]},"properties":{"natural":"peak"}}
{"type":"Feature","geometry":{"type":"Point","coordinates":[70.4909881,42.104713]},"properties":{"natural":"peak"}}
{"type":"Feature","geometry":{"type":"Point","coordinates":[70.7146765,42.1386256]},"properties":{"ele":"3848.9","natural":"peak"}}
{"type":"Feature","geometry":{"type":"Point","coordinates":[70.7146294,42.1421132]},"properties":{"natural":"peak"}}
{"type":"Feature","geometry":{"type":"Point","coordinates":[70.7396884,42.1843885]},"properties":{"natural":"peak"}}
{"type":"Feature","geometry":{"type":"Point","coordinates":[70.745918,42.188678]},"properties":{"natural":"peak"}}
{"type":"Feature","geometry":{"type":"Point","coordinates":[70.7680106,42.1935696]},"properties":{"natural":"peak"}}
{"type":"Feature","geometry":{"type":"Point","coordinates":[70.835952,42.194446]},"properties":{"natural":"peak"}}
{"type":"Feature","geometry":{"type":"Point","coordinates":[70.7809661,42.2040671]},"properties":{"ele":"4258.0","natural":"peak"}}
{"type":"Feature","geometry":{"type":"Point","coordinates":[70.8545521,42.2079049]},"properties":{"natural":"peak"}}
{"type":"Feature","geometry":{"type":"Point","coordinates":[70.7938434,42.2094529]},"properties":{"natural":"peak"}}
{"type":"Feature","geometry":{"type":"Point","coordinates":[70.8748094,42.2122072]},"properties":{"natural":"peak"}}
{"type":"Feature","geometry":{"type":"Point","coordinates":[70.8888426,42.2151305]},"properties":{"ele":"3842.2","natural":"peak"}}
{"type":"Feature","geometry":{"type":"Point","coordinates":[70.8873164,42.2191894]},"properties":{"natural":"peak"}}
{"type":"Feature","geometry":{"type":"Point","coordinates":[70.901512,42.225547]},"properties":{"ele":"4012.1","natural":"peak"}}
{"type":"Feature","geometry":{"type":"Point","coordinates":[70.9097941,42.226767]},"properties":{"natural":"peak"}}
{"type":"Feature","geometry":{"type":"Point","coordinates":[70.926506,42.237537]},"properties":{"ele":"3807.1","natural":"peak"}}
{"type":"Feature","geometry":{"type":"Point","coordinates":[70.893859,42.362796]},"properties":{"ele":"3967.1","natural":"peak"}}
{"type":"Feature","geometry":{"type":"Point","coordinates":[70.582407,42.0144724]},"properties":{"ele":"3417.5","man_made":"survey_point","name":"Ахчар","name:ru":"Ахчар","natural":"peak"}}
{"type":"Feature","geometry":{"type":"Point","coordinates":[70.574722,42.108638]},"properties":{"ele":"3766.5","man_made":"survey_point","name":"Аютор","natural":"peak"}}
{"type":"Feature","geometry":{"type":"Point","coordinates":[69.8300347,41.7164432]},"properties":{"ele":"2823.8","name":"Мингбулак","name:en":"Mingbulak","name:ru":"Мингбулак","natural":"peak"}}
{"type":"Feature","geometry":{"type":"Point","coordinates":[86.8497015,50.2959884]},"properties":{"natural":"peak"}}
{"type":"Feature","geometry":{"type":"Point","coordinates":[86.8574166,50.3271077]},"properties":{"natural":"peak"}}
{"type":"Feature","geometry":{"type":"Point","coordinates":[69.7752429,23.2807484]},"properties":{"natural":"peak"}}
{"type":"Feature","geometry":{"type":"Point","coordinates":[114.3414593,22.4736804]},"properties":{"alt_name":"南風山頂 Nam Fung Shan Teng","alt_name:en":"Nam Fung Shan Teng","alt_name:zh":"南風山頂","ele":"88","loc_name":"大嶺 Tai Leng","loc_name:en":"Tai Leng","loc_name:zh":"大嶺","name":"望樓仔 Mong Lau Tsai","name:en":"Mong Lau Tsai","name:zh":"望樓仔","natural":"peak"}}
{"type":"Feature","geometry":{"type":"Point","coordinates":[114.2920055,22.2550706]},"properties":{"alt_name":"雞乸山 Kai Na Shan","alt_name:en":"Kai Na Shan","alt_name:zh":"雞乸山","ele":"86","name":"上角頂 Sheung Kok Teng","name:en":"Sheung Kok Teng","name:zh":"上角頂","name:zh-Hans":"上角顶","name:zh-Hant":"上角頂","natural":"peak"}}
{"type":"Feature","geometry":{"type":"Point","coordinates":[134.8949585,49.0387793]},"properties":{"ele":"309","name":"г. Одинокая","natural":"peak"}}
{"type":"Feature","geometry":{"type":"Point","coordinates":[134.8053513,49.0151363]},"properties":{"ele":"298","name":"г. Пимако","natural":"peak"}}
{"type":"Feature","geometry":{"type":"Point","coordinates":[134.9208107,48.9056559]},"properties":{"ele":"102","natural":"peak"}}
{"type":"Feature","geometry":{"type":"Point","coordinates":[114.2937599,22.2691126]},"properties":{"ele":"124","name":"地堂頂 Tei Tong Teng","name:en":"Tei Tong Teng","name:zh":"地堂頂","name:zh-Hans":"地堂顶","name:zh-Hant":"地堂頂","natural":"peak","old_name":"北堂山"}}
{"type":"Feature","geometry":{"type":"Point","coordinates":[35.8553301,33.0074354]},"properties":{"alt_name":"تلول حمور","ele":"858","int_name":"Tloul Hmour, Tloul Hmoûr, Tulūl Ḩumūr","is_in":"Syria, الجمهورية العربية السورية ، سوريا","name":"גבעות חמר","name:ar":"تلول حمور","name:ar1":"تلول حمور","name:de":"Tulul Humur","name:en":"Tulul Humur","name:fr":"Tulul Humur","name:he":"גבעות חמר","natural":"peak","wikidata":"Q21586764"}}
{"type":"Feature","geometry":{"type":"Point","coordinates":[87.1838739,49.6337957]},"properties":{"ele":"2622.1","name":"Кужуртубулак","natural":"peak"}}
{"type":"Feature","geometry":{"type":"Point","coordinates":[87.6476912,49.5148301]},"properties":{"ele":"3245","name":"Майтобе","natural":"peak","old_name":"Майтубе"}}
{"type":"Feature","geometry":{"type":"Point","coordinates":[86.8755374,50.2661935]},"properties":{"natural":"peak"}}
{"type":"Feature","geometry":{"type":"Point","coordinates":[60.5897774,55.9045219]},"properties":{"ele":"384.1","name":"Успенка","name:en":"Uspenka","natural":"peak"}}
{"type":"Feature","geometry":{"type":"Point","coordinates":[131.188627,42.5771942]},"properties":{"ele":"497","name":"Туманная гора","name:en":"Tumannaya Mountain","name:ru":"Туманная гора","natural":"peak"}}
{"type":"Feature","geometry":{"type":"Point","coordinates":[135.3702897,34.9580497]},"properties":{"name":"サイノカミ峠","natural":"peak"}}
{"type":"Feature","geometry":{"type":"Point","coordinates":[128.0576232,41.9788485]},"properties":{"ele":"2528","name":"冠冕峰 제비봉","name:en":"Chebi Peak","name:ko":"제비봉","name:ru":"пик Чебибон","name:zh":"冠冕峰","name:zh-Latn-pinyin":"Guānmiǎn Fēng","natural":"peak"}}
{"type":"Feature","geometry":{"type":"Point","coordinates":[130.725464,33.483751]},"properties":{"ele":"860","int_name":"Koshosan","name":"古処山","name:en":"Mt. Kosho","name:ja-Latn":"Koshosan","natural":"peak","source":"GPS","wikidata":"Q11410960","wikipedia":"ja:古処山"}}
{"type":"Feature","geometry":{"type":"Point","coordinates":[114.6304007,22.4671986]},"properties":{"name":"马山顶","name:en":"Mǎshān Peak","name:fr":"Sommet Mǎshān","name:zh":"马山顶","name:zh-Latn-pinyin":"Mǎshān dǐng","natural":"peak"}}
{"type":"Feature","geometry":{"type":"Point","coordinates":[114.6265812,22.4585925]},"properties":{"name":"高山角","natural":"peak"}}
{"type":"Feature","geometry":{"type":"Point","coordinates":[114.6316023,22.4700143]},"properties":{"name":"白角头","natural":"peak"}}
{"type":"Feature","geometry":{"type":"Point","coordinates":[121.1376279,24.7651451]},"properties":{"ele":"469.6","name":"下橫坑山","name:zh":"下橫坑山","natural":"peak","source":"NLSC","wikidata":"Q31608889"}}
{"type":"Feature","geometry":{"type":"Point","coordinates":[67.8801777,40.1080967]},"properties":{"ele":"385","man_made":"survey_point","natural":"peak"}}
{"type":"Feature","geometry":{"type":"Point","coordinates":[150.2494319,61.3939354]},"properties":{"name":"Бол. Чалбыкан","natural":"peak"}}
{"type":"Feature","geometry":{"type":"Point","coordinates":[150.0960406,61.8004233]},"properties":{"ele":"2195.7","natural":"peak"}}
{"type":"Feature","geometry":{"type":"Point","coordinates":[149.3316436,61.9834424]},"properties":{"ele":"2286","name":"Пик Абориге́н","name:ru":"Пик Абориге́н","natural":"peak","wikidata":"Q359338","wikipedia":"ru:Абориген (пик)"}}
{"type":"Feature","geometry":{"type":"Point","coordinates":[58.3168875,52.9927746]},"properties":{"ele":"950","name":"Куянташ","natural":"peak"}}
{"type":"Feature","geometry":{"type":"Point","coordinates":[114.5438048,22.5250945]},"properties":{"alt_name":"大鵬山","ele":"869.7","name":"七娘山","name:zh-Latn-pinyin":"qīniáng shān","natural":"peak","wikidata":"Q9378061","wikipedia":"zh:七娘山"}}
{"type":"Feature","geometry":{"type":"Point","coordinates":[114.5729589,22.5137233]},"properties":{"ele":"658","name":"三角山","name:en":"Mt. Triangle","natural":"peak"}}
{"type":"Feature","geometry":{"type":"Point","coordinates":[138.1716176,35.8963311]},"properties":{"ele":"1955","name":"入笠山","name:en":"Mt. Nyugasa","name:ja":"入笠山","name:ja-Hira":"にゅうがさやま","name:ja-Latn":"Nyūkasayama","natural":"peak","source":"http://www.gpsies.com/map.do?fileId=rqkqvzhbbypoklzm","wikidata":"Q11389007","wikipedia":"ja:入笠山"}}
{"type":"Feature","geometry":{"type":"Point","coordinates":[68.5346507,39.9075579]},"properties":{"ele":"956.5","name":"Рамазан","name:en":"Ramazan","name:ru":"Рамазан","natural":"peak"}}
{"type":"Feature","geometry":{"type":"Point","coordinates":[110.4537495,1.7191369]},"properties":{"name":"Bukit Tambi","name:en":"Tambi Hill","name:ms":"Bukit Tambi","natural":"peak"}}
{"type":"Feature","geometry":{"type":"Point","coordinates":[138.3394764,34.9778412]},"properties":{"ele":"43","name":"木枯らしの森","natural":"peak"}}
{"type":"Feature","geometry":{"type":"Point","coordinates":[103.7794937,1.3786983]},"properties":{"name":"Gangsa Hill","natural":"peak"}}
{"type":"Feature","geometry":{"type":"Point","coordinates":[-169.0669967,65.7748312]},"properties":{"ele":"505","name":"Крыша","natural":"peak","wikidata":"Q4243038","wikipedia":"ru:Крыша (гора)"}}
{"type":"Feature","geometry":{"type":"Point","coordinates":[136.6662829,35.0715327]},"properties":{"comment":"GSImaps/std is used for elevation.","ele":"88.3","name":"高塚山","natural":"peak","note":"estimated","source":"Bing;GSI/KIBAN 25000;finds.jp"}}
{"type":"Feature","geometry":{"type":"Point","coordinates":[113.9209711,22.2514954]},"properties":{"alt_name":"鳳髻","alt_name:zh":"鳳髻","ele":"820","landform":"peak","name":"羅漢塔 Lo Han Tower","name:en":"Lo Han Tower","name:yue":"羅漢塔","name:yue-Latn":"Law Hon Tap","name:zh":"羅漢塔","natural":"peak"}}
{"type":"Feature","geometry":{"type":"Point","coordinates":[40.9228563,43.6787285]},"properties":{"ele":"2871","natural":"peak"}}
{"type":"Feature","geometry":{"type":"Point","coordinates":[109.2192461,26.0154676]},"properties":{"natural":"peak"}}
{"type":"Feature","geometry":{"type":"Point","coordinates":[137.849165,35.651714]},"properties":{"ele":"1849","natural":"peak"}}
{"type":"Feature","geometry":{"type":"Point","coordinates":[58.289002,61.148751]},"properties":{"alt_name":"Ямжачная Парма","alt_name:en":"Yamzhachnaya Parma","gns:dsg":"UPLD: upland","gns:ufi":"-3038812","name":"Возвышенность Ямжачная Парма","name:en":"Vozvyshennost' Yamzhachnaya Parma","name:ru":"Возвышенность Ямжачная Парма","natural":"peak","source":"NGA GNS"}}
{"type":"Feature","geometry":{"type":"Point","coordinates":[58.289994,59.667719]},"properties":{"ele":"598","gns:dsg":"MT: mountain","gns:ufi":"8028973","name":"Абия","name:en":"Gora Abiya","name:ru":"Абия","natural":"peak","source":"NGA GNS"}}
{"type":"Feature","geometry":{"type":"Point","coordinates":[59.185834,60.5877221]},"properties":{"ele":"1085.4","gns:dsg":"MT: mountain","gns:ufi":"270927","name":"Белый Камень","name:en":"Gora Belyy Kamen'","name:ru":"Белый Камень","natural":"peak","source":"NGA GNS"}}
{"type":"Feature","geometry":{"type":"Point","coordinates":[59.090556,58.391389]},"properties":{"gns:dsg":"MT: mountain","gns:ufi":"9238750","name":"Ближняя Кырма","name:en":"Blizhnyaya Kyrma","name:ru":"Ближняя Кырма","natural":"peak","source":"NGA GNS"}}
{"type":"Feature","geometry":{"type":"Point","coordinates":[59.0221129,58.5745668]},"properties":{"ele":"541","gns:dsg":"MT: mountain","gns:ufi":"9238781","name":"Вижайский Камень","name:en":"Vizhayskiy Kamen'","name:ru":"Вижайский Камень","natural":"peak","source":"NGA GNS"}}
{"type":"Feature","geometry":{"type":"Point","coordinates":[58.7258277,60.2015874]},"properties":{"alt_name:en":"Vogul'skiy Kamen'","ele":"1066","gns:dsg":"MT: mountain","gns:ufi":"-3034166","name":"Вогульский Камень","name:en":"Gora Vogul'skiy Kamen'","name:ru":"Вогульский Камень","natural":"peak","source":"NGA GNS"}}
{"type":"Feature","geometry":{"type":"Point","coordinates":[58.415833,60.428333]},"properties":{"gns:dsg":"MT: mountain","gns:ufi":"270885","name":"Золотой Камень","name:en":"Gora Zolotoy Kamen'","name:ru":"Золотой Камень","natural":"peak","source":"NGA GNS"}}
{"type":"Feature","geometry":{"type":"Point","coordinates":[58.6746227,59.9555348]},"properties":{"ele":"883","gns:dsg":"MT: mountain","gns:ufi":"8028968","name":"Кваркуш","name:en":"Gora Kvarkush","name:ru":"Кваркуш","natural":"peak","source":"NGA GNS"}}
{"type":"Feature","geometry":{"type":"Point","coordinates":[58.853898,59.916946]},"properties":{"gns:dsg":"MT: mountain","gns:ufi":"8028966","name:en":"Kozmer","name:ru":"Козмер","natural":"peak","source":"NGA GNS","was:name":"Козмер"}}
{"type":"Feature","geometry":{"type":"Point","coordinates":[59.100833,58.268611]},"properties":{"alt_name":"Гора Копна","ele":"613","gns:dsg":"MT: mountain","gns:ufi":"-2932769","name":"Копна","name:en":"Gora Kopna","name:ru":"Копна","natural":"peak","source":"NGA GNS"}}
{"type":"Feature","geometry":{"type":"Point","coordinates":[58.014541,59.547677]},"properties":{"gns:dsg":"MT: mountain","gns:ufi":"8028974","name":"Молчанский Камень","name:en":"Molchanskiy Kamen'","name:ru":"Молчанский Камень","natural":"peak","source":"NGA GNS"}}
{"type":"Feature","geometry":{"type":"Point","coordinates":[59.021906,59.003592]},"properties":{"ele":"744","gns:dsg":"MT: mountain","gns:ufi":"10219291","name":"Пальничная","name:en":"Gora Pal'nichnaya","name:ru":"Пальничная","natural":"peak","source":"NGA GNS"}}
{"type":"Feature","geometry":{"type":"Point","coordinates":[59.266111,58.414444]},"properties":{"alt_name":"Гора Подпора","ele":"512","gns:dsg":"MT: mountain","gns:ufi":"9238758","name":"Подпора","name:en":"Gora Podpora","name:ru":"Подпора","natural":"peak","source":"NGA GNS"}}
{"type":"Feature","geometry":{"type":"Point","coordinates":[57.5855623,60.3158903]},"properties":{"alt_name":"Колчимский Камень","ele":"781","gns:dsg":"MT: mountain","gns:ufi":"270844","name":"Помяненный Камень","name:en":"Pomyanennyy Kamen'","name:ru":"Помяненный Камень","natural":"peak","source":"NGA GNS"}}
{"type":"Feature","geometry":{"type":"Point","coordinates":[59.2484361,58.6802646]},"properties":{"ele":"501","gns:dsg":"MT: mountain","gns:ufi":"9238911","name":"Пономарёва Грива","name:en":"Ponomaryova Griva","name:ru":"Пономарёва Грива","natural":"peak","source":"NGA GNS"}}
{"type":"Feature","geometry":{"type":"Point","coordinates":[59.3442455,61.0201538]},"properties":{"ele":"932","gns:dsg":"MT: mountain","gns:ufi":"260376","name":"Пятый Тумп","name:en":"Pyatyy Tump","name:ru":"Пятый Тумп","natural":"peak","source":"NGA GNS"}}
{"type":"Feature","geometry":{"type":"Point","coordinates":[58.839,58.6007]},"properties":{"ele":"646","gns:dsg":"MT: mountain","gns:ufi":"11306556","name":"Рассоха","name:en":"Rassokha","name:ru":"Рассоха","natural":"peak","source":"NGA GNS","website":"http://enc.permculture.ru/showObject.do?object=1804043230"}}
{"type":"Feature","geometry":{"type":"Point","coordinates":[57.2007,58.6066]},"properties":{"gns:dsg":"MT: mountain","gns:ufi":"11306325","name":"Стопка","name:en":"Stopka","name:ru":"Стопка","natural":"peak","source":"NGA GNS"}}
{"type":"Feature","geometry":{"type":"Point","coordinates":[58.7657743,58.9124055]},"properties":{"ele":"860.2","gns:dsg":"MT: mountain","gns:ufi":"378460","name":"Хариусный Камень","name:en":"Khariusnyy Kamen'","name:ru":"Хариусный Камень","natural":"peak","source":"NGA GNS"}}
{"type":"Feature","geometry":{"type":"Point","coordinates":[58.224875,59.370305]},"properties":{"gns:dsg":"MT: mountain","gns:ufi":"8028979","name":"Шелудяк","name:en":"Sheludyak","name:ru":"Шелудяк","natural":"peak","source":"NGA GNS"}}
{"type":"Feature","geometry":{"type":"Point","coordinates":[58.974086,60.732725]},"properties":{"alt_name":"Юбрышка","alt_name:en":"Gora Yubryshka","ele":"855","gns:dsg":"MT: mountain","gns:ufi":"-3042243","name":"Южная Юбрышка","name:en":"Gora Yuzhnaya Yubryshka","name:ru":"Южная Юбрышка","natural":"peak","source":"NGA GNS"}}
{"type":"Feature","geometry":{"type":"Point","coordinates":[59.1347188,61.1404508]},"properties":{"alt_name":"Гора Иширим","alt_name:en":"Gora Ishirim","ele":"1331","gns:dsg":"MT: mountain","gns:ufi":"-2916414","name":"Ишерим","name:en":"Gora Isherim","name:ru":"Ишерим","natural":"peak","source":"NGA GNS"}}
{"type":"Feature","geometry":{"type":"Point","coordinates":[58.0569952,58.2308081]},"properties":{"alt_name":"Камень Плакун","alt_name:en":"Kamen' Plakun","gns:dsg":"RK: rock","gns:ufi":"-2893078","name":"Камень Боюн","name:en":"Kamen' Boyun","name:ru":"Камень Боюн","natural":"peak","source":"NGA GNS"}}
{"type":"Feature","geometry":{"type":"Point","coordinates":[59.245,58.5275]},"properties":{"ele":"521","gns:dsg":"MT: mountain","gns:ufi":"9238778","name":"Кварцевая","name:en":"Gora Kvartsevaya","name:ru":"Кварцевая","natural":"peak","source":"NGA GNS"}}
{"type":"Feature","geometry":{"type":"Point","coordinates":[59.1815512,58.6155706]},"properties":{"ele":"614","gns:dsg":"MT: mountain","gns:ufi":"378505","name":"Колпаки","name:en":"Gora Kolpaki","name:ru":"Колпаки","natural":"peak","source":"NGA GNS"}}
{"type":"Feature","geometry":{"type":"Point","coordinates":[59.045919,59.185878]},"properties":{"ele":"851","gns:dsg":"MT: mountain","gns:ufi":"8029033","name":"Лялинский Камень","name:en":"Gora Lyalinskiy Kamen'","name:ru":"Лялинский Камень","natural":"peak","source":"NGA GNS"}}
{"type":"Feature","geometry":{"type":"Point","coordinates":[59.121456,58.972112]},"properties":{"alt_name":"Гора Магдалинский Увал","alt_name:en":"Gora Magdalinskiy Uval","ele":"757.7","gns:dsg":"MT: mountain","gns:ufi":"9238904","name":"Магдалинский Камень","name:en":"Gora Magdalinskiy Kamen'","name:ru":"Магдалинский Камень","natural":"peak","source":"NGA GNS"}}
{"type":"Feature","geometry":{"type":"Point","coordinates":[59.2313765,60.9242564]},"properties":{"ele":"1130","gns:dsg":"MT: mountain","gns:ufi":"-2954769","name":"Мартай","name:en":"Gora Martay","name:ru":"Мартай","natural":"peak","source":"NGA GNS"}}
{"type":"Feature","geometry":{"type":"Point","coordinates":[58.235854,59.22848]},"properties":{"ele":"773","gns:dsg":"MT: mountain","gns:ufi":"-2972294","name":"Няровский Камень","name:en":"Gora Nyarovskiy Kamen'","name:ru":"Няровский Камень","natural":"peak","source":"NGA GNS"}}
{"type":"Feature","geometry":{"type":"Point","coordinates":[58.5491424,59.1641895]},"properties":{"ele":"1119","gns:dsg":"MT: mountain","gns:ufi":"-2975938","name":"Ослянка","name:en":"Gora Oslyanka","name:ru":"Ослянка","natural":"peak","source":"NGA GNS","wikidata":"Q919151","wikipedia":"ru:Ослянка"}}
{"type":"Feature","geometry":{"type":"Point","coordinates":[57,60.566667]},"properties":{"gns:dsg":"RDGE: ridge(s)","gns:ufi":"-2985974","name":"Полюдов Кряж","name:en":"Polyudov Kryazh","name:ru":"Полюдов Кряж","natural":"peak","source":"NGA GNS"}}
{"type":"Feature","geometry":{"type":"Point","coordinates":[57.8188,58.3895]},"properties":{"gns:dsg":"RK: rock","gns:ufi":"11306417","name":"Скала Дыроватовка","name:en":"Skala Dyrovatovka","name:ru":"Скала Дыроватовка","natural":"peak","source":"NGA GNS"}}
{"type":"Feature","geometry":{"type":"Point","coordinates":[57.5032223,58.6241898]},"properties":{"gns:dsg":"RK: rock","gns:ufi":"11306328","name":"Скала Камень Омут","name:en":"Skala Kamen' Omut","name:ru":"Скала Камень Омут","natural":"peak","source":"NGA GNS"}}
{"type":"Feature","geometry":{"type":"Point","coordinates":[57.4930248,58.6277065]},"properties":{"gns:dsg":"RK: rock","gns:ufi":"11306327","name":"Скала Камень Стрельный","name:en":"Skala Kamen' Strel'nyy","name:ru":"Скала Камень Стрельный","natural":"peak","source":"NGA GNS"}}
{"type":"Feature","geometry":{"type":"Point","coordinates":[57.816,58.41]},"properties":{"gns:dsg":"RK: rock","gns:ufi":"11306416","name":"Скала Оленек","name:en":"Skala Olenek","name:ru":"Скала Оленек","natural":"peak","source":"NGA GNS"}}
{"type":"Feature","geometry":{"type":"Point","coordinates":[57.7864,58.4028]},"properties":{"gns:dsg":"RK: rock","gns:ufi":"11306415","name":"Скала Опока","name:en":"Skala Opoka","name:ru":"Скала Опока","natural":"peak","source":"NGA GNS"}}
{"type":"Feature","geometry":{"type":"Point","coordinates":[58.4859419,58.8966283]},"properties":{"alt_name":"Гора Средний Бассег","alt_name:en":"Gora Sredniy Basseg","ele":"994","gns:dsg":"MT: mountain","gns:ufi":"-3009156","int_name":"Sredniy Baseg","name":"Средний Басег","name:en":"Gora Sredniy Baseg","name:ru":"Средний Басег","natural":"peak","source":"NGA GNS"}}
{"type":"Feature","geometry":{"type":"Point","coordinates":[58.5,58.833333]},"properties":{"alt_name":"Хребет Бассеги","alt_name:en":"Khrebet Bassegi","gns:dsg":"MTS: mountains","gns:ufi":"-2882633","name":"Хребет Басеги","name:en":"Khrebet Basegi","name:ru":"Хребет Басеги","natural":"peak","source":"NGA GNS"}}
{"type":"Feature","geometry":{"type":"Point","coordinates":[57.851663,59.101346]},"properties":{"gns:dsg":"MTS: mountains","gns:ufi":"-2884731","name":"Хребет Белый Спой","name:en":"Khrebet Belyy Spoy","name:ru":"Хребет Белый Спой","natural":"peak","source":"NGA GNS"}}
{"type":"Feature","geometry":{"type":"Point","coordinates":[58.994393,60.916734]},"properties":{"gns:dsg":"MTS: mountains","gns:ufi":"-2900023","name":"Хребет Чувальский Камень","name:en":"Khrebet Chuval'skiy Kamen'","name:ru":"Хребет Чувальский Камень","natural":"peak","source":"NGA GNS"}}
{"type":"Feature","geometry":{"type":"Point","coordinates":[59.1351689,61.5400376]},"properties":{"natural":"peak"}}
{"type":"Feature","geometry":{"type":"Point","coordinates":[58.468572,58.814125]},"properties":{"ele":"635","gns:dsg":"MTS: mountains","gns:ufi":"378405","int_name":"Yuzhnyye Baseg","name":"Южные Басеги","name:en":"Gory Yuzhnyye Basegi","name:ru":"Южные Басеги","natural":"peak","source":"NGA GNS"}}
{"type":"Feature","geometry":{"type":"Point","coordinates":[131.773611,44.340556]},"properties":{"fixme":"resurvey","gns:dsg":"MT: mountain","gns:ufi":"9157234","name":"Каменная","name:ru":"Каменная","natural":"peak","source":"NGA GNS"}}
{"type":"Feature","geometry":{"type":"Point","coordinates":[114.2603736,22.1640874]},"properties":{"alt_name":"磨石頂 Mo Shek Teng; 磨刀石頂 Mo To Shek Teng","alt_name:en":"Mo To Shek Teng;Mo Shek Teng","alt_name:zh":"磨刀石頂;磨石頂","ele":"188","name":"牛湖頂 Ngau Wu Teng","name:en":"Ngau Wu Teng","name:zh":"牛湖頂","natural":"peak"}}
{"type":"Feature","geometry":{"type":"Point","coordinates":[132.7881958,43.1012539]},"properties":{"alt_name":"Фалаза","alt_name:en":"peak Falaza","ele":"1279","fixme":"resurvey","gns:dsg":"MT: mountain","gns:ufi":"9263022","name":"г. Литовка (Фалаза)","name:en":"peak Litovka","name:ru":"г. Литовка (Фалаза)","natural":"peak","source":"NGA GNS","website":"http://primedance.ru/photo/prim/falaza/"}}
{"type":"Feature","geometry":{"type":"Point","coordinates":[134.433578,43.736762]},"properties":{"ele":"1682","fixme":"resurvey","gns:dsg":"MT: mountain","gns:ufi":"-3006332","name":"гора Снежная","name:en":"Snezhnaya","name:ru":"Снежная гора","natural":"peak","source":"NGA GNS"}}
{"type":"Feature","geometry":{"type":"Point","coordinates":[76.6703937,12.2724017]},"properties":{"ele":"1063","name":"Chamundi Hill","name:kn":"ಚಾಮುಂಡಿ ಬೆಟ್ಟ","name:ml":"ചാമുണ്ഡി മല","natural":"peak","tourism":"viewpoint"}}
{"type":"Feature","geometry":{"type":"Point","coordinates":[55.669444,59.25]},"properties":{"gns:dsg":"HLL: hill","gns:ufi":"283321","name":"Лёквож","name:en":"Lekvozh","name:ru":"Лёквож","natural":"peak","source":"NGA GNS"}}
{"type":"Feature","geometry":{"type":"Point","coordinates":[60.0389168,57.2376173]},"properties":{"natural":"peak"}}
{"type":"Feature","geometry":{"type":"Point","coordinates":[60.0406325,57.2378193]},"properties":{"natural":"peak"}}
{"type":"Feature","geometry":{"type":"Point","coordinates":[60.0400624,57.2382769]},"properties":{"natural":"peak"}}
{"type":"Feature","geometry":{"type":"Point","coordinates":[77.5487892,12.8926203]},"properties":{"name":"Vaikunta Hill","name:kn":"ವೈಕುಂಠ","natural":"peak"}}
{"type":"Feature","geometry":{"type":"Point","coordinates":[77.7497714,12.9755872]},"properties":{"name":"Kaolin Hill","natural":"peak"}}
{"type":"Feature","geometry":{"type":"Point","coordinates":[55.755556,59.309722]},"properties":{"gns:dsg":"HLL: hill","gns:ufi":"283331","name":"Березовка Северная","name:en":"Berezovka Severnaya","name:ru":"Березовка Северная","natural":"peak","source":"NGA GNS"}}
{"type":"Feature","geometry":{"type":"Point","coordinates":[116.9912267,28.0678817]},"properties":{"name":"龙虎山","name:de":"Longhu Shan","name:en":"Mount Longhu","name:fr":"Mont Longhu","name:ru":"Лунхушань","name:uk":"Лунхушань","name:vi":"Long Hổ Sơn","name:zh":"龙虎山","natural":"peak","wikidata":"Q915410","wikipedia":"zh:龙虎山"}}
{"type":"Feature","geometry":{"type":"Point","coordinates":[89.2854122,53.7978595]},"properties":{"ele":"1793.5","name":"пик Харлыгколь","natural":"peak"}}
{"type":"Feature","geometry":{"type":"Point","coordinates":[59.4068995,55.3916561]},"properties":{"ele":"610","int_name":"Kopanets","name":"Копанец","name:en":"Kopanets","natural":"peak","wikidata":"Q31580323"}}
{"type":"Feature","geometry":{"type":"Point","coordinates":[137.2966667,50.7166667]},"properties":{"ele":"218","natural":"peak","tourism":"attraction"}}
{"type":"Feature","geometry":{"type":"Point","coordinates":[136.229768,34.491943]},"properties":{"ele":"1021","name":"学能堂山","natural":"peak","wikidata":"Q96920496","wikipedia":"ja:学能堂山"}}
{"type":"Feature","geometry":{"type":"Point","coordinates":[59.1354836,56.462257]},"properties":{"name":"Воронина","natural":"peak"}}
{"type":"Feature","geometry":{"type":"Point","coordinates":[59.0051193,54.6149645]},"properties":{"ele":"1206","name":"Большая Ягодная","natural":"peak"}}
{"type":"Feature","geometry":{"type":"Point","coordinates":[59.0821248,54.6142505]},"properties":{"ele":"1053","name":"Караайгыр","natural":"peak"}}
{"type":"Feature","geometry":{"type":"Point","coordinates":[59.0660717,54.6411851]},"properties":{"ele":"1122","natural":"peak"}}
{"type":"Feature","geometry":{"type":"Point","coordinates":[67.381706,37.316233]},"properties":{"ele":"128.4","gns:dsg":"MND: mound(s)","gns:ufi":"11295133","man_made":"survey_point","name":"Soyat qo'rg'oni","name:en":"Sayat kurgan","name:ru":"Соят курган","natural":"peak","source":"NGA GNS"}}
{"type":"Feature","geometry":{"type":"Point","coordinates":[67.3690631,37.2465444]},"properties":{"gns:dsg":"MND: mound(s)","gns:ufi":"9110538","name":"Maslahattepa Qo'rg'oni","name:en":"Kurgаn Mаslакhаttеpа","name:ru":"Курган Маслахаттепа","natural":"peak","source":"NGA GNS"}}
{"type":"Feature","geometry":{"type":"Point","coordinates":[67.791389,37.307222]},"properties":{"gns:dsg":"MT: mountain","gns:ufi":"9114353","name":"Otboshi to'g cho'qqisi","name:en":"Gora Atbashi","name:ru":"Гора Атбаши","natural":"peak","source":"NGA GNS"}}
{"type":"Feature","geometry":{"type":"Point","coordinates":[67.706111,37.316111]},"properties":{"gns:dsg":"MTS: mountains","gns:ufi":"9110450","name":"Горы Каргалы","name:en":"Gory Kargaly","name:ru":"Горы Каргалы","natural":"peak","source":"NGA GNS"}}
{"type":"Feature","geometry":{"type":"Point","coordinates":[67.740833,37.341944]},"properties":{"gns:dsg":"MT: mountain","gns:ufi":"9110479","name":"Гора Гиварали","name:en":"Gora Givarali","name:ru":"Гора Гиварали","natural":"peak","source":"NGA GNS"}}
{"type":"Feature","geometry":{"type":"Point","coordinates":[67.671111,37.363333]},"properties":{"gns:dsg":"MT: mountain","gns:ufi":"9110484","name":"Гора Чалап","name:en":"Gora Chalap","name:ru":"Гора Чалап","natural":"peak","source":"NGA GNS"}}
{"type":"Feature","geometry":{"type":"Point","coordinates":[67.609722,37.342778]},"properties":{"gns:dsg":"PASS: pass","gns:ufi":"9110481","name":"Перевал Актау","name:en":"Pereval Aktau","name:ru":"Перевал Актау","natural":"peak","source":"NGA GNS"}}
{"type":"Feature","geometry":{"type":"Point","coordinates":[67.449722,37.325278]},"properties":{"alt_name":"Гора Джайран-Хана","alt_name:en":"Gora Dzhayran-Khana","ele":"425.1","gns:dsg":"MT: mountain","gns:ufi":"-2576268","man_made":"survey_point","name":"Gоrа Dzhеуrаnкhаnа","name:ru":"гора Джейранхана","natural":"peak","source":"NGA GNS"}}
{"type":"Feature","geometry":{"type":"Point","coordinates":[67.461389,37.389722]},"properties":{"alt_name":"Гора Кизыл-Мазар;Гора Кызул-Мазар","alt_name:en":"Gora Kizyl-Mazar;Gora Kyzul-Mazar","ele":"482.1","gns:dsg":"MT: mountain","gns:ufi":"-2577921","man_made":"survey_point","name":"Qizilmozor cho'qqisi","name:en":"Gora Kyzylmazar","name:ru":"Гора Кызылмазар","natural":"peak","source":"NGA GNS"}}
{"type":"Feature","geometry":{"type":"Point","coordinates":[118.8619788,30.1011923]},"properties":{"ele":"1787.4","name":"清凉峰","name:en":"Qingliang Feng","name:zh":"清凉峰","natural":"peak","tourism":"viewpoint","wikidata":"Q28411283","wikipedia":"zh:清凉峰"}}
{"type":"Feature","geometry":{"type":"Point","coordinates":[68.4719033,40.1212249]},"properties":{"ele":"421.8","man_made":"survey_point","name":"Каратепа","name:ru":"Каратепа","natural":"peak"}}
{"type":"Feature","geometry":{"type":"Point","coordinates":[36.811138,32.4088245]},"properties":{"name":"تل أبطح","name:ar":"تل أبطح","name:de":"Tell Abtah","name:en":"Tell Abtah","name:fr":"Tell Abtah","natural":"peak"}}
{"type":"Feature","geometry":{"type":"Point","coordinates":[55.452778,59.188889]},"properties":{"gns:dsg":"HLL: hill","gns:ufi":"282833","name":"Комсомольский","name:en":"Komsomol'skiy","name:ja":"コムソモリスキー","name:ru":"Комсомольский","natural":"peak","source":"NGA GNS"}}
{"type":"Feature","geometry":{"type":"Point","coordinates":[55.425,59.32]},"properties":{"gns:dsg":"HLL: hill","gns:ufi":"282839","name":"Эрна Западная","name:en":"Erna Zapadnaya","name:ru":"Эрна Западная","natural":"peak","source":"NGA GNS"}}
{"type":"Feature","geometry":{"type":"Point","coordinates":[114.2410501,22.3983434]},"properties":{"alt_name":"鹿槽山","alt_name:zh":"鹿槽山","ele":"414","loc_name":"六巢坳山 Luk Chau Au Shan","loc_name:en":"Luk Chau Au Shan","loc_name:zh":"六巢坳山","name":"鹿巢山 Luk Chau Shan","name:en":"Luk Chau Shan","name:zh":"鹿巢山","natural":"peak","reg_name":"六巢山","reg_name:zh":"六巢山"}}
{"type":"Feature","geometry":{"type":"Point","coordinates":[139.0073574,35.7548109]},"properties":{"ele":"1175","name":"糠指山","name:en":"Mt. Nukazasu","name:ja":"糠指山","name:ja-Hira":"ぬかざすやま","name:ja_kana":"ヌカザスやま","name:ja_rm":"Nukazasu-yama","natural":"peak","source":"survey"}}
{"type":"Feature","geometry":{"type":"Point","coordinates":[139.1550986,35.8586784]},"properties":{"ele":"969","name":"棒ノ嶺（棒ノ折山）","name:en":"Mount Bonoore","natural":"peak"}}
{"type":"Feature","geometry":{"type":"Point","coordinates":[122.048895,29.1715807]},"properties":{"name":"檀头山","name:vi":"Đàn Đầu San","name:zh":"檀头山","natural":"peak"}}
{"type":"Feature","geometry":{"type":"Point","coordinates":[139.2447629,35.7672764]},"properties":{"name":"馬引沢峠","natural":"peak"}}
{"type":"Feature","geometry":{"type":"Point","coordinates":[91.5158283,53.7021423]},"properties":{"alt_name":"Любви","ele":"432","name":"Самохвал","natural":"peak"}}
{"type":"Feature","geometry":{"type":"Point","coordinates":[138.4570851,36.3997995]},"properties":{"ele":"2092","name":"高峰山","natural":"peak","source":"survey"}}
{"type":"Feature","geometry":{"type":"Point","coordinates":[131.7644181,34.3816737]},"properties":{"ele":"969.4","name":"三ツヶ峰","natural":"peak","source":"GSImaps/std"}}
{"type":"Feature","geometry":{"type":"Point","coordinates":[131.758074,34.4352364]},"properties":{"ele":"640","name":"野坂山","natural":"peak"}}
{"type":"Feature","geometry":{"type":"Point","coordinates":[52.8266935,52.6192004]},"properties":{"gns:dsg":"HLL: hill","gns:ufi":"10785582","name":"Круглая","name:en":"Kruglaya","name:ru":"Круглая","natural":"peak","source":"NGA GNS"}}
{"type":"Feature","geometry":{"type":"Point","coordinates":[138.949763,35.770329]},"properties":{"ele":"1288.2","name":"鹿倉山","name:en":"Mt. Shishigura","name:ja":"鹿倉山","name:ja-Hira":"ししぐらやま","natural":"peak"}}
{"type":"Feature","geometry":{"type":"Point","coordinates":[117.6894369,40.132951]},"properties":{"description":"清东陵之朝山（陵寝正前方所对之山）","ele":"288.8","name":"金星山","name:en":"Mount Jinxing","natural":"peak"}}
{"type":"Feature","geometry":{"type":"Point","coordinates":[87.9622399,49.7811575]},"properties":{"ele":"3922","name":"Джаникту","natural":"peak","westra_ref":"9700"}}
{"type":"Feature","geometry":{"type":"Point","coordinates":[88.1263461,49.775788]},"properties":{"ele":"3861","name":"Тесьтой","natural":"peak"}}
{"type":"Feature","geometry":{"type":"Point","coordinates":[88.1222873,49.7843398]},"properties":{"ele":"3703","name":"Тымойн","natural":"peak"}}
{"type":"Feature","geometry":{"type":"Point","coordinates":[166.9236344,66.6338752]},"properties":{"ele":"1127","name":"Чимнангай","natural":"peak"}}
{"type":"Feature","geometry":{"type":"Point","coordinates":[166.4893541,66.8790529]},"properties":{"ele":"1560","name":"пик Каменный","natural":"peak"}}
{"type":"Feature","geometry":{"type":"Point","coordinates":[166.6054097,66.8326652]},"properties":{"ele":"1759","name":"пик Советской Гвардии","natural":"peak"}}
{"type":"Feature","geometry":{"type":"Point","coordinates":[164.7403066,66.4583425]},"properties":{"ele":"1134","name":"Весенняя","natural":"peak"}}
{"type":"Feature","geometry":{"type":"Point","coordinates":[164.9140181,67.450753]},"properties":{"ele":"672","name":"Плоская Нижняя","natural":"peak"}}
{"type":"Feature","geometry":{"type":"Point","coordinates":[164.820288,67.4771241]},"properties":{"ele":"637","natural":"peak"}}
{"type":"Feature","geometry":{"type":"Point","coordinates":[164.9706822,67.5291272]},"properties":{"ele":"911","natural":"peak"}}
{"type":"Feature","geometry":{"type":"Point","coordinates":[139.068526,35.510958]},"properties":{"comment":"GSImaps/std is used for elevation.","ele":"1587.4","name":"大室山","name:en":"Mt. Omuro","name:ja-Hira":"おおむろやま","name:ja-Latn":"Ōmuroyama","natural":"peak","wikidata":"Q10871840","wikipedia":"ja:大室山 (丹沢)"}}
{"type":"Feature","geometry":{"type":"Point","coordinates":[114.1305069,22.48231]},"properties":{"ele":"256","name":"箕勒仔 Kei Lak Tsai","name:en":"Kei Lak Tsai","name:zh":"箕勒仔","natural":"peak","old_name:en":"Corps Ridge","wikidata":"Q87850530"}}
{"type":"Feature","geometry":{"type":"Point","coordinates":[110.4790377,24.9258349]},"properties":{"ele":"430","name":"相公山","natural":"peak"}}
{"type":"Feature","geometry":{"type":"Point","coordinates":[56.100006,58.267269]},"properties":{"gns:dsg":"HLL: hill","gns:ufi":"10046240","name":"Зори","name:en":"Zori","name:ru":"Зори","natural":"peak","source":"NGA GNS"}}
{"type":"Feature","geometry":{"type":"Point","coordinates":[56.156264,58.219165]},"properties":{"gns:dsg":"HLL: hill","gns:ufi":"10046164","name":"Молохи","name:en":"Molokhi","name:ru":"Молохи","natural":"peak","source":"NGA GNS"}}
{"type":"Feature","geometry":{"type":"Point","coordinates":[138.8580741,35.6844729]},"properties":{"ele":"1920","name":"白谷ノ丸","natural":"peak"}}
{"type":"Feature","geometry":{"type":"Point","coordinates":[78.5122413,31.0034212]},"properties":{"natural":"peak"}}
{"type":"Feature","geometry":{"type":"Point","coordinates":[78.3849571,31.040253]},"properties":{"natural":"peak"}}
{"type":"Feature","geometry":{"type":"Point","coordinates":[-179.1180164,66.685156]},"properties":{"ele":"1162","name":"г. Валун","natural":"peak"}}
{"type":"Feature","geometry":{"type":"Point","coordinates":[-179.6990115,68.6833863]},"properties":{"ele":"709","name":"Выввыткар","natural":"peak"}}
{"type":"Feature","geometry":{"type":"Point","coordinates":[-178.3698817,68.2060025]},"properties":{"ele":"738","name":"Мэтэгын","natural":"peak"}}
{"type":"Feature","geometry":{"type":"Point","coordinates":[-178.7380202,68.5566555]},"properties":{"ele":"32","name":"Приморская","natural":"peak"}}
{"type":"Feature","geometry":{"type":"Point","coordinates":[-178.6577542,68.0665888]},"properties":{"ele":"724","name":"Солнечная","natural":"peak"}}
{"type":"Feature","geometry":{"type":"Point","coordinates":[-179.866383,68.8078163]},"properties":{"ele":"453","name":"Этакунь","natural":"peak"}}
{"type":"Feature","geometry":{"type":"Point","coordinates":[-178.7568622,68.0714835]},"properties":{"ele":"549","natural":"peak"}}
{"type":"Feature","geometry":{"type":"Point","coordinates":[-178.9098978,68.1724344]},"properties":{"ele":"624","natural":"peak"}}
{"type":"Feature","geometry":{"type":"Point","coordinates":[55.424647,57.209417]},"properties":{"gns:dsg":"HLL: hill","gns:ufi":"9241787","name":"Горюшка","name:en":"Goryushka","name:ru":"Горюшка","natural":"peak","source":"NGA GNS"}}
{"type":"Feature","geometry":{"type":"Point","coordinates":[55.473197,57.141573]},"properties":{"gns:dsg":"HLL: hill","gns:ufi":"9242040","name":"Дурыманская","name:en":"Durymanskaya","name:ru":"Дурыманская","natural":"peak","source":"NGA GNS"}}
{"type":"Feature","geometry":{"type":"Point","coordinates":[56.164987,58.116897]},"properties":{"gns:dsg":"MT: mountain","gns:ufi":"11329329","name":"Круглый Мыс","name:en":"Kruglyy Mys","name:ru":"Круглый Мыс","natural":"peak","source":"NGA GNS"}}
{"type":"Feature","geometry":{"type":"Point","coordinates":[137.829394,35.75615]},"properties":{"ele":"2440","name":"シャクナゲのピーク","name:en":"Shakunage-no Peak","natural":"peak"}}
{"type":"Feature","geometry":{"type":"Point","coordinates":[167.0604832,63.880764]},"properties":{"name":"Острая","natural":"peak"}}
{"type":"Feature","geometry":{"type":"Point","coordinates":[103.6471733,51.6076921]},"properties":{"ele":"1207","name":"Копна","name:en":"Kopna","name:ru":"Копна","natural":"peak"}}
{"type":"Feature","geometry":{"type":"Point","coordinates":[58.3324158,43.1613628]},"properties":{"addr:country":"UZ","addr:region":"Qaraqalpaqstan Respublikası","ele":"122","gns:dsg":"MT: mountain","gns:ufi":"11190281","man_made":"survey_point","name":"Акшолак","name:en":"Aqsho'laqTog'","name:ru":"Акшолак","natural":"peak","source":"NGA GNS"}}
{"type":"Feature","geometry":{"type":"Point","coordinates":[56.086046,56.698206]},"properties":{"gns:dsg":"MT: mountain","gns:ufi":"10272053","name":"Капканская","name:en":"Kapkanskaya","name:ru":"Капканская","natural":"peak","source":"NGA GNS"}}
{"type":"Feature","geometry":{"type":"Point","coordinates":[92.6041294,55.9783416]},"properties":{"ele":"461","name":"Акта","natural":"peak"}}
{"type":"Feature","geometry":{"type":"Point","coordinates":[54.8407,57.4179]},"properties":{"gns:dsg":"HLL: hill","gns:ufi":"10303325","name":"Липовая","name:en":"Gora Lipovaya","name:ru":"Липовая","natural":"peak","source":"NGA GNS"}}
{"type":"Feature","geometry":{"type":"Point","coordinates":[42.5594529,42.6248716]},"properties":{"ele":"2143","natural":"peak"}}
{"type":"Feature","geometry":{"type":"Point","coordinates":[42.5609148,42.6410828]},"properties":{"ele":"2237","natural":"peak"}}
{"type":"Feature","geometry":{"type":"Point","coordinates":[42.5290142,42.6624951]},"properties":{"ele":"2453","natural":"peak"}}
{"type":"Feature","geometry":{"type":"Point","coordinates":[42.4870022,42.7673347]},"properties":{"ele":"2733","name":"ლებარდე","name:en":"Lebarde","name:ka":"ლებარდე","name:ru":"Лебарде","natural":"peak"}}
{"type":"Feature","geometry":{"type":"Point","coordinates":[42.4788005,42.7725306]},"properties":{"ele":"2747","natural":"peak"}}
{"type":"Feature","geometry":{"type":"Point","coordinates":[42.437268,42.7812865]},"properties":{"ele":"2868","natural":"peak"}}
{"type":"Feature","geometry":{"type":"Point","coordinates":[42.3669461,42.8366633]},"properties":{"natural":"peak"}}
{"type":"Feature","geometry":{"type":"Point","coordinates":[42.3665012,42.8513934]},"properties":{"ele":"2672","natural":"peak"}}
{"type":"Feature","geometry":{"type":"Point","coordinates":[42.3785342,42.8648686]},"properties":{"ele":"2946","natural":"peak"}}
{"type":"Feature","geometry":{"type":"Point","coordinates":[42.3965254,42.8869487]},"properties":{"ele":"3318","name":"უსკური","name:en":"Uskuri","name:ka":"უსკური","name:ru":"Ускури","natural":"peak"}}
{"type":"Feature","geometry":{"type":"Point","coordinates":[42.4849968,42.8799771]},"properties":{"alt_name:ru":"Ускури Восточное","ele":"3271","name":"ლეშკური","name:en":"Leshkuri","name:ka":"ლეშკური","name:ru":"Лешкури","natural":"peak"}}
{"type":"Feature","geometry":{"type":"Point","coordinates":[42.4744555,42.9107167]},"properties":{"natural":"peak"}}
{"type":"Feature","geometry":{"type":"Point","coordinates":[42.4829091,42.9336987]},"properties":{"ele":"3801","name":"როჟანა","name:en":"Rozhana","name:ka":"როჟანა","name:ru":"Рожана","natural":"peak","westra_ref":"12557"}}
{"type":"Feature","geometry":{"type":"Point","coordinates":[42.515741,42.9248318]},"properties":{"ele":"3822","name":"ელექტრა ბუვოლიანი მთა","name:en":"Mt. Electra Buvoli","name:ka":"ელექტრა ბუვოლიანი მთა","name:ru":"Электра Буволиани","natural":"peak"}}
{"type":"Feature","geometry":{"type":"Point","coordinates":[42.5564696,42.9207126]},"properties":{"alt_name":"Лайла-Лехели","alt_name:ru":"Лайла-Лехели","ele":"4009","name":"ლაილა","name:en":"Laila","name:ka":"ლაილა","name:ru":"Лейла","natural":"peak","prominence":"1396"}}
{"type":"Feature","geometry":{"type":"Point","coordinates":[42.6491189,42.9071981]},"properties":{"ele":"3573","natural":"peak"}}
{"type":"Feature","geometry":{"type":"Point","coordinates":[42.6753009,42.8992763]},"properties":{"ele":"3297","natural":"peak"}}
{"type":"Feature","geometry":{"type":"Point","coordinates":[42.6948484,42.8911499]},"properties":{"ele":"3534","name":"ცარცი","name:en":"Tsartsi","name:ka":"ცარცი","name:ru":"Царци","natural":"peak","westra_ref":"12256"}}
{"type":"Feature","geometry":{"type":"Point","coordinates":[42.8006795,42.921481]},"properties":{"natural":"peak"}}
{"type":"Feature","geometry":{"type":"Point","coordinates":[42.8456444,42.9065929]},"properties":{"ele":"2894","natural":"peak"}}
{"type":"Feature","geometry":{"type":"Point","coordinates":[42.9153619,42.8788309]},"properties":{"ele":"3142","int_name":"Mushuri","name":"მუშური","name:en":"Mushuri","name:ka":"მუშური","name:ru":"Мушури","natural":"peak"}}
{"type":"Feature","geometry":{"type":"Point","coordinates":[42.9573111,42.8789573]},"properties":{"natural":"peak"}}
{"type":"Feature","geometry":{"type":"Point","coordinates":[43.0951033,42.9377507]},"properties":{"ele":"3015","name":"ჩუბედიში","name:en":"Chubedishi","name:ka":"ჩუბედიში","name:ru":"Чубедиши","natural":"peak"}}
{"type":"Feature","geometry":{"type":"Point","coordinates":[43.1434123,42.9576346]},"properties":{"ele":"3879","name":"ვახუშთი","name:en":"Vakhushti","name:ka":"ვახუშთი","name:ru":"Вахушти","natural":"peak"}}
{"type":"Feature","geometry":{"type":"Point","coordinates":[54.645082,57.29531]},"properties":{"gns:dsg":"HLL: hill","gns:ufi":"10303364","name":"Ореховая","name:en":"Orekhovaya","name:ru":"Ореховая","natural":"peak","source":"NGA GNS"}}
{"type":"Feature","geometry":{"type":"Point","coordinates":[88.8780518,53.6467569]},"properties":{"ele":"886","natural":"peak"}}
{"type":"Feature","geometry":{"type":"Point","coordinates":[42.8650697,42.4911967]},"properties":{"ele":"1769","name":"თავშავა","name:en":"Tavshava","name:ka":"თავშავა","name:ru":"Тавшава","natural":"peak"}}
{"type":"Feature","geometry":{"type":"Point","coordinates":[43.3202027,42.7407952]},"properties":{"ele":"2881","name":"კვაციშხე","name:en":"Kvatsikhe","name:ru":"Квацишхе","natural":"peak"}}
{"type":"Feature","geometry":{"type":"Point","coordinates":[42.6108396,42.7075478]},"properties":{"ele":"3174","name":"ციკური","name:en":"Tsikuri","name:ka":"ციკური","name:ru":"Цикури","natural":"peak","prominence":"918","westra_ref":"12421"}}
{"type":"Feature","geometry":{"type":"Point","coordinates":[55.173641,57.214227]},"properties":{"gns:dsg":"HLL: hill","gns:ufi":"9241711","name":"Красная","name:en":"Gora Krasnaya","name:ru":"Красная","natural":"peak","source":"NGA GNS"}}
{"type":"Feature","geometry":{"type":"Point","coordinates":[128.8562013,61.1788167]},"properties":{"ele":"226","natural":"peak"}}
{"type":"Feature","geometry":{"type":"Point","coordinates":[128.6522008,61.2022694]},"properties":{"ele":"222","natural":"peak"}}
{"type":"Feature","geometry":{"type":"Point","coordinates":[129.0171345,61.2036509]},"properties":{"ele":"240","natural":"peak"}}
{"type":"Feature","geometry":{"type":"Point","coordinates":[128.8128498,61.2598933]},"properties":{"ele":"263","natural":"peak"}}
{"type":"Feature","geometry":{"type":"Point","coordinates":[129.1956738,61.3919025]},"properties":{"ele":"156","natural":"peak"}}
{"type":"Feature","geometry":{"type":"Point","coordinates":[118.7804374,31.9295614]},"properties":{"ele":"68","name":"翠屏山","natural":"peak"}}
{"type":"Feature","geometry":{"type":"Point","coordinates":[77.6723957,41.915212]},"properties":{"name":"Дружбы","natural":"peak","westra_ref":"13236"}}
{"type":"Feature","geometry":{"type":"Point","coordinates":[55.805117,57.650867]},"properties":{"ele":"351","gns:dsg":"MT: mountain","gns:ufi":"9241648","name":"Калиновая","name:en":"Kalinovaya","name:ru":"Калиновая","natural":"peak","source":"NGA GNS"}}
{"type":"Feature","geometry":{"type":"Point","coordinates":[56.027064,57.894397]},"properties":{"gns:dsg":"MT: mountain","gns:ufi":"11331242","name":"Совхозная","name:en":"Sovkhoznaya","name:ru":"Совхозная","natural":"peak","source":"NGA GNS"}}
{"type":"Feature","geometry":{"type":"Point","coordinates":[110.2991439,25.2861931]},"properties":{"name":"伏波山","name:en":"Fubo Hill","name:zh-Latn-pinyin":"fú bō shān","natural":"peak"}}
{"type":"Feature","geometry":{"type":"Point","coordinates":[138.6453403,36.4108574]},"properties":{"ele":"1655","name":"鼻曲山","natural":"peak","wikidata":"Q11679009","wikipedia":"ja:鼻曲山"}}
{"type":"Feature","geometry":{"type":"Point","coordinates":[109.1230422,14.0567931]},"properties":{"ele":"874","name":"Núi Gành","natural":"peak"}}
{"type":"Feature","geometry":{"type":"Point","coordinates":[109.1162957,14.220043]},"properties":{"ele":"602","natural":"peak"}}
{"type":"Feature","geometry":{"type":"Point","coordinates":[108.8015601,14.2461796]},"properties":{"ele":"965","name":"Núi Bóc Bang","natural":"peak"}}
{"type":"Feature","geometry":{"type":"Point","coordinates":[108.9744374,14.2539721]},"properties":{"ele":"702","name":"Hòn Giang","natural":"peak","wikidata":"Q31634408"}}
{"type":"Feature","geometry":{"type":"Point","coordinates":[108.8992063,14.1325619]},"properties":{"ele":"912","name":"Hòn Nọc","natural":"peak","wikidata":"Q31634279"}}
{"type":"Feature","geometry":{"type":"Point","coordinates":[108.2850221,14.7648335]},"properties":{"alt_name":"Núi Ngoc Bóc","ele":"1757","name":"Núi Ngok Bóc","natural":"peak"}}
{"type":"Feature","geometry":{"type":"Point","coordinates":[108.8228785,14.5448851]},"properties":{"ele":"1012","natural":"peak"}}
{"type":"Feature","geometry":{"type":"Point","coordinates":[108.7132075,14.6334087]},"properties":{"ele":"1080","name":"Núi Làng Rầm","natural":"peak"}}
{"type":"Feature","geometry":{"type":"Point","coordinates":[108.7097539,14.57337]},"properties":{"ele":"1202","natural":"peak"}}
{"type":"Feature","geometry":{"type":"Point","coordinates":[108.1945262,14.6294903]},"properties":{"ele":"1656","natural":"peak"}}
{"type":"Feature","geometry":{"type":"Point","coordinates":[108.6014674,14.6903662]},"properties":{"ele":"950","natural":"peak"}}
{"type":"Feature","geometry":{"type":"Point","coordinates":[108.147197,14.7159322]},"properties":{"ele":"1963","natural":"peak"}}
{"type":"Feature","geometry":{"type":"Point","coordinates":[108.126284,14.7652649]},"properties":{"alt_name":"Núi Ngoc Krinh;Núi Ngok Kring;Núi Ngoc Kring","ele":"2066","name":"Núi Ngok Krinh","natural":"peak"}}
{"type":"Feature","geometry":{"type":"Point","coordinates":[107.6253211,14.5728782]},"properties":{"ele":"833","name":"Núi Ngok Lang Grang","natural":"peak"}}
{"type":"Feature","geometry":{"type":"Point","coordinates":[107.9729757,14.5896896]},"properties":{"ele":"1061","name":"ngok Tuôn","natural":"peak"}}
{"type":"Feature","geometry":{"type":"Point","coordinates":[108.0243199,14.5642934]},"properties":{"alt_name":"Núi Ngoc Réo","ele":"1112","name":"Núi Ngok Réo","natural":"peak"}}
{"type":"Feature","geometry":{"type":"Point","coordinates":[107.7708865,14.5993256]},"properties":{"ele":"1338","natural":"peak"}}
{"type":"Feature","geometry":{"type":"Point","coordinates":[107.5553924,14.605928]},"properties":{"ele":"1022","natural":"peak"}}
{"type":"Feature","geometry":{"type":"Point","coordinates":[108.4210986,14.6118042]},"properties":{"ele":"1346","natural":"peak"}}
{"type":"Feature","geometry":{"type":"Point","coordinates":[107.9189066,14.7314215]},"properties":{"ele":"1556","natural":"peak"}}
{"type":"Feature","geometry":{"type":"Point","coordinates":[108.02973,14.7476823]},"properties":{"ele":"1467","natural":"peak"}}
{"type":"Feature","geometry":{"type":"Point","coordinates":[108.4886122,14.5460728]},"properties":{"ele":"1452","natural":"peak"}}
{"type":"Feature","geometry":{"type":"Point","coordinates":[108.5124017,14.2984606]},"properties":{"ele":"1064","name":"Núi Kon K'Bang","natural":"peak"}}
{"type":"Feature","geometry":{"type":"Point","coordinates":[108.3975767,14.3209988]},"properties":{"ele":"1748","name":"Núi Kon Ka Kinh","natural":"peak"}}
{"type":"Feature","geometry":{"type":"Point","coordinates":[108.8995987,14.3594708]},"properties":{"ele":"484","natural":"peak"}}
{"type":"Feature","geometry":{"type":"Point","coordinates":[108.8323225,14.3533577]},"properties":{"ele":"686","natural":"peak"}}
{"type":"Feature","geometry":{"type":"Point","coordinates":[108.3593054,14.5659874]},"properties":{"alt_name":"Núi Ngoc Rô;Núi Ngok Roo;Núi Ngoc Roo","ele":"1549","name":"Núi Ngok Rô","natural":"peak"}}
{"type":"Feature","geometry":{"type":"Point","coordinates":[108.2290124,14.3962196]},"properties":{"ele":"1338","natural":"peak"}}
{"type":"Feature","geometry":{"type":"Point","coordinates":[108.29968,14.3990251]},"properties":{"ele":"1488","natural":"peak"}}
{"type":"Feature","geometry":{"type":"Point","coordinates":[108.5981979,14.4060647]},"properties":{"ele":"932","natural":"peak"}}
{"type":"Feature","geometry":{"type":"Point","coordinates":[108.1256228,14.5456707]},"properties":{"ele":"1353","natural":"peak"}}
{"type":"Feature","geometry":{"type":"Point","coordinates":[108.7496349,14.3910232]},"properties":{"ele":"864","natural":"peak"}}
{"type":"Feature","geometry":{"type":"Point","coordinates":[108.039599,14.2769855]},"properties":{"ele":"1152","name":"Núi Chư Hreng","natural":"peak"}}
{"type":"Feature","geometry":{"type":"Point","coordinates":[108.2008095,14.2841185]},"properties":{"ele":"1208","natural":"peak"}}
{"type":"Feature","geometry":{"type":"Point","coordinates":[60.3866994,56.870052]},"properties":{"loc_name":"Каменная чаша","natural":"peak"}}
{"type":"Feature","geometry":{"type":"Point","coordinates":[74.4064566,42.5963447]},"properties":{"ele":"3760","natural":"peak"}}
{"type":"Feature","geometry":{"type":"Point","coordinates":[74.4135383,42.563391]},"properties":{"ele":"4017","natural":"peak"}}
{"type":"Feature","geometry":{"type":"Point","coordinates":[74.4171864,42.5724417]},"properties":{"ele":"4060","name":"КНУ","natural":"peak"}}
{"type":"Feature","geometry":{"type":"Point","coordinates":[108.2866498,16.1195909]},"properties":{"ele":"696","name":"Núi Sơn Trà","name:en":"Son Tra Mountain","natural":"peak","source":"cyclemap","wikidata":"Q7560606"}}
{"type":"Feature","geometry":{"type":"Point","coordinates":[58.881561,64.8152736]},"properties":{"ele":"1375","fixme":"уточнить","name":"гора Горчаковского","natural":"peak"}}
{"type":"Feature","geometry":{"type":"Point","coordinates":[52.9517852,52.5681881]},"properties":{"natural":"peak"}}
{"type":"Feature","geometry":{"type":"Point","coordinates":[52.9605801,52.5689728]},"properties":{"natural":"peak"}}
{"type":"Feature","geometry":{"type":"Point","coordinates":[42.3416531,42.6357032]},"properties":{"ele":"2025","name":"მიგარია","name:en":"Migaria","name:ka":"მიგარია","name:ru":"Мигариа 2025","natural":"peak"}}
{"type":"Feature","geometry":{"type":"Point","coordinates":[42.362115,42.6545249]},"properties":{"ele":"1706","natural":"peak"}}
{"type":"Feature","geometry":{"type":"Point","coordinates":[42.3829608,42.6717416]},"properties":{"ele":"2244","name":"ლეკუდელი","name:en":"Lekudeli","name:ka":"ლეკუდელი","name:ru":"Лекудели","natural":"peak"}}
{"type":"Feature","geometry":{"type":"Point","coordinates":[42.3705582,42.6856601]},"properties":{"ele":"2304","name":"ნატოლები","name:en":"Natolebi","name:ka":"ნატოლები","name:ru":"Натолеби","natural":"peak"}}
{"type":"Feature","geometry":{"type":"Point","coordinates":[42.3786137,42.6921196]},"properties":{"ele":"2231","natural":"peak"}}
{"type":"Feature","geometry":{"type":"Point","coordinates":[42.4236788,42.7457648]},"properties":{"ele":"2798","natural":"peak"}}
{"type":"Feature","geometry":{"type":"Point","coordinates":[42.4206224,42.7902499]},"properties":{"ele":"3002","name":"ტეხურიშდუდი","name:en":"Tekhurishdudi","name:ka":"ტეხურიშდუდი","name:ru":"Техуришдуди","natural":"peak"}}
{"type":"Feature","geometry":{"type":"Point","coordinates":[42.2534561,42.769823]},"properties":{"ele":"2956","natural":"peak"}}
{"type":"Feature","geometry":{"type":"Point","coordinates":[42.0708215,42.8279802]},"properties":{"ele":"2120","name":"ურალაპი","name:en":"Uralap","name:ka":"ურალაფი","name:ru":"Уралап","natural":"peak"}}
{"type":"Feature","geometry":{"type":"Point","coordinates":[42.1015633,42.8600761]},"properties":{"ele":"2612","natural":"peak"}}
{"type":"Feature","geometry":{"type":"Point","coordinates":[42.2102656,42.8157491]},"properties":{"ele":"3111","name":"ლაკუმურაშ-დუდი","name:en":"Lakumurash-Dudi","name:ka":"ლაკუმურაშ-დუდი","name:ru":"Лакумураш-Дуди","natural":"peak"}}
{"type":"Feature","geometry":{"type":"Point","coordinates":[42.2628931,42.8296396]},"properties":{"ele":"2702","natural":"peak"}}
{"type":"Feature","geometry":{"type":"Point","coordinates":[42.2892269,42.8391967]},"properties":{"ele":"2947","name":"ნატახთიშდუდი","name:en":"Natakhtishdudi","name:ka":"ნატახთიშდუდი","name:ru":"Натахтишдуди","natural":"peak"}}
{"type":"Feature","geometry":{"type":"Point","coordinates":[42.3566444,42.8256196]},"properties":{"ele":"3170","name":"სამოჭერხოლა","name:en":"Samocherkhola","name:ka":"სამოჭერხოლა","name:ru":"Самочерхола","natural":"peak"}}
{"type":"Feature","geometry":{"type":"Point","coordinates":[49.2981746,53.4015266]},"properties":{"name":"Девья гора","natural":"peak"}}
{"type":"Feature","geometry":{"type":"Point","coordinates":[139.1303653,35.7651956]},"properties":{"alt_name:en":"Odake San;Mt. Otake","alt_name:ja_kana":"おおだけさん","alt_name:ja_rm":"Ōdake San;Ōtake San","ele":"1266.5","name":"大岳山","name:en":"Mt. Odake","name:ja":"大岳山","name:ja_kana":"おおだけさん","name:ja_rm":"Ōdake-san","natural":"peak","wikidata":"Q10871753","wikipedia":"ja:大岳山 (東京都)"}}
{"type":"Feature","geometry":{"type":"Point","coordinates":[139.1059477,35.7792411]},"properties":{"ele":"1109","name":"鋸山","name:en":"Mount Nokogiri","name:ja":"鋸山","name:ja_kana":"のこぎりやま","name:ja_rm":"Nokogiriyama","natural":"peak"}}
{"type":"Feature","geometry":{"type":"Point","coordinates":[75.0056411,13.2034843]},"properties":{"name":"Bahubali Hill","name:kn":"ಬಾಹುಬಲಿ ಬೆಟ್ಟ","natural":"peak"}}
{"type":"Feature","geometry":{"type":"Point","coordinates":[44.2975018,42.4756617]},"properties":{"ele":"3284","name":"გნუღი","name:en":"Gnughi","name:ka":"გნუღი","name:ru":"Гнуги","natural":"peak"}}
{"type":"Feature","geometry":{"type":"Point","coordinates":[40.7573813,43.4911775]},"properties":{"ele":"2473.3","name":"Каменистая","natural":"peak"}}
{"type":"Feature","geometry":{"type":"Point","coordinates":[137.007429,35.1848352]},"properties":{"ele":"72.6","name":"からす山 (Karasu-yama)","natural":"peak","source":"survey"}}
{"type":"Feature","geometry":{"type":"Point","coordinates":[114.1751096,22.2624074]},"properties":{"ele":"439","landform":"peak","name":"金馬倫山 Mount Cameron","name:en":"Mount Cameron","name:zh":"金馬倫山","natural":"peak","old_name":"飛鵝嶺","old_name:zh":"飛鵝嶺","wikidata":"Q15938741","wikimedia_commons":"Category:Mount Cameron, Hong Kong","wikipedia":"zh-yue:金馬倫山"}}
{"type":"Feature","geometry":{"type":"Point","coordinates":[107.697157,14.486741]},"properties":{"ele":"1570","natural":"peak"}}
{"type":"Feature","geometry":{"type":"Point","coordinates":[107.6045953,14.3382892]},"properties":{"ele":"947","name":"Núi Chư Mơ Nu","natural":"peak"}}
{"type":"Feature","geometry":{"type":"Point","coordinates":[107.7188774,14.3972122]},"properties":{"ele":"1198","name":"Núi Chư Tan Kra","natural":"peak"}}
{"type":"Feature","geometry":{"type":"Point","coordinates":[107.8140499,14.4720027]},"properties":{"ele":"1062","natural":"peak"}}
{"type":"Feature","geometry":{"type":"Point","coordinates":[107.5356881,14.4848278]},"properties":{"ele":"744","natural":"peak"}}
{"type":"Feature","geometry":{"type":"Point","coordinates":[131.3550892,43.464888]},"properties":{"ele":"741.1","name":"Пологая","name:ru":"Пологая","natural":"peak"}}
{"type":"Feature","geometry":{"type":"Point","coordinates":[124.2189593,-10.0649378]},"properties":{"name":"Bukit Kobe","natural":"peak"}}
{"type":"Feature","geometry":{"type":"Point","coordinates":[108.9733308,13.6847111]},"properties":{"ele":"1122","name":"Núi Am","natural":"peak","wikidata":"Q31645083"}}
{"type":"Feature","geometry":{"type":"Point","coordinates":[108.9043648,13.8393706]},"properties":{"ele":"828","name":"Núi Chua","natural":"peak","wikidata":"Q31640773"}}
{"type":"Feature","geometry":{"type":"Point","coordinates":[108.9351302,13.7942086]},"properties":{"ele":"632","name":"Núi Thu Dương","natural":"peak","wikidata":"Q31647548"}}
{"type":"Feature","geometry":{"type":"Point","coordinates":[108.7629812,13.734601]},"properties":{"alt_name":"Núi Kong K'Diong","ele":"1029","name":"Núi Kông Kjong","natural":"peak"}}
{"type":"Feature","geometry":{"type":"Point","coordinates":[108.8650837,13.6181436]},"properties":{"ele":"1076","natural":"peak"}}
{"type":"Feature","geometry":{"type":"Point","coordinates":[91.6832574,27.2436817]},"properties":{"ele":"4100","natural":"peak","source:elevation":"estmated from DEM (OpenTopoMap)"}}
{"type":"Feature","geometry":{"type":"Point","coordinates":[91.6115844,27.2469605]},"properties":{"ele":"3850","natural":"peak","source:elevation":"estmated from DEM (OpenTopoMap)"}}
{"type":"Feature","geometry":{"type":"Point","coordinates":[91.9318243,27.2547086]},"properties":{"ele":"4370","natural":"peak","source:elevation":"estimated from DEM (OpenTopoMap)"}}
{"type":"Feature","geometry":{"type":"Point","coordinates":[91.7825101,27.2667229]},"properties":{"natural":"peak"}}
{"type":"Feature","geometry":{"type":"Point","coordinates":[113.6615147,39.0409359]},"properties":{"ele":"2795","name":"东台","name:en":"Wanghai Peak Wutai Shan East Terrace","natural":"peak"}}
{"type":"Feature","geometry":{"type":"Point","coordinates":[60.5976977,55.9293357]},"properties":{"ele":"466","name":"Еремиха","name:en":"Yeremikha","natural":"peak"}}
{"type":"Feature","geometry":{"type":"Point","coordinates":[120.4020518,23.2423184]},"properties":{"ele":"223","name":"尖山","name:en":"Jianshan","name:zh":"尖山","name:zh-Bopo":"ㄐㄧㄢㄕㄢ","name:zh-Hans":"尖山","name:zh-Hant":"尖山","name:zh-Latn-pinyin":"jiānshān","natural":"peak"}}
{"type":"Feature","geometry":{"type":"Point","coordinates":[60.5963534,55.8795449]},"properties":{"ele":"492.3","name":"Пургина","name:en":"Purgina","natural":"peak"}}
{"type":"Feature","geometry":{"type":"Point","coordinates":[78.268279,42.2066119]},"properties":{"ele":"4189","name":"Сахарная Голова","natural":"peak","westra_ref":"8306"}}
{"type":"Feature","geometry":{"type":"Point","coordinates":[100.0901268,7.6284691]},"properties":{"alt_name":"ภูเขาอกทะลุ","alt_name:en":"Phukhao Ok Thalu","alt_name:th":"ภูเขาอกทะลุ","ele":"177","name":"เขาอกทะลุ","name:en":"Khao Ok Thalu","name:th":"เขาอกทะลุ","natural":"peak","wikidata":"Q6400447","wikipedia":"th:เขาอกทะลุ"}}
{"type":"Feature","geometry":{"type":"Point","coordinates":[74.5474168,42.5699063]},"properties":{"ele":"4204","name":"Комсомолец","name:de":"Komsomolets","name:en":"Komsomolets","natural":"peak"}}
{"type":"Feature","geometry":{"type":"Point","coordinates":[74.5495422,42.5590316]},"properties":{"alt_name":"пик Морозова","name":"пик Маречека","natural":"peak"}}
{"type":"Feature","geometry":{"type":"Point","coordinates":[74.5489152,42.5590398]},"properties":{"name":"пик А. Бондаренко","natural":"peak"}}
{"type":"Feature","geometry":{"type":"Point","coordinates":[74.5468578,42.5640871]},"properties":{"ele":"4215","name":"Красная горка","natural":"peak"}}
{"type":"Feature","geometry":{"type":"Point","coordinates":[147.4638159,44.9371031]},"properties":{"ele":"882","name":"Медвежонок","name:en":"Medvezhonok","name:ja":"丸山","name:ja-Hira":"まるやま","name:ja-Latn":"Maru-yama","natural":"peak"}}
{"type":"Feature","geometry":{"type":"Point","coordinates":[35.090068,31.7741629]},"properties":{"ele":"796","name":"הר טייסים","name:en":"Har Tayasim","name:he":"הר טייסים","natural":"peak","wikidata":"Q7211319","wikipedia":"he:הר טייסים","wikipedia:he":"הר טייסים"}}
{"type":"Feature","geometry":{"type":"Point","coordinates":[148.344199,45.2434961]},"properties":{"ele":"442","name":"Голец","name:en":"Golets","name:ja":"留茶留山","name:ja-Latn":"Rucharu-yama","natural":"peak"}}
{"type":"Feature","geometry":{"type":"Point","coordinates":[148.8069895,45.5148574]},"properties":{"ele":"1322","name":"Камуй","name:en":"Kamuy","name:ja":"神威岳","name:ja-Hira":"かむいだけ","name:ru":"Камуй","natural":"peak"}}
{"type":"Feature","geometry":{"type":"Point","coordinates":[148.8369222,45.3909918]},