{"type":"Feature","geometry":{"type":"Point","coordinates":[-172.9900808,67.0257134]},"properties":{"ele":"82","name":"Neshkan","natural":"peak"}}
{"type":"Feature","geometry":{"type":"Point","coordinates":[142.894578,44.3971333]},"properties":{"ele":"835.4","name":"ポロヌプリ岳","name:en":"Mount Poronupuri","name:ja":"ポロヌプリ岳","name:ja-Hira":"ぽろぬぷりだけ","natural":"peak","source":"GSImaps/std","wikidata":"Q31480144"}}
{"type":"Feature","geometry":{"type":"Point","coordinates":[143.0309951,44.3111515]},"properties":{"ele":"482","name":"天狗山","name:en":"Mount Tengu","name:ja":"天狗山","name:ja-Hira":"てんぐやま","natural":"peak","source":"GSImaps/std"}}
{"type":"Feature","geometry":{"type":"Point","coordinates":[142.8574455,43.7923876]},"properties":{"ele":"752.9","name":"真勲別","name:en":"Mount Makunbetsu","name:ja":"真勲別","name:ja-Hira":"まくんべつ","natural":"peak","source":"GSImaps/std"}}
{"type":"Feature","geometry":{"type":"Point","coordinates":[143.0087435,43.8586294]},"properties":{"ele":"1033","name":"和刈別","name:en":"Mount Wakaribetsu","name:ja":"和刈別","name:ja-Hira":"わかりべつ","natural":"peak","source":"GSImaps/std"}}
{"type":"Feature","geometry":{"type":"Point","coordinates":[142.9635322,43.7389878]},"properties":{"ele":"1370","name":"朝陽山","name:en":"Mount Choyo","name:ja":"朝陽山","name:ja-Hira":"ちょうようざん","natural":"peak","source":"GSImaps/std"}}
{"type":"Feature","geometry":{"type":"Point","coordinates":[142.9495418,43.7391893]},"properties":{"ele":"1091","name":"残月峰","name:en":"Mount Zangetsuhou","name:ja":"残月峰","name:ja-Hira":"ざんげつほう","natural":"peak","source":"GSImaps/std"}}
{"type":"Feature","geometry":{"type":"Point","coordinates":[142.7848434,43.8556355]},"properties":{"ele":"562.1","name":"留辺志部山","name:en":"Mount Rubeshibe","name:ja":"留辺志部山","name:ja-Hira":"るべしべやま","natural":"peak","source":"GSImaps/std"}}
{"type":"Feature","geometry":{"type":"Point","coordinates":[142.7351797,43.861074]},"properties":{"ele":"598.3","name":"江差牛山","name:en":"Mount Esaushi","name:ja":"江差牛山","name:ja-Hira":"えさうしやま","natural":"peak"}}
{"type":"Feature","geometry":{"type":"Point","coordinates":[142.757839,43.9156555]},"properties":{"ele":"1059.6","name":"突角山","natural":"peak","source":"GSImaps/std"}}
{"type":"Feature","geometry":{"type":"Point","coordinates":[142.8259241,43.897127]},"properties":{"ele":"1026.6","name":"摺鉢山","name:en":"Mount Suribachi","name:ja":"摺鉢山","name:ja-Hira":"すりばちやま","natural":"peak","source":"GSImaps/std"}}
{"type":"Feature","geometry":{"type":"Point","coordinates":[142.8294807,43.9241796]},"properties":{"ele":"1187.2","name":"宇江内山","name:en":"Mount Uennai","name:ja":"宇江内山","name:ja-Hira":"うえんないやま","natural":"peak","source":"GSImaps/std"}}
{"type":"Feature","geometry":{"type":"Point","coordinates":[143.0485529,43.9068152]},"properties":{"ele":"1445.6","name":"チトカニウシ山","name:en":"Mount Chitokaniushi","name:ja":"チトカニウシ山","name:ja-Hira":"ちとかにうしやま","natural":"peak","source":"GSImaps/std","wikidata":"Q6920136","wikipedia":"ja:チトカニウシ山"}}
{"type":"Feature","geometry":{"type":"Point","coordinates":[142.8823256,43.8879418]},"properties":{"ele":"1052.4","name":"天幕山","name:en":"Mount Tenmaku","name:ja":"天幕山","name:ja-Hira":"てんまくやま","natural":"peak","source":"GSImaps/std"}}
{"type":"Feature","geometry":{"type":"Point","coordinates":[142.9207788,44.4353441]},"properties":{"ele":"691.2","name":"岩上山","name:ja":"岩上山","natural":"peak","source":"GSImaps/std"}}
{"type":"Feature","geometry":{"type":"Point","coordinates":[143.0426969,44.423442]},"properties":{"ele":"236.5","name":"三井山","name:en":"Mount Mitsui","name:ja":"三井山","name:ja-Hira":"みついやま","natural":"peak","source":"GSImaps/std"}}
{"type":"Feature","geometry":{"type":"Point","coordinates":[143.0825257,44.2917483]},"properties":{"ele":"818.3","man_made":"survey_point","name":"欝岳","name:en":"Mt. Utsu","name:ja":"欝岳","name:ja-Hira":"うつだけ","natural":"peak","source":"GSImaps/std","wikipedia":"ja:鬱岳"}}
{"type":"Feature","geometry":{"type":"Point","coordinates":[142.9050279,44.5296555]},"properties":{"ele":"218.1","man_made":"survey_point","name":"砂金山","name:en":"Mt. Sakin","name:ja":"砂金山","name:ja-Hira":"さきんやま","natural":"peak","source":"GSImaps/std"}}
{"type":"Feature","geometry":{"type":"Point","coordinates":[142.7450824,44.6417197]},"properties":{"ele":"525.3","name":"落船山","name:en":"Mount Ochifune","name:ja":"落船山","name:ja-Hira":"おちふねやま","natural":"peak","source":"GSImaps/std"}}
{"type":"Feature","geometry":{"type":"Point","coordinates":[142.6469886,44.5900393]},"properties":{"ele":"902.9","man_made":"survey_point","name":"シアッシリ山","name:en":"Mt. Shiasshiri","name:ja":"シアッシリ山","name:ja-Hira":"しあっしりやま","natural":"peak","source":"GSImaps/std","wikidata":"Q131902621","wikipedia":"ja:シアッシリ山"}}
{"type":"Feature","geometry":{"type":"Point","coordinates":[142.8321147,44.4640867]},"properties":{"ele":"916.4","name":"毛鐘尻山","name:ja":"毛鐘尻山","natural":"peak","source":"GSImaps/std","wikidata":"Q31483769"}}
{"type":"Feature","geometry":{"type":"Point","coordinates":[142.9152524,44.4704264]},"properties":{"ele":"742.3","name":"トーウツ山","name:en":"Mount Toutsu","name:ja":"トーウツ山","name:ja-Hira":"とーうつやま","natural":"peak","source":"GSImaps/std","wikidata":"Q31477845"}}
{"type":"Feature","geometry":{"type":"Point","coordinates":[142.9748297,44.4759003]},"properties":{"ele":"430","name":"チセネシリ山","name:en":"Mount Chiseneshiri","name:ja":"チセネシリ山","name:ja-Hira":"ちせねしりやま","natural":"peak","source":"GSImaps/std"}}
{"type":"Feature","geometry":{"type":"Point","coordinates":[77.7747329,42.8367429]},"properties":{"ele":"3554","natural":"peak"}}
{"type":"Feature","geometry":{"type":"Point","coordinates":[77.7034056,42.8495632]},"properties":{"ele":"3555","natural":"peak"}}
{"type":"Feature","geometry":{"type":"Point","coordinates":[77.7005212,42.8096633]},"properties":{"ele":"2774","natural":"peak"}}
{"type":"Feature","geometry":{"type":"Point","coordinates":[120.1133023,41.5272315]},"properties":{"natural":"peak"}}
{"type":"Feature","geometry":{"type":"Point","coordinates":[120.1098169,41.5212176]},"properties":{"natural":"peak"}}
{"type":"Feature","geometry":{"type":"Point","coordinates":[120.0880106,41.4934932]},"properties":{"natural":"peak"}}
{"type":"Feature","geometry":{"type":"Point","coordinates":[41.0765076,43.3089881]},"properties":{"ele":"2808","name":"Анантвара (Кама)","natural":"peak"}}
{"type":"Feature","geometry":{"type":"Point","coordinates":[34.8983137,28.4155608]},"properties":{"name":"جبل الحمضة","name:en":"Jabal Hamdah","natural":"peak"}}
{"type":"Feature","geometry":{"type":"Point","coordinates":[40.8880931,35.830192]},"properties":{"natural":"peak"}}
{"type":"Feature","geometry":{"type":"Point","coordinates":[40.8785069,35.8609004]},"properties":{"natural":"peak"}}
{"type":"Feature","geometry":{"type":"Point","coordinates":[110.5419067,29.3285833]},"properties":{"name":"雁窝寨","natural":"peak"}}
{"type":"Feature","geometry":{"type":"Point","coordinates":[110.5447621,29.3278361]},"properties":{"name":"鹰嘴峰","natural":"peak"}}
{"type":"Feature","geometry":{"type":"Point","coordinates":[110.5443873,29.3288304]},"properties":{"name":"直角石","natural":"peak"}}
{"type":"Feature","geometry":{"type":"Point","coordinates":[44.6583924,37.4804533]},"properties":{"ele":"3383","name":"کمال","natural":"peak"}}
{"type":"Feature","geometry":{"type":"Point","coordinates":[44.6550236,37.4799765]},"properties":{"ele":"3363","natural":"peak"}}
{"type":"Feature","geometry":{"type":"Point","coordinates":[122.3632765,36.8826672]},"properties":{"natural":"peak"}}
{"type":"Feature","geometry":{"type":"Point","coordinates":[122.3483634,36.8513807]},"properties":{"natural":"peak"}}
{"type":"Feature","geometry":{"type":"Point","coordinates":[122.3191165,36.8501616]},"properties":{"natural":"peak"}}
{"type":"Feature","geometry":{"type":"Point","coordinates":[44.696849,37.5620945]},"properties":{"ele":"3094","natural":"peak"}}
{"type":"Feature","geometry":{"type":"Point","coordinates":[121.5643889,24.9779489]},"properties":{"alt_name":"恆光山","ele":"63.99","name":"恒光山","natural":"peak"}}
{"type":"Feature","geometry":{"type":"Point","coordinates":[40.6333637,35.9161732]},"properties":{"natural":"peak"}}
{"type":"Feature","geometry":{"type":"Point","coordinates":[40.6437492,35.9211171]},"properties":{"natural":"peak"}}
{"type":"Feature","geometry":{"type":"Point","coordinates":[40.6752062,35.9184931]},"properties":{"natural":"peak"}}
{"type":"Feature","geometry":{"type":"Point","coordinates":[40.6787789,35.9183628]},"properties":{"natural":"peak"}}
{"type":"Feature","geometry":{"type":"Point","coordinates":[40.6820619,35.9198225]},"properties":{"natural":"peak"}}
{"type":"Feature","geometry":{"type":"Point","coordinates":[40.6854308,35.9197964]},"properties":{"natural":"peak"}}
{"type":"Feature","geometry":{"type":"Point","coordinates":[83.2174337,17.9025367]},"properties":{"ele":"250","natural":"peak"}}
{"type":"Feature","geometry":{"type":"Point","coordinates":[83.2065546,17.8988613]},"properties":{"ele":"380","natural":"peak"}}
{"type":"Feature","geometry":{"type":"Point","coordinates":[56.1294237,25.6547494]},"properties":{"ele":"1398","name":"Jabal Dardur","name:en":"Jabal Dardur","name:es":"Jabal Dardur","name:fr":"Jabal Dardur","natural":"peak","source":"survey;local knowledge"}}
{"type":"Feature","geometry":{"type":"Point","coordinates":[102.225808,2.652739]},"properties":{"ele":"451","geonames:id":"7797442","name":"Bukit Kloboian","natural":"peak","wikidata":"Q30763559"}}
{"type":"Feature","geometry":{"type":"Point","coordinates":[102.2229579,2.6571362]},"properties":{"ele":"646","geonames:id":"1772563","name":"Bukit Jeram Musat","natural":"peak","wikidata":"Q31770017"}}
{"type":"Feature","geometry":{"type":"Point","coordinates":[103.9032232,35.1002253]},"properties":{"natural":"peak"}}
{"type":"Feature","geometry":{"type":"Point","coordinates":[124.0920326,9.9385831]},"properties":{"natural":"peak"}}
{"type":"Feature","geometry":{"type":"Point","coordinates":[86.7034468,42.9322534]},"properties":{"natural":"peak"}}
{"type":"Feature","geometry":{"type":"Point","coordinates":[43.8166222,35.1279912]},"properties":{"natural":"peak"}}
{"type":"Feature","geometry":{"type":"Point","coordinates":[43.8174367,35.1299726]},"properties":{"natural":"peak"}}
{"type":"Feature","geometry":{"type":"Point","coordinates":[42.3576835,37.0464068]},"properties":{"natural":"peak"}}
{"type":"Feature","geometry":{"type":"Point","coordinates":[42.366119,37.0500139]},"properties":{"natural":"peak"}}
{"type":"Feature","geometry":{"type":"Point","coordinates":[42.3610765,37.0614358]},"properties":{"natural":"peak"}}
{"type":"Feature","geometry":{"type":"Point","coordinates":[134.2077787,44.245631]},"properties":{"ele":"1433","name":"Изюбриная","natural":"peak"}}
{"type":"Feature","geometry":{"type":"Point","coordinates":[128.1352829,42.6174547]},"properties":{"ele":"887","name":"湾沟大顶子","natural":"peak"}}
{"type":"Feature","geometry":{"type":"Point","coordinates":[113.0405181,34.488547]},"properties":{"name":"狮子岭","natural":"peak"}}
{"type":"Feature","geometry":{"type":"Point","coordinates":[51.0815211,35.8710763]},"properties":{"ele":"2300","name":"کندر بزرگ","natural":"peak"}}
{"type":"Feature","geometry":{"type":"Point","coordinates":[73.9969498,15.6833481]},"properties":{"name":"Kasainath","natural":"peak"}}
{"type":"Feature","geometry":{"type":"Point","coordinates":[116.8274035,32.6206615]},"properties":{"name":"大百家山","natural":"peak"}}
{"type":"Feature","geometry":{"type":"Point","coordinates":[116.8308984,32.6168491]},"properties":{"name":"小百家山","natural":"peak"}}
{"type":"Feature","geometry":{"type":"Point","coordinates":[116.8020291,32.6269867]},"properties":{"name":"马鞍山","natural":"peak"}}
{"type":"Feature","geometry":{"type":"Point","coordinates":[116.7885248,32.6180937]},"properties":{"name":"龟山","natural":"peak"}}
{"type":"Feature","geometry":{"type":"Point","coordinates":[116.7981206,32.617125]},"properties":{"name":"梨锏山","natural":"peak"}}
{"type":"Feature","geometry":{"type":"Point","coordinates":[120.5551303,22.9565496]},"properties":{"ele":"244","natural":"peak"}}
{"type":"Feature","geometry":{"type":"Point","coordinates":[116.7990366,32.6388991]},"properties":{"name":"黑山","natural":"peak"}}
{"type":"Feature","geometry":{"type":"Point","coordinates":[116.7849617,32.6386809]},"properties":{"name":"花顶山","natural":"peak"}}
{"type":"Feature","geometry":{"type":"Point","coordinates":[116.7854252,32.6309324]},"properties":{"ele":"241.2","name":"老庙台/白鹗山","natural":"peak"}}
{"type":"Feature","geometry":{"type":"Point","coordinates":[116.7824039,32.6252363]},"properties":{"name":"刺山","natural":"peak"}}
{"type":"Feature","geometry":{"type":"Point","coordinates":[116.7931843,32.6248604]},"properties":{"name":"老虎头","natural":"peak"}}
{"type":"Feature","geometry":{"type":"Point","coordinates":[120.9774094,24.7514602]},"properties":{"ele":"103","name":"榕樹崗","natural":"peak"}}
{"type":"Feature","geometry":{"type":"Point","coordinates":[142.5638294,44.9377977]},"properties":{"ele":"170.5","name":"三笠山","name:en":"Mount Mikasa","name:ja":"三笠山","name:ja-Hira":"みかさやま","name:ja-Latn":"Mikasa yama","natural":"peak","source":"GSImaps/std"}}
{"type":"Feature","geometry":{"type":"Point","coordinates":[142.5264716,44.8332685]},"properties":{"ele":"520.3","name":"偉茶忍山","name:en":"Mount Isashinobu","name:ja":"偉茶忍山","name:ja-Hira":"いさしのぶやま","name:ja-Latn":"Isashinobu yama","natural":"peak","source":"GSImaps/std"}}
{"type":"Feature","geometry":{"type":"Point","coordinates":[142.4633431,44.70201]},"properties":{"ele":"955.4","name":"坊主山","name:en":"Mount Bouzu","name:ja":"坊主山","name:ja-Hira":"ぼうずやま","name:ja-Latn":"Bouzu yama","natural":"peak","source":"GSImaps/std"}}
{"type":"Feature","geometry":{"type":"Point","coordinates":[142.5356877,44.6193639]},"properties":{"ele":"796.3","name":"黒岩山","name:en":"Mt. Kuroiwa","name:ja":"黒岩山","name:ja-Hira":"くろいわやま","name:ja-Latn":"Kuroiwa yama","natural":"peak","wikidata":"Q31483111"}}
{"type":"Feature","geometry":{"type":"Point","coordinates":[142.4203956,44.9618373]},"properties":{"ele":"841","name":"ポロヌプリ山","name:en":"Mt. Poronupuri","name:ja":"ポロヌプリ山","name:ja-Hira":"ぽろぬぷりやま","name:ja-Latn":"Poronupuri yama","natural":"peak","source":"GSImaps/std","wikidata":"Q31480133","wikipedia":"ja:ポロヌプリ山"}}
{"type":"Feature","geometry":{"type":"Point","coordinates":[142.4858844,45.0535904]},"properties":{"ele":"438.8","man_made":"survey_point","name":"斜内山","name:en":"Mt. Shanai","name:ja":"斜内山","name:ja-Hira":"しゃないやま","natural":"peak","source":"GSImaps/std","survey_point:purpose":"horizontal","survey_point:structure":"block","wikidata":"Q131746552","wikipedia":"ja:斜内山"}}
{"type":"Feature","geometry":{"type":"Point","coordinates":[96.7461204,68.8182843]},"properties":{"ele":"1357","natural":"peak"}}
{"type":"Feature","geometry":{"type":"Point","coordinates":[96.6341971,68.8090405]},"properties":{"ele":"1456","natural":"peak"}}
{"type":"Feature","geometry":{"type":"Point","coordinates":[96.6664266,68.7394804]},"properties":{"ele":"978","natural":"peak"}}
{"type":"Feature","geometry":{"type":"Point","coordinates":[96.7777919,68.7486443]},"properties":{"ele":"1175","natural":"peak"}}
{"type":"Feature","geometry":{"type":"Point","coordinates":[96.6886139,68.7700261]},"properties":{"ele":"1431","natural":"peak"}}
{"type":"Feature","geometry":{"type":"Point","coordinates":[96.5362644,68.7614891]},"properties":{"ele":"1297","natural":"peak"}}
{"type":"Feature","geometry":{"type":"Point","coordinates":[51.3098169,35.8794771]},"properties":{"description":"در نقشه توپوگرافی نیروهای مسلح سال 1385، ارتفاع قله 2850 قید شده است.","ele":"2830","name":"نمه","name:en":"Nemah","natural":"peak"}}
{"type":"Feature","geometry":{"type":"Point","coordinates":[116.7859198,32.6348981]},"properties":{"name":"耙齿山","natural":"peak"}}
{"type":"Feature","geometry":{"type":"Point","coordinates":[116.8023837,32.6124935]},"properties":{"name":"肚妈脐山","natural":"peak"}}
{"type":"Feature","geometry":{"type":"Point","coordinates":[116.7872947,32.6453686]},"properties":{"name":"老君山","natural":"peak"}}
{"type":"Feature","geometry":{"type":"Point","coordinates":[116.7764285,32.6416393]},"properties":{"name":"磨盘山","natural":"peak"}}
{"type":"Feature","geometry":{"type":"Point","coordinates":[116.7767032,32.6353512]},"properties":{"name":"松林山","natural":"peak"}}
{"type":"Feature","geometry":{"type":"Point","coordinates":[116.7706779,32.6385459]},"properties":{"name":"三马台山","natural":"peak"}}
{"type":"Feature","geometry":{"type":"Point","coordinates":[116.8068469,32.6395434]},"properties":{"name":"老鹰山","natural":"peak"}}
{"type":"Feature","geometry":{"type":"Point","coordinates":[116.8137305,32.6266483]},"properties":{"name":"大破锣","natural":"peak"}}
{"type":"Feature","geometry":{"type":"Point","coordinates":[116.8055938,32.6076204]},"properties":{"name":"打石山","natural":"peak"}}
{"type":"Feature","geometry":{"type":"Point","coordinates":[116.8222621,32.6148937]},"properties":{"name":"小乌山","natural":"peak"}}
{"type":"Feature","geometry":{"type":"Point","coordinates":[116.8168204,32.6111198]},"properties":{"name":"长山","natural":"peak"}}
{"type":"Feature","geometry":{"type":"Point","coordinates":[97.4501895,68.6308308]},"properties":{"ele":"972","natural":"peak"}}
{"type":"Feature","geometry":{"type":"Point","coordinates":[97.2097775,68.5474545]},"properties":{"ele":"1443","natural":"peak"}}
{"type":"Feature","geometry":{"type":"Point","coordinates":[97.2272869,68.5276067]},"properties":{"ele":"1438","natural":"peak"}}
{"type":"Feature","geometry":{"type":"Point","coordinates":[97.496452,68.5443152]},"properties":{"ele":"1099","natural":"peak"}}
{"type":"Feature","geometry":{"type":"Point","coordinates":[97.4034115,68.5682884]},"properties":{"ele":"1211","natural":"peak"}}
{"type":"Feature","geometry":{"type":"Point","coordinates":[139.7913968,57.4893999]},"properties":{"ele":"700","name":"Odzhan","natural":"peak"}}
{"type":"Feature","geometry":{"type":"Point","coordinates":[46.3616395,42.7870866]},"properties":{"name":"Валия","natural":"peak"}}
{"type":"Feature","geometry":{"type":"Point","coordinates":[95.8455847,67.2504119]},"properties":{"ele":"1028","natural":"peak"}}
{"type":"Feature","geometry":{"type":"Point","coordinates":[95.8881567,67.1981788]},"properties":{"ele":"1005","natural":"peak"}}
{"type":"Feature","geometry":{"type":"Point","coordinates":[94.8573302,67.7843996]},"properties":{"ele":"916","name":"Таганчик","natural":"peak"}}
{"type":"Feature","geometry":{"type":"Point","coordinates":[94.5341777,68.1202436]},"properties":{"ele":"914","natural":"peak"}}
{"type":"Feature","geometry":{"type":"Point","coordinates":[94.8518368,68.1186443]},"properties":{"ele":"1070","natural":"peak"}}
{"type":"Feature","geometry":{"type":"Point","coordinates":[94.9984356,68.1226105]},"properties":{"ele":"1207","natural":"peak"}}
{"type":"Feature","geometry":{"type":"Point","coordinates":[94.7426604,67.7180387]},"properties":{"ele":"916","natural":"peak"}}
{"type":"Feature","geometry":{"type":"Point","coordinates":[94.8597334,67.6802573]},"properties":{"ele":"921","name":"Олений лоб","natural":"peak"}}
{"type":"Feature","geometry":{"type":"Point","coordinates":[95.0767132,67.6472468]},"properties":{"ele":"978","natural":"peak"}}
{"type":"Feature","geometry":{"type":"Point","coordinates":[95.116882,67.67778]},"properties":{"ele":"993","natural":"peak"}}
{"type":"Feature","geometry":{"type":"Point","coordinates":[95.1876065,67.7089247]},"properties":{"ele":"995","natural":"peak"}}
{"type":"Feature","geometry":{"type":"Point","coordinates":[95.0310513,67.7415888]},"properties":{"ele":"978","natural":"peak"}}
{"type":"Feature","geometry":{"type":"Point","coordinates":[95.0646969,67.7512102]},"properties":{"ele":"985","name":"Гремучая","natural":"peak"}}
{"type":"Feature","geometry":{"type":"Point","coordinates":[112.6856517,74.3049853]},"properties":{"ele":"198","natural":"peak"}}
{"type":"Feature","geometry":{"type":"Point","coordinates":[112.5573347,74.3266569]},"properties":{"ele":"176","name":"Острая","natural":"peak"}}
{"type":"Feature","geometry":{"type":"Point","coordinates":[112.6169012,74.3733348]},"properties":{"ele":"171","natural":"peak"}}
{"type":"Feature","geometry":{"type":"Point","coordinates":[112.5314139,74.3844286]},"properties":{"ele":"157","name":"Кочеткова","natural":"peak"}}
{"type":"Feature","geometry":{"type":"Point","coordinates":[68.8248546,53.0941419]},"properties":{"ele":"452","natural":"peak"}}
{"type":"Feature","geometry":{"type":"Point","coordinates":[138.8345726,57.4173605]},"properties":{"ele":"1542","name":"Etandzha","natural":"peak"}}
{"type":"Feature","geometry":{"type":"Point","coordinates":[138.8125762,57.3964757]},"properties":{"ele":"1474","natural":"peak"}}
{"type":"Feature","geometry":{"type":"Point","coordinates":[138.9275879,57.3892226]},"properties":{"ele":"1348","name":"Ploshodka","natural":"peak"}}
{"type":"Feature","geometry":{"type":"Point","coordinates":[43.3855231,25.393465]},"properties":{"name":"أم رِس","natural":"peak"}}
{"type":"Feature","geometry":{"type":"Point","coordinates":[119.152691,10.4895349]},"properties":{"natural":"peak"}}
{"type":"Feature","geometry":{"type":"Point","coordinates":[119.149156,10.4636131]},"properties":{"natural":"peak"}}
{"type":"Feature","geometry":{"type":"Point","coordinates":[119.1437789,10.4986436]},"properties":{"natural":"peak"}}
{"type":"Feature","geometry":{"type":"Point","coordinates":[119.1327901,10.4989617]},"properties":{"natural":"peak"}}
{"type":"Feature","geometry":{"type":"Point","coordinates":[119.1593213,10.4808126]},"properties":{"natural":"peak"}}
{"type":"Feature","geometry":{"type":"Point","coordinates":[119.1618767,10.4698349]},"properties":{"natural":"peak"}}
{"type":"Feature","geometry":{"type":"Point","coordinates":[119.1686258,10.4607334]},"properties":{"natural":"peak"}}
{"type":"Feature","geometry":{"type":"Point","coordinates":[119.1396421,10.5026484]},"properties":{"natural":"peak"}}
{"type":"Feature","geometry":{"type":"Point","coordinates":[119.1638212,10.4591578]},"properties":{"natural":"peak"}}
{"type":"Feature","geometry":{"type":"Point","coordinates":[119.1553241,10.4591379]},"properties":{"natural":"peak"}}
{"type":"Feature","geometry":{"type":"Point","coordinates":[119.1799948,10.4555644]},"properties":{"natural":"peak"}}
{"type":"Feature","geometry":{"type":"Point","coordinates":[119.1760918,10.4600058]},"properties":{"natural":"peak"}}
{"type":"Feature","geometry":{"type":"Point","coordinates":[119.1619617,10.4677116]},"properties":{"natural":"peak"}}
{"type":"Feature","geometry":{"type":"Point","coordinates":[119.1361717,10.504267]},"properties":{"ele":"160","natural":"peak"}}
{"type":"Feature","geometry":{"type":"Point","coordinates":[119.1321385,10.5080362]},"properties":{"natural":"peak"}}
{"type":"Feature","geometry":{"type":"Point","coordinates":[119.1470794,10.4953162]},"properties":{"natural":"peak"}}
{"type":"Feature","geometry":{"type":"Point","coordinates":[34.9656892,32.0171441]},"properties":{"description":"A view in every direction","description:en":"A view in every direction","description:he":"נוף לכל כיוון","ele":"156","image":"https://upload.wikimedia.org/wikipedia/commons/4/4d/IHM_viewpoint_136.jpeg","natural":"peak","tourism":"viewpoint"}}
{"type":"Feature","geometry":{"type":"Point","coordinates":[113.3008023,33.7540782]},"properties":{"ele":"145","name":"二矿矸石山","natural":"peak"}}
{"type":"Feature","geometry":{"type":"Point","coordinates":[58.5818791,53.580334]},"properties":{"ele":"(560)","natural":"peak"}}
{"type":"Feature","geometry":{"type":"Point","coordinates":[58.5808921,53.5766777]},"properties":{"natural":"peak"}}
{"type":"Feature","geometry":{"type":"Point","coordinates":[82.6261413,28.8405329]},"properties":{"ele":"5854","natural":"peak","source:ele":"FinnMaps"}}
{"type":"Feature","geometry":{"type":"Point","coordinates":[82.6066625,28.822438]},"properties":{"ele":"5544","natural":"peak","note":"this peak is called Hiuchuli Patan in FinnMaps, but that should obviously be the higher peak 5916m","source:ele":"FinnMaps"}}
{"type":"Feature","geometry":{"type":"Point","coordinates":[82.7127513,28.8513435]},"properties":{"ele":"4940","natural":"peak","source:ele":"FinnMaps"}}
{"type":"Feature","geometry":{"type":"Point","coordinates":[68.9078777,53.2430668]},"properties":{"ele":"350","natural":"peak"}}
{"type":"Feature","geometry":{"type":"Point","coordinates":[160.4591846,70.9065925]},"properties":{"ele":"40","natural":"peak"}}
{"type":"Feature","geometry":{"type":"Point","coordinates":[160.559349,70.8944599]},"properties":{"ele":"73","natural":"peak"}}
{"type":"Feature","geometry":{"type":"Point","coordinates":[161.6245078,70.76119]},"properties":{"ele":"45","natural":"peak"}}
{"type":"Feature","geometry":{"type":"Point","coordinates":[161.5308237,70.7798473]},"properties":{"ele":"52","natural":"peak"}}
{"type":"Feature","geometry":{"type":"Point","coordinates":[161.5425825,70.8106501]},"properties":{"ele":"31","natural":"peak"}}
{"type":"Feature","geometry":{"type":"Point","coordinates":[161.6801261,70.7386085]},"properties":{"ele":"44","natural":"peak"}}
{"type":"Feature","geometry":{"type":"Point","coordinates":[161.6739034,70.7866274]},"properties":{"ele":"33","natural":"peak"}}
{"type":"Feature","geometry":{"type":"Point","coordinates":[161.5985011,70.7793104]},"properties":{"ele":"79","natural":"peak"}}
{"type":"Feature","geometry":{"type":"Point","coordinates":[83.1810304,28.9805578]},"properties":{"ele":"6107","natural":"peak","source:ele":"FinnMaps"}}
{"type":"Feature","geometry":{"type":"Point","coordinates":[83.1929817,28.9832985]},"properties":{"ele":"6042","natural":"peak","source:ele":"FinnMaps"}}
{"type":"Feature","geometry":{"type":"Point","coordinates":[83.1956908,28.9776015]},"properties":{"ele":"6075","natural":"peak","source:ele":"FinnMaps"}}
{"type":"Feature","geometry":{"type":"Point","coordinates":[40.2397788,48.1015294]},"properties":{"natural":"peak"}}
{"type":"Feature","geometry":{"type":"Point","coordinates":[68.9642049,53.2094718]},"properties":{"ele":"368","natural":"peak"}}
{"type":"Feature","geometry":{"type":"Point","coordinates":[69.0161393,53.2310498]},"properties":{"ele":"376","natural":"peak"}}
{"type":"Feature","geometry":{"type":"Point","coordinates":[69.0021309,53.2203197]},"properties":{"ele":"370","natural":"peak"}}
{"type":"Feature","geometry":{"type":"Point","coordinates":[40.2274792,48.1083431]},"properties":{"natural":"peak"}}
{"type":"Feature","geometry":{"type":"Point","coordinates":[40.2072614,48.1016607]},"properties":{"natural":"peak"}}
{"type":"Feature","geometry":{"type":"Point","coordinates":[40.1692598,48.1030224]},"properties":{"natural":"peak"}}
{"type":"Feature","geometry":{"type":"Point","coordinates":[82.7694283,29.191671]},"properties":{"ele":"5463","natural":"peak","source:ele":"FinnMaps"}}
{"type":"Feature","geometry":{"type":"Point","coordinates":[82.8575961,29.0670029]},"properties":{"ele":"4686","natural":"peak","source:ele":"FinnMaps"}}
{"type":"Feature","geometry":{"type":"Point","coordinates":[105.8151626,33.4818987]},"properties":{"natural":"peak"}}
{"type":"Feature","geometry":{"type":"Point","coordinates":[105.7813453,33.4791336]},"properties":{"natural":"peak"}}
{"type":"Feature","geometry":{"type":"Point","coordinates":[105.8122015,33.4938441]},"properties":{"natural":"peak"}}
{"type":"Feature","geometry":{"type":"Point","coordinates":[98.9752857,16.9176344]},"properties":{"ele":"1175","name":"ดอยหลวงตาก","name:en":"Doi Luang Tak","name:th":"ดอยหลวงตาก","natural":"peak"}}
{"type":"Feature","geometry":{"type":"Point","coordinates":[83.0797994,28.7865965]},"properties":{"ele":"5924","name":"Samjaṅ","name:en":"Samjang","natural":"peak","source":"FinnMaps"}}
{"type":"Feature","geometry":{"type":"Point","coordinates":[83.1195982,28.7455342]},"properties":{"ele":"6603","natural":"peak","source:ele":"FinnMaps"}}
{"type":"Feature","geometry":{"type":"Point","coordinates":[83.1664753,28.8001259]},"properties":{"alt_name":"Kang Tokal","ele":"6294","name":"Kāṅg Tokal","natural":"peak"}}
{"type":"Feature","geometry":{"type":"Point","coordinates":[83.2097927,28.7319151]},"properties":{"ele":"7371","natural":"peak","source:ele":"FinnMaps"}}
{"type":"Feature","geometry":{"type":"Point","coordinates":[83.2181024,28.7350306]},"properties":{"ele":"7385","natural":"peak","source:ele":"FinnMaps"}}
{"type":"Feature","geometry":{"type":"Point","coordinates":[83.228845,28.7427128]},"properties":{"ele":"7371","natural":"peak","source:ele":"FinnMaps"}}
{"type":"Feature","geometry":{"type":"Point","coordinates":[83.2453656,28.6810146]},"properties":{"ele":"6529","name":"Ghustang","natural":"peak","wikidata":"Q20999853"}}
{"type":"Feature","geometry":{"type":"Point","coordinates":[83.1428571,28.736272]},"properties":{"ele":"6598","natural":"peak","source:ele":"FinnMaps"}}
{"type":"Feature","geometry":{"type":"Point","coordinates":[132.4579096,43.1259202]},"properties":{"ele":"278","natural":"peak"}}
{"type":"Feature","geometry":{"type":"Point","coordinates":[132.3425746,42.9996726]},"properties":{"ele":"209","natural":"peak"}}
{"type":"Feature","geometry":{"type":"Point","coordinates":[132.3381543,42.9899263]},"properties":{"ele":"173","natural":"peak"}}
{"type":"Feature","geometry":{"type":"Point","coordinates":[116.0188148,29.5510524]},"properties":{"name":"五峰","natural":"peak"}}
{"type":"Feature","geometry":{"type":"Point","coordinates":[115.9424187,29.555415]},"properties":{"name":"铁船峰","natural":"peak"}}
{"type":"Feature","geometry":{"type":"Point","coordinates":[100.0978767,39.6292396]},"properties":{"ele":"2084","name":"大青山","natural":"peak"}}
{"type":"Feature","geometry":{"type":"Point","coordinates":[99.0034485,40.6099968]},"properties":{"ele":"1924","name":"大红山","natural":"peak"}}
{"type":"Feature","geometry":{"type":"Point","coordinates":[96.5405452,39.9030164]},"properties":{"ele":"3514","name":"滴水山","natural":"peak"}}
{"type":"Feature","geometry":{"type":"Point","coordinates":[68.8627794,53.3058037]},"properties":{"ele":"344","natural":"peak"}}
{"type":"Feature","geometry":{"type":"Point","coordinates":[68.9116033,53.3703851]},"properties":{"ele":"358","natural":"peak"}}
{"type":"Feature","geometry":{"type":"Point","coordinates":[138.9432971,57.328482]},"properties":{"natural":"peak"}}
{"type":"Feature","geometry":{"type":"Point","coordinates":[113.8690986,30.5262366]},"properties":{"name":"化子山","natural":"peak"}}
{"type":"Feature","geometry":{"type":"Point","coordinates":[113.8585881,30.5178571]},"properties":{"name":"大锅顶","natural":"peak"}}
{"type":"Feature","geometry":{"type":"Point","coordinates":[41.598625,30.003746]},"properties":{"alt_name":"قارة ذهيبه","name":"قارة ذهيبة","natural":"peak"}}
{"type":"Feature","geometry":{"type":"Point","coordinates":[138.0251974,34.7579927]},"properties":{"ele":"108.5","man_made":"survey_point","name":"西陣場（青田峰）","name:ja":"西陣場（青田峰）","natural":"peak"}}
{"type":"Feature","geometry":{"type":"Point","coordinates":[74.7789746,35.6443822]},"properties":{"ele":"5448","name":"Bariokhal Shish","natural":"peak","wikidata":"Q31783564"}}
{"type":"Feature","geometry":{"type":"Point","coordinates":[74.7320084,35.6589135]},"properties":{"ele":"4166","name":"Bubar","natural":"peak"}}
{"type":"Feature","geometry":{"type":"Point","coordinates":[74.9437966,35.4162055]},"properties":{"name":"Shishing Pahar","natural":"peak"}}
{"type":"Feature","geometry":{"type":"Point","coordinates":[74.7039566,35.436166]},"properties":{"ele":"5035","name":"Lichar","natural":"peak"}}
{"type":"Feature","geometry":{"type":"Point","coordinates":[74.7195553,35.4437808]},"properties":{"name":"4760","natural":"peak"}}
{"type":"Feature","geometry":{"type":"Point","coordinates":[74.6317568,35.4801399]},"properties":{"ele":"3100","natural":"peak"}}
{"type":"Feature","geometry":{"type":"Point","coordinates":[74.6508293,35.4667378]},"properties":{"ele":"3880","natural":"peak"}}
{"type":"Feature","geometry":{"type":"Point","coordinates":[74.726347,35.3989444]},"properties":{"ele":"5310","name":"Mamocha","natural":"peak"}}
{"type":"Feature","geometry":{"type":"Point","coordinates":[74.7324171,35.3848083]},"properties":{"ele":"5169","natural":"peak"}}
{"type":"Feature","geometry":{"type":"Point","coordinates":[74.76179,35.3882057]},"properties":{"ele":"4642","natural":"peak"}}
{"type":"Feature","geometry":{"type":"Point","coordinates":[74.7117823,35.3487446]},"properties":{"ele":"5345","natural":"peak"}}
{"type":"Feature","geometry":{"type":"Point","coordinates":[74.6898184,35.3231908]},"properties":{"ele":"6830","name":"Chongra","natural":"peak"}}
{"type":"Feature","geometry":{"type":"Point","coordinates":[74.5222495,35.4194762]},"properties":{"ele":"4515","name":"Jabardar","natural":"peak"}}
{"type":"Feature","geometry":{"type":"Point","coordinates":[74.5640972,35.4412123]},"properties":{"ele":"3050","natural":"peak"}}
{"type":"Feature","geometry":{"type":"Point","coordinates":[74.5279039,35.3473652]},"properties":{"ele":"5029","natural":"peak"}}
{"type":"Feature","geometry":{"type":"Point","coordinates":[74.5435987,35.3849251]},"properties":{"name":"4809","natural":"peak"}}
{"type":"Feature","geometry":{"type":"Point","coordinates":[74.5375539,35.3138523]},"properties":{"ele":"5206","name":"Jiliper","natural":"peak"}}
{"type":"Feature","geometry":{"type":"Point","coordinates":[74.392337,35.4407614]},"properties":{"ele":"3088","natural":"peak"}}
{"type":"Feature","geometry":{"type":"Point","coordinates":[74.3883264,35.4985493]},"properties":{"ele":"4746","natural":"peak"}}
{"type":"Feature","geometry":{"type":"Point","coordinates":[74.5937563,35.5177502]},"properties":{"name":"2401","natural":"peak"}}
{"type":"Feature","geometry":{"type":"Point","coordinates":[74.5759594,35.5276581]},"properties":{"ele":"3307","natural":"peak"}}
{"type":"Feature","geometry":{"type":"Point","coordinates":[74.5773999,35.524908]},"properties":{"ele":"3030","natural":"peak"}}
{"type":"Feature","geometry":{"type":"Point","coordinates":[77.0368784,9.8065278]},"properties":{"ele":"1250","name":"Mount Wiesendanger","natural":"peak"}}
{"type":"Feature","geometry":{"type":"Point","coordinates":[138.0260703,34.7588335]},"properties":{"name":"東青田嶺","name:ja":"東青田嶺","natural":"peak"}}
{"type":"Feature","geometry":{"type":"Point","coordinates":[132.6689941,43.6839042]},"properties":{"ele":"559","natural":"peak"}}
{"type":"Feature","geometry":{"type":"Point","coordinates":[132.5906991,43.6241695]},"properties":{"ele":"463","natural":"peak"}}
{"type":"Feature","geometry":{"type":"Point","coordinates":[132.5993428,43.6180823]},"properties":{"ele":"456","natural":"peak"}}
{"type":"Feature","geometry":{"type":"Point","coordinates":[132.6043622,43.6116527]},"properties":{"ele":"402","natural":"peak"}}
{"type":"Feature","geometry":{"type":"Point","coordinates":[132.6121876,43.5990768]},"properties":{"ele":"496","natural":"peak"}}
{"type":"Feature","geometry":{"type":"Point","coordinates":[132.6652752,43.5737366]},"properties":{"ele":"682","natural":"peak"}}
{"type":"Feature","geometry":{"type":"Point","coordinates":[132.6778293,43.5750881]},"properties":{"ele":"707","natural":"peak"}}
{"type":"Feature","geometry":{"type":"Point","coordinates":[132.715647,43.5663286]},"properties":{"ele":"771","natural":"peak"}}
{"type":"Feature","geometry":{"type":"Point","coordinates":[132.6255597,43.5974588]},"properties":{"ele":"609","natural":"peak"}}
{"type":"Feature","geometry":{"type":"Point","coordinates":[69.3315717,53.2702687]},"properties":{"ele":"357","natural":"peak"}}
{"type":"Feature","geometry":{"type":"Point","coordinates":[69.3516268,53.260959]},"properties":{"ele":"331","natural":"peak"}}
{"type":"Feature","geometry":{"type":"Point","coordinates":[69.2924477,53.2916851]},"properties":{"ele":"299","natural":"peak"}}
{"type":"Feature","geometry":{"type":"Point","coordinates":[109.4083133,24.2770381]},"properties":{"name":"炮台山","natural":"peak"}}
{"type":"Feature","geometry":{"type":"Point","coordinates":[50.980497,36.285096]},"properties":{"ele":"3450","name":"سه کنج طالقان","name:en":"sekonje Taleqan","natural":"peak"}}
{"type":"Feature","geometry":{"type":"Point","coordinates":[137.2571218,45.9458458]},"properties":{"ele":"1191","name":"г. Опасная","natural":"peak"}}
{"type":"Feature","geometry":{"type":"Point","coordinates":[137.2610163,45.8912478]},"properties":{"ele":"1488","name":"г. Туман","natural":"peak"}}
{"type":"Feature","geometry":{"type":"Point","coordinates":[113.940017,30.3709523]},"properties":{"name":"香炉山","natural":"peak"}}
{"type":"Feature","geometry":{"type":"Point","coordinates":[113.9786588,30.3718383]},"properties":{"name":"羊子山","natural":"peak"}}
{"type":"Feature","geometry":{"type":"Point","coordinates":[94.1593548,67.4583449]},"properties":{"name":"1052","natural":"peak"}}
{"type":"Feature","geometry":{"type":"Point","coordinates":[94.132919,67.4899114]},"properties":{"ele":"1210","natural":"peak"}}
{"type":"Feature","geometry":{"type":"Point","coordinates":[94.0164041,67.4943141]},"properties":{"ele":"1194","name":"Укрытое","natural":"peak"}}
{"type":"Feature","geometry":{"type":"Point","coordinates":[93.6623953,67.5157908]},"properties":{"ele":"1008","natural":"peak"}}
{"type":"Feature","geometry":{"type":"Point","coordinates":[93.6505507,67.4644641]},"properties":{"ele":"1213","natural":"peak"}}
{"type":"Feature","geometry":{"type":"Point","coordinates":[93.781185,67.5186792]},"properties":{"ele":"1081","natural":"peak"}}
{"type":"Feature","geometry":{"type":"Point","coordinates":[66.416332,40.681114]},"properties":{"ele":"740","name":"Kelinchak Tog'","name:en":"Kelinchak Mountain","name:uz":"Kelinchak Tog'","natural":"peak"}}
{"type":"Feature","geometry":{"type":"Point","coordinates":[45.5103762,37.8302654]},"properties":{"ele":"1957","name":"گمیچی","natural":"peak"}}
{"type":"Feature","geometry":{"type":"Point","coordinates":[116.4502061,30.7379108]},"properties":{"name":"月牙峰","natural":"peak"}}
{"type":"Feature","geometry":{"type":"Point","coordinates":[116.4525441,30.7279204]},"properties":{"name":"天书峰","natural":"peak"}}
{"type":"Feature","geometry":{"type":"Point","coordinates":[116.4511107,30.7289238]},"properties":{"name":"降丹峰","natural":"peak"}}
{"type":"Feature","geometry":{"type":"Point","coordinates":[50.8495382,36.2489043]},"properties":{"ele":"3200","name":"دومیل","name:en":"Domil","natural":"peak"}}
{"type":"Feature","geometry":{"type":"Point","coordinates":[93.1297024,55.8265999]},"properties":{"name":"Арт","natural":"peak"}}
{"type":"Feature","geometry":{"type":"Point","coordinates":[93.1092832,55.8128924]},"properties":{"name":"Юкла","natural":"peak"}}
{"type":"Feature","geometry":{"type":"Point","coordinates":[99.9372464,22.0619223]},"properties":{"name":"瓦内科山","natural":"peak"}}
{"type":"Feature","geometry":{"type":"Point","coordinates":[99.8355854,22.0362937]},"properties":{"name":"巴白科山","natural":"peak"}}
{"type":"Feature","geometry":{"type":"Point","coordinates":[93.0998081,55.806413]},"properties":{"name":"Остряк","natural":"peak"}}
{"type":"Feature","geometry":{"type":"Point","coordinates":[100.4310599,21.5412246]},"properties":{"name":"广三边山","natural":"peak"}}
{"type":"Feature","geometry":{"type":"Point","coordinates":[58.1389189,55.2972484]},"properties":{"ele":"504","fixme":"Точное положение","int_name":"Yangantau","name":"Янгантау","name:azb":"یانقاتاو","name:ba":"Янғантау","name:ce":"Янгантау","name:crh":"Yangatau","name:cv":"Янгантау","name:en":"Yangantau","name:hy":"Յանգանտաու","name:kk":"Янгантау","name:ky":"Янгантау","name:lld":"Yangantau","name:pl":"Jangantau","name:ru:word_stress":"Янганта́у","name:tt":"Янгантау","name:uk":"Янгантау","natural":"peak","wikidata":"Q13667725","wikipedia":"ru:Янгантау (гора)"}}
{"type":"Feature","geometry":{"type":"Point","coordinates":[40.7456678,36.5374674]},"properties":{"natural":"peak"}}
{"type":"Feature","geometry":{"type":"Point","coordinates":[40.7520944,36.54944]},"properties":{"natural":"peak"}}
{"type":"Feature","geometry":{"type":"Point","coordinates":[40.7428971,36.5297734]},"properties":{"natural":"peak"}}
{"type":"Feature","geometry":{"type":"Point","coordinates":[120.8477325,24.2626033]},"properties":{"ele":"513","name":"頂中嵙山","natural":"peak"}}
{"type":"Feature","geometry":{"type":"Point","coordinates":[94.4249125,21.722451]},"properties":{"name":"‌မဟာဗောဓိပင်ကုန်း","natural":"peak"}}
{"type":"Feature","geometry":{"type":"Point","coordinates":[113.027172,74.3282104]},"properties":{"ele":"100","natural":"peak"}}
{"type":"Feature","geometry":{"type":"Point","coordinates":[127.8656673,35.2276724]},"properties":{"ele":"520","name":"정개산","natural":"peak"}}
{"type":"Feature","geometry":{"type":"Point","coordinates":[110.066554,22.7548203]},"properties":{"ele":"600m","natural":"peak"}}
{"type":"Feature","geometry":{"type":"Point","coordinates":[134.5562069,33.8544272]},"properties":{"ele":"333","name":"音坊山","name:ja":"おとのぼやま","natural":"peak","wikidata":"Q124497288","wikipedia":"ja:音坊山"}}
{"type":"Feature","geometry":{"type":"Point","coordinates":[109.9420568,22.7836645]},"properties":{"natural":"peak"}}
{"type":"Feature","geometry":{"type":"Point","coordinates":[110.0199883,22.7141472]},"properties":{"natural":"peak"}}
{"type":"Feature","geometry":{"type":"Point","coordinates":[132.8401566,43.2339459]},"properties":{"ele":"743","natural":"peak"}}
{"type":"Feature","geometry":{"type":"Point","coordinates":[132.8311054,43.2452906]},"properties":{"ele":"832","natural":"peak"}}
{"type":"Feature","geometry":{"type":"Point","coordinates":[132.862321,43.1511115]},"properties":{"ele":"486","natural":"peak"}}
{"type":"Feature","geometry":{"type":"Point","coordinates":[132.8514031,43.2394485]},"properties":{"ele":"631","natural":"peak"}}
{"type":"Feature","geometry":{"type":"Point","coordinates":[132.8810522,43.2280245]},"properties":{"ele":"515","natural":"peak"}}
{"type":"Feature","geometry":{"type":"Point","coordinates":[132.8968061,43.223243]},"properties":{"ele":"449","natural":"peak"}}
{"type":"Feature","geometry":{"type":"Point","coordinates":[132.8686309,43.1941091]},"properties":{"ele":"452","natural":"peak"}}
{"type":"Feature","geometry":{"type":"Point","coordinates":[132.8200708,43.1289897]},"properties":{"ele":"680","natural":"peak"}}
{"type":"Feature","geometry":{"type":"Point","coordinates":[132.8636795,43.2194462]},"properties":{"ele":"715","natural":"peak"}}
{"type":"Feature","geometry":{"type":"Point","coordinates":[132.8427167,43.1556727]},"properties":{"ele":"440","natural":"peak"}}
{"type":"Feature","geometry":{"type":"Point","coordinates":[132.8884283,43.1925779]},"properties":{"ele":"446","natural":"peak"}}
{"type":"Feature","geometry":{"type":"Point","coordinates":[132.8592297,43.2075009]},"properties":{"ele":"473","natural":"peak"}}
{"type":"Feature","geometry":{"type":"Point","coordinates":[132.8728782,43.2132258]},"properties":{"ele":"534","natural":"peak"}}
{"type":"Feature","geometry":{"type":"Point","coordinates":[132.8839074,43.2018697]},"properties":{"ele":"434","natural":"peak"}}
{"type":"Feature","geometry":{"type":"Point","coordinates":[129.0692097,35.6691585]},"properties":{"ele":"726.8","name":"불솜골봉","natural":"peak"}}
{"type":"Feature","geometry":{"type":"Point","coordinates":[155.397663,62.6620055]},"properties":{"natural":"peak"}}
{"type":"Feature","geometry":{"type":"Point","coordinates":[155.4184985,62.6276042]},"properties":{"natural":"peak"}}
{"type":"Feature","geometry":{"type":"Point","coordinates":[40.7171613,36.5030735]},"properties":{"natural":"peak"}}
{"type":"Feature","geometry":{"type":"Point","coordinates":[40.7239848,36.5039488]},"properties":{"natural":"peak"}}
{"type":"Feature","geometry":{"type":"Point","coordinates":[104.703324,35.7739291]},"properties":{"natural":"peak"}}
{"type":"Feature","geometry":{"type":"Point","coordinates":[104.6667937,35.7289683]},"properties":{"natural":"peak"}}
{"type":"Feature","geometry":{"type":"Point","coordinates":[120.5023572,30.0156701]},"properties":{"name":"梅里尖","natural":"peak"}}
{"type":"Feature","geometry":{"type":"Point","coordinates":[100.5471324,74.902445]},"properties":{"ele":"145","natural":"peak"}}
{"type":"Feature","geometry":{"type":"Point","coordinates":[100.906763,74.7380674]},"properties":{"ele":"182","natural":"peak"}}
{"type":"Feature","geometry":{"type":"Point","coordinates":[101.283302,74.6603798]},"properties":{"ele":"243","natural":"peak"}}
{"type":"Feature","geometry":{"type":"Point","coordinates":[83.8473557,29.2513343]},"properties":{"ele":"6127","natural":"peak","source:ele":"FinnMaps"}}
{"type":"Feature","geometry":{"type":"Point","coordinates":[83.8612364,29.3106613]},"properties":{"ele":"6337","natural":"peak","source:ele":"FinnMaps"}}
{"type":"Feature","geometry":{"type":"Point","coordinates":[83.8707062,29.3125385]},"properties":{"ele":"6325","natural":"peak","source:ele":"FinnMaps"}}
{"type":"Feature","geometry":{"type":"Point","coordinates":[83.8709082,29.2821]},"properties":{"ele":"6007","natural":"peak","source:ele":"FinnMaps"}}
{"type":"Feature","geometry":{"type":"Point","coordinates":[83.8336223,29.2057636]},"properties":{"ele":"5812","natural":"peak","source:ele":"FinnMaps"}}
{"type":"Feature","geometry":{"type":"Point","coordinates":[83.8519338,29.2129061]},"properties":{"ele":"5865","natural":"peak","source:ele":"FinnMaps"}}
{"type":"Feature","geometry":{"type":"Point","coordinates":[83.8386814,29.2123393]},"properties":{"ele":"5796","natural":"peak","source:ele":"FinnMaps"}}
{"type":"Feature","geometry":{"type":"Point","coordinates":[83.8185965,29.3326296]},"properties":{"ele":"6315","natural":"peak","source:ele":"https://himalaya-info.org/images/Images%20Landkarten/Map%20Mustang_2048.jpg"}}
{"type":"Feature","geometry":{"type":"Point","coordinates":[83.8095976,29.31122]},"properties":{"ele":"6250","natural":"peak","source:ele":"https://himalaya-info.org/images/Images%20Landkarten/Map%20Mustang_2048.jpg"}}
{"type":"Feature","geometry":{"type":"Point","coordinates":[83.7901786,29.3085623]},"properties":{"ele":"6240","natural":"peak","source:ele":"https://himalaya-info.org/images/Images%20Landkarten/Map%20Mustang_2048.jpg"}}
{"type":"Feature","geometry":{"type":"Point","coordinates":[83.7858044,29.3159885]},"properties":{"ele":"6235","natural":"peak","source:ele":"https://himalaya-info.org/images/Images%20Landkarten/Map%20Mustang_2048.jpg"}}
{"type":"Feature","geometry":{"type":"Point","coordinates":[83.2401812,28.7732576]},"properties":{"ele":"6975","name":"Kaya Chuli","natural":"peak","source:ele":"FinnMaps","source:name":"peakbagger"}}
{"type":"Feature","geometry":{"type":"Point","coordinates":[83.2378329,28.7650752]},"properties":{"ele":"6921","natural":"peak","source:ele":"FinnMaps"}}
{"type":"Feature","geometry":{"type":"Point","coordinates":[83.2380126,28.7903289]},"properties":{"ele":"6750","natural":"peak","source:ele":"FinnMaps"}}
{"type":"Feature","geometry":{"type":"Point","coordinates":[127.1396831,36.6096931]},"properties":{"name":"금동산","name:ko":"금동산","natural":"peak"}}
{"type":"Feature","geometry":{"type":"Point","coordinates":[116.4596649,30.7434275]},"properties":{"name":"五指峰/仙拳石","natural":"peak"}}
{"type":"Feature","geometry":{"type":"Point","coordinates":[109.1599796,12.1557068]},"properties":{"name":"Blue Eye","natural":"peak"}}
{"type":"Feature","geometry":{"type":"Point","coordinates":[138.7553164,57.703368]},"properties":{"natural":"peak"}}
{"type":"Feature","geometry":{"type":"Point","coordinates":[114.0620041,22.3777118]},"properties":{"ele":"241","natural":"peak"}}
{"type":"Feature","geometry":{"type":"Point","coordinates":[92.7776526,66.8834676]},"properties":{"ele":"973","natural":"peak"}}
{"type":"Feature","geometry":{"type":"Point","coordinates":[93.8448712,66.9703868]},"properties":{"ele":"828","natural":"peak"}}
{"type":"Feature","geometry":{"type":"Point","coordinates":[93.6076352,66.9343651]},"properties":{"ele":"830","natural":"peak"}}
{"type":"Feature","geometry":{"type":"Point","coordinates":[93.8321684,66.9071117]},"properties":{"ele":"831","natural":"peak"}}
{"type":"Feature","geometry":{"type":"Point","coordinates":[93.7173269,66.8561576]},"properties":{"ele":"858","natural":"peak"}}
{"type":"Feature","geometry":{"type":"Point","coordinates":[93.5839461,66.9015228]},"properties":{"ele":"881","name":"Эдынгдэкадар","natural":"peak"}}
{"type":"Feature","geometry":{"type":"Point","coordinates":[92.6885603,66.8161152]},"properties":{"ele":"892","natural":"peak"}}
{"type":"Feature","geometry":{"type":"Point","coordinates":[93.6666863,66.9198339]},"properties":{"ele":"907","name":"Агатский Камень","natural":"peak"}}
{"type":"Feature","geometry":{"type":"Point","coordinates":[93.3446501,66.8053]},"properties":{"ele":"874","natural":"peak"}}
{"type":"Feature","geometry":{"type":"Point","coordinates":[41.5131732,36.8897826]},"properties":{"natural":"peak"}}
{"type":"Feature","geometry":{"type":"Point","coordinates":[112.4068519,22.8379579]},"properties":{"name":"大树山","natural":"peak"}}
{"type":"Feature","geometry":{"type":"Point","coordinates":[112.3944374,22.839186]},"properties":{"name":"狮子牙","natural":"peak"}}
{"type":"Feature","geometry":{"type":"Point","coordinates":[112.3736217,22.882338]},"properties":{"name":"大山顶","natural":"peak"}}
{"type":"Feature","geometry":{"type":"Point","coordinates":[82.4115451,29.7715089]},"properties":{"ele":"5610","natural":"peak","source:ele":"https://himalaya-info.org/images/Images%20Landkarten/Map%20Nepal%20NW-Mugu.jpg="}}
{"type":"Feature","geometry":{"type":"Point","coordinates":[82.4051187,29.7667384]},"properties":{"ele":"5525","natural":"peak","source:ele":"FinnMaps"}}
{"type":"Feature","geometry":{"type":"Point","coordinates":[82.3966084,29.762325]},"properties":{"natural":"peak"}}
{"type":"Feature","geometry":{"type":"Point","coordinates":[82.3984441,29.7586235]},"properties":{"ele":"5487","natural":"peak","source:ele":"FinnMaps"}}
{"type":"Feature","geometry":{"type":"Point","coordinates":[82.4060647,29.7451023]},"properties":{"ele":"5524","natural":"peak","source:ele":"FinnMaps"}}
{"type":"Feature","geometry":{"type":"Point","coordinates":[82.4083151,29.7414618]},"properties":{"ele":"5607","natural":"peak","source:ele":"FinnMaps"}}
{"type":"Feature","geometry":{"type":"Point","coordinates":[82.4139433,29.7325173]},"properties":{"ele":"5417","natural":"peak","source:ele":"FinnMaps"}}
{"type":"Feature","geometry":{"type":"Point","coordinates":[82.3906417,29.7643522]},"properties":{"ele":"5534","natural":"peak","source:ele":"FinnMaps"}}
{"type":"Feature","geometry":{"type":"Point","coordinates":[82.3786457,29.767142]},"properties":{"ele":"5671","natural":"peak","source:ele":"FinnMaps"}}
{"type":"Feature","geometry":{"type":"Point","coordinates":[82.3625429,29.7781504]},"properties":{"ele":"5715","natural":"peak","source:ele":"FinnMaps"}}
{"type":"Feature","geometry":{"type":"Point","coordinates":[82.3707304,29.7650885]},"properties":{"ele":"5980","natural":"peak","source:ele":"https://himalaya-info.org/images/Images%20Landkarten/Map%20Nepal%20NW-Mugu.jpg"}}
{"type":"Feature","geometry":{"type":"Point","coordinates":[82.3670246,29.7579691]},"properties":{"ele":"5678","natural":"peak","source:ele":"FinnMaps"}}
{"type":"Feature","geometry":{"type":"Point","coordinates":[82.3766224,29.7479288]},"properties":{"ele":"5625","natural":"peak","source:ele":"FinnMaps"}}
{"type":"Feature","geometry":{"type":"Point","coordinates":[82.4043545,29.7870683]},"properties":{"ele":"5809","natural":"peak","source:ele":"FinnMaps"}}
{"type":"Feature","geometry":{"type":"Point","coordinates":[82.4116875,29.7814468]},"properties":{"ele":"5700","natural":"peak","source:ele":"https://himalaya-info.org/images/Images%20Landkarten/Map%20Nepal%20NW-Mugu.jpg"}}
{"type":"Feature","geometry":{"type":"Point","coordinates":[82.4038785,29.8025018]},"properties":{"ele":"5795","natural":"peak","source:ele":"FinnMaps"}}
{"type":"Feature","geometry":{"type":"Point","coordinates":[82.4007888,29.8052563]},"properties":{"ele":"5787","natural":"peak","source:ele":"FinnMaps"}}
{"type":"Feature","geometry":{"type":"Point","coordinates":[82.3938736,29.8215656]},"properties":{"ele":"5904","natural":"peak","source:ele":"FinnMaps"}}
{"type":"Feature","geometry":{"type":"Point","coordinates":[45.4824302,37.7970578]},"properties":{"ele":"1805","name":"گونلی گدیح","natural":"peak"}}
{"type":"Feature","geometry":{"type":"Point","coordinates":[45.4896371,37.8592908]},"properties":{"ele":"2014","natural":"peak"}}
{"type":"Feature","geometry":{"type":"Point","coordinates":[45.4969859,37.8618398]},"properties":{"ele":"2047","natural":"peak"}}
{"type":"Feature","geometry":{"type":"Point","coordinates":[45.5017603,37.8656776]},"properties":{"ele":"2029","natural":"peak"}}
{"type":"Feature","geometry":{"type":"Point","coordinates":[45.5232576,37.8760072]},"properties":{"ele":"1985","natural":"peak"}}
{"type":"Feature","geometry":{"type":"Point","coordinates":[45.5157712,37.8804855]},"properties":{"ele":"1999","natural":"peak"}}
{"type":"Feature","geometry":{"type":"Point","coordinates":[45.5121128,37.8843252]},"properties":{"ele":"2024","natural":"peak"}}
{"type":"Feature","geometry":{"type":"Point","coordinates":[45.509685,37.8827405]},"properties":{"ele":"1984","natural":"peak"}}
{"type":"Feature","geometry":{"type":"Point","coordinates":[45.5102135,37.8877818]},"properties":{"ele":"1978","natural":"peak"}}
{"type":"Feature","geometry":{"type":"Point","coordinates":[80.970632,30.189968]},"properties":{"ele":"5438","natural":"peak","source:ele":"FinnMaps"}}
{"type":"Feature","geometry":{"type":"Point","coordinates":[83.0253784,28.9653482]},"properties":{"ele":"5348","name":"Dingla Dhuri","natural":"peak","source:ele":"FinnMaps","source:name":"http://maps.lib.utexas.edu/maps/jog/india/nh-44-16-pokhara-nepal.pdf"}}
{"type":"Feature","geometry":{"type":"Point","coordinates":[41.5144766,36.888863]},"properties":{"ele":"٥٠٠ متر تقريبا","name":"تل التايه","natural":"peak"}}
{"type":"Feature","geometry":{"type":"Point","coordinates":[82.5822231,29.4172668]},"properties":{"ele":"6521","natural":"peak","source:ele":"FinnMaps"}}
{"type":"Feature","geometry":{"type":"Point","coordinates":[82.585692,29.4226317]},"properties":{"ele":"6471","natural":"peak","source:ele":"FinnMaps"}}
{"type":"Feature","geometry":{"type":"Point","coordinates":[82.590713,29.4209783]},"properties":{"alt_name:en":"Patrasi","ele":"6450","name":"Patrāli̇̄","name:en":"Patrali","natural":"peak","note":"the misspelling \"Patrasi\" probably comes from the confusion with \"Kande Hiunchuli\" which is also called \"Patarasi Himal\" from the VDC further west","source":"FinnMaps"}}
{"type":"Feature","geometry":{"type":"Point","coordinates":[82.5666247,29.4127493]},"properties":{"ele":"6473","natural":"peak","source:ele":"FinnMaps"}}
{"type":"Feature","geometry":{"type":"Point","coordinates":[82.1681699,30.0731858]},"properties":{"ele":"6284","natural":"peak","source:ele":"FinnMaps"}}
{"type":"Feature","geometry":{"type":"Point","coordinates":[82.1717479,30.0633478]},"properties":{"ele":"6198","natural":"peak","source:ele":"FinnMaps"}}
{"type":"Feature","geometry":{"type":"Point","coordinates":[127.4280761,34.9993655]},"properties":{"ele":"600","natural":"peak"}}
{"type":"Feature","geometry":{"type":"Point","coordinates":[45.933584,34.1729507]},"properties":{"name":"قله دنه بور ه","natural":"peak"}}
{"type":"Feature","geometry":{"type":"Point","coordinates":[45.9403323,34.1682902]},"properties":{"name:fa":"قلعه چرکنه","natural":"peak"}}
{"type":"Feature","geometry":{"type":"Point","coordinates":[45.9669681,34.1936071]},"properties":{"name:fa":"ارتفاعات سرکش","natural":"peak"}}
{"type":"Feature","geometry":{"type":"Point","coordinates":[116.1519839,28.5262215]},"properties":{"ele":"38","name":"五虎头","natural":"peak"}}
{"type":"Feature","geometry":{"type":"Point","coordinates":[132.8144087,43.1954446]},"properties":{"ele":"412","natural":"peak"}}
{"type":"Feature","geometry":{"type":"Point","coordinates":[133.0250587,43.2584617]},"properties":{"ele":"404","natural":"peak"}}
{"type":"Feature","geometry":{"type":"Point","coordinates":[133.0004675,43.2056406]},"properties":{"ele":"539","natural":"peak"}}
{"type":"Feature","geometry":{"type":"Point","coordinates":[132.9808035,43.2354701]},"properties":{"ele":"379","natural":"peak"}}
{"type":"Feature","geometry":{"type":"Point","coordinates":[132.9778692,43.2624211]},"properties":{"ele":"610","natural":"peak"}}
{"type":"Feature","geometry":{"type":"Point","coordinates":[132.9525062,43.1950731]},"properties":{"ele":"413","natural":"peak"}}
{"type":"Feature","geometry":{"type":"Point","coordinates":[132.9541933,43.1533677]},"properties":{"ele":"591","natural":"peak"}}
{"type":"Feature","geometry":{"type":"Point","coordinates":[132.9369521,43.1336719]},"properties":{"ele":"860","natural":"peak"}}
{"type":"Feature","geometry":{"type":"Point","coordinates":[132.957412,43.1116347]},"properties":{"ele":"968","natural":"peak"}}
{"type":"Feature","geometry":{"type":"Point","coordinates":[132.9387009,43.1483675]},"properties":{"ele":"526","natural":"peak"}}
{"type":"Feature","geometry":{"type":"Point","coordinates":[132.9541609,43.1289517]},"properties":{"ele":"991","natural":"peak"}}
{"type":"Feature","geometry":{"type":"Point","coordinates":[132.9884673,43.1257435]},"properties":{"ele":"1090","natural":"peak"}}
{"type":"Feature","geometry":{"type":"Point","coordinates":[132.9858554,43.1400114]},"properties":{"ele":"812","natural":"peak"}}
{"type":"Feature","geometry":{"type":"Point","coordinates":[132.9781025,43.1524538]},"properties":{"ele":"611","natural":"peak"}}
{"type":"Feature","geometry":{"type":"Point","coordinates":[132.968175,43.1616959]},"properties":{"ele":"566","natural":"peak"}}
{"type":"Feature","geometry":{"type":"Point","coordinates":[132.8355613,43.192751]},"properties":{"ele":"453","natural":"peak"}}
{"type":"Feature","geometry":{"type":"Point","coordinates":[114.2203234,22.3681148]},"properties":{"ele":"346","natural":"peak"}}
{"type":"Feature","geometry":{"type":"Point","coordinates":[57.8156805,56.3261392]},"properties":{"ele":"266.8","natural":"peak"}}
{"type":"Feature","geometry":{"type":"Point","coordinates":[57.8009176,56.3063128]},"properties":{"ele":"395","natural":"peak"}}
{"type":"Feature","geometry":{"type":"Point","coordinates":[57.7826142,56.3132788]},"properties":{"ele":"447","natural":"peak"}}
{"type":"Feature","geometry":{"type":"Point","coordinates":[57.7534103,56.3061819]},"properties":{"ele":"405.5","natural":"peak"}}
{"type":"Feature","geometry":{"type":"Point","coordinates":[66.3434812,40.2935004]},"properties":{"name":"Sharkamar","natural":"peak"}}
{"type":"Feature","geometry":{"type":"Point","coordinates":[129.2605287,35.9060677]},"properties":{"ele":"136.8","name":"너불떼봉","natural":"peak"}}
{"type":"Feature","geometry":{"type":"Point","coordinates":[118.0323113,29.8064665]},"properties":{"name":"最高峰","natural":"peak"}}
{"type":"Feature","geometry":{"type":"Point","coordinates":[66.7051532,40.5921356]},"properties":{"ele":"1250","natural":"peak"}}
{"type":"Feature","geometry":{"type":"Point","coordinates":[118.032511,29.8092861]},"properties":{"name":"香炉峰","natural":"peak"}}
{"type":"Feature","geometry":{"type":"Point","coordinates":[106.0953646,21.1485321]},"properties":{"ele":"153.2","natural":"peak"}}
{"type":"Feature","geometry":{"type":"Point","coordinates":[106.0844344,21.1524168]},"properties":{"ele":"65.5","natural":"peak"}}
{"type":"Feature","geometry":{"type":"Point","coordinates":[106.0913767,21.1537553]},"properties":{"natural":"peak"}}
{"type":"Feature","geometry":{"type":"Point","coordinates":[106.0478542,21.2089027]},"properties":{"natural":"peak"}}
{"type":"Feature","geometry":{"type":"Point","coordinates":[106.049932,21.2075662]},"properties":{"natural":"peak"}}
{"type":"Feature","geometry":{"type":"Point","coordinates":[106.0814037,21.1916522]},"properties":{"natural":"peak"}}
{"type":"Feature","geometry":{"type":"Point","coordinates":[106.0758947,21.1962063]},"properties":{"ele":"34.8","natural":"peak"}}
{"type":"Feature","geometry":{"type":"Point","coordinates":[106.0747609,21.1951147]},"properties":{"ele":"38.8","natural":"peak"}}
{"type":"Feature","geometry":{"type":"Point","coordinates":[106.0757434,21.1982837]},"properties":{"ele":"39.6","natural":"peak"}}
{"type":"Feature","geometry":{"type":"Point","coordinates":[106.230037,21.1427897]},"properties":{"ele":"103","name":"Núi Bu","natural":"peak"}}
{"type":"Feature","geometry":{"type":"Point","coordinates":[106.2349067,21.1383648]},"properties":{"name":"Núi Non Chùa","natural":"peak"}}
{"type":"Feature","geometry":{"type":"Point","coordinates":[118.0359582,29.8102101]},"properties":{"name":"福喜岩","natural":"peak"}}
{"type":"Feature","geometry":{"type":"Point","coordinates":[118.0339611,29.8094346]},"properties":{"name":"象鼻岩","natural":"peak"}}
{"type":"Feature","geometry":{"type":"Point","coordinates":[118.0236434,29.80833]},"properties":{"name":"五老峰","natural":"peak"}}
{"type":"Feature","geometry":{"type":"Point","coordinates":[60.303197,55.5912491]},"properties":{"name":"Каменный страж","natural":"peak"}}
{"type":"Feature","geometry":{"type":"Point","coordinates":[60.290168,55.6742935]},"properties":{"name":"Липовые скалы","natural":"peak"}}
{"type":"Feature","geometry":{"type":"Point","coordinates":[118.1710822,30.1439252]},"properties":{"name":"石笋峰","natural":"peak"}}
{"type":"Feature","geometry":{"type":"Point","coordinates":[118.1700947,30.1435887]},"properties":{"name":"始信峰","natural":"peak"}}
{"type":"Feature","geometry":{"type":"Point","coordinates":[113.3034728,32.6045788]},"properties":{"ele":"459","name":"盘古山","name:en":"Pangu Mountain","name:zh":"盘古山","natural":"peak"}}
{"type":"Feature","geometry":{"type":"Point","coordinates":[113.5883666,32.719524]},"properties":{"ele":"632","name":"铜山","name:en":"Tong Mountain","name:zh":"铜山","natural":"peak"}}
{"type":"Feature","geometry":{"type":"Point","coordinates":[39.7949527,47.7725858]},"properties":{"natural":"peak"}}
{"type":"Feature","geometry":{"type":"Point","coordinates":[82.46541,47.1883118]},"properties":{"ele":"2993","int_name":"Tastaw tawı","name":"Тастау тауы","name:kk":"Тастау тауы","name:ru":"гора Тастау","natural":"peak"}}
{"type":"Feature","geometry":{"type":"Point","coordinates":[116.4328516,30.7274612]},"properties":{"ele":"880","name":"石龙峰","natural":"peak"}}
{"type":"Feature","geometry":{"type":"Point","coordinates":[116.4299162,30.7246132]},"properties":{"ele":"781","name":"香子峰","natural":"peak"}}
{"type":"Feature","geometry":{"type":"Point","coordinates":[106.1211677,21.1409762]},"properties":{"ele":"41.5","natural":"peak"}}
{"type":"Feature","geometry":{"type":"Point","coordinates":[39.7888877,47.764277]},"properties":{"natural":"peak"}}
{"type":"Feature","geometry":{"type":"Point","coordinates":[107.4705577,32.608869]},"properties":{"natural":"peak"}}
{"type":"Feature","geometry":{"type":"Point","coordinates":[127.9272369,26.496502]},"properties":{"ele":"177","natural":"peak"}}
{"type":"Feature","geometry":{"type":"Point","coordinates":[133.5309863,43.3562489]},"properties":{"ele":"1014","name":"г. Алексеевская","natural":"peak"}}
{"type":"Feature","geometry":{"type":"Point","coordinates":[133.5116154,43.3840022]},"properties":{"ele":"748","natural":"peak"}}
{"type":"Feature","geometry":{"type":"Point","coordinates":[133.4998808,43.3855432]},"properties":{"ele":"721","natural":"peak"}}
{"type":"Feature","geometry":{"type":"Point","coordinates":[133.4900866,43.3840431]},"properties":{"ele":"663","natural":"peak"}}
{"type":"Feature","geometry":{"type":"Point","coordinates":[133.4776453,43.3851649]},"properties":{"ele":"581","natural":"peak"}}
{"type":"Feature","geometry":{"type":"Point","coordinates":[133.4654545,43.3854018]},"properties":{"ele":"675","natural":"peak"}}
{"type":"Feature","geometry":{"type":"Point","coordinates":[133.6679788,43.3547502]},"properties":{"ele":"1596","natural":"peak"}}
{"type":"Feature","geometry":{"type":"Point","coordinates":[133.6937565,43.3597341]},"properties":{"ele":"1409","natural":"peak"}}
{"type":"Feature","geometry":{"type":"Point","coordinates":[133.6847734,43.3585448]},"properties":{"ele":"1458","natural":"peak"}}
{"type":"Feature","geometry":{"type":"Point","coordinates":[133.6629067,43.3521889]},"properties":{"ele":"1641","natural":"peak"}}
{"type":"Feature","geometry":{"type":"Point","coordinates":[133.478525,43.3738472]},"properties":{"ele":"546","natural":"peak"}}
{"type":"Feature","geometry":{"type":"Point","coordinates":[133.4921707,43.3605388]},"properties":{"ele":"585","natural":"peak"}}
{"type":"Feature","geometry":{"type":"Point","coordinates":[133.503601,43.3637978]},"properties":{"ele":"726","natural":"peak"}}
{"type":"Feature","geometry":{"type":"Point","coordinates":[133.5055992,43.3678117]},"properties":{"ele":"808","natural":"peak"}}
{"type":"Feature","geometry":{"type":"Point","coordinates":[133.5132656,43.3731019]},"properties":{"ele":"886","natural":"peak"}}
{"type":"Feature","geometry":{"type":"Point","coordinates":[133.5311479,43.3746076]},"properties":{"ele":"882","natural":"peak"}}
{"type":"Feature","geometry":{"type":"Point","coordinates":[133.6419855,43.3503921]},"properties":{"ele":"1626","natural":"peak"}}
{"type":"Feature","geometry":{"type":"Point","coordinates":[133.5428296,43.36305]},"properties":{"ele":"1036","natural":"peak"}}
{"type":"Feature","geometry":{"type":"Point","coordinates":[133.5605791,43.3658735]},"properties":{"ele":"1021","natural":"peak"}}
{"type":"Feature","geometry":{"type":"Point","coordinates":[133.5819268,43.3678946]},"properties":{"ele":"1248","natural":"peak"}}
{"type":"Feature","geometry":{"type":"Point","coordinates":[46.8216629,30.9497026]},"properties":{"denomination":"sunni","emergency":"no","name":"مكان سياحة وتخييم","natural":"peak"}}
{"type":"Feature","geometry":{"type":"Point","coordinates":[98.8895841,7.4233405]},"properties":{"ele":"159","natural":"peak"}}
{"type":"Feature","geometry":{"type":"Point","coordinates":[113.9214708,22.2550215]},"properties":{"ele":"525","name":"柱崖台","name:en":"Pillar Cliff Rock","natural":"peak"}}
{"type":"Feature","geometry":{"type":"Point","coordinates":[58.2071095,54.0840947]},"properties":{"ele":"736","natural":"peak"}}
{"type":"Feature","geometry":{"type":"Point","coordinates":[140.4734941,58.3708041]},"properties":{"natural":"peak"}}
{"type":"Feature","geometry":{"type":"Point","coordinates":[120.6851989,14.1768995]},"properties":{"natural":"peak"}}
{"type":"Feature","geometry":{"type":"Point","coordinates":[120.7004097,14.1655843]},"properties":{"natural":"peak"}}
{"type":"Feature","geometry":{"type":"Point","coordinates":[128.6228903,35.8284161]},"properties":{"name":"동막산","natural":"peak"}}
{"type":"Feature","geometry":{"type":"Point","coordinates":[102.0949662,2.3025236]},"properties":{"geonames:id":"1734751","name":"Bukit Langsat","natural":"peak","source":"Standard mapping 1961 Series L 7010, Sheet 113 Malacca & Negeri Sembilan （Copyright expired)"}}
{"type":"Feature","geometry":{"type":"Point","coordinates":[44.6844122,38.4641317]},"properties":{"ele":"2576","name":"ایکیز داغی","natural":"peak"}}
{"type":"Feature","geometry":{"type":"Point","coordinates":[44.6868154,38.4616115]},"properties":{"ele":"2570","natural":"peak"}}
{"type":"Feature","geometry":{"type":"Point","coordinates":[44.7333181,38.4144148]},"properties":{"ele":"2560","name":"کرد زیدان","natural":"peak"}}
{"type":"Feature","geometry":{"type":"Point","coordinates":[44.7037078,38.3976915]},"properties":{"ele":"2605","natural":"peak"}}
{"type":"Feature","geometry":{"type":"Point","coordinates":[98.5576669,19.203761]},"properties":{"description":"Highest peak or summit of the mountain as determined by local survey with GNSS/barometric devices referencing the DEMs.","ele":"2000","name:en":"Doi Khun MaeYa (west peak, summit)","natural":"peak"}}
{"type":"Feature","geometry":{"type":"Point","coordinates":[131.8353159,43.0642594]},"properties":{"ele":"53","natural":"peak"}}
{"type":"Feature","geometry":{"type":"Point","coordinates":[131.8264814,43.0589403]},"properties":{"ele":"47","natural":"peak"}}
{"type":"Feature","geometry":{"type":"Point","coordinates":[131.830209,43.0601196]},"properties":{"ele":"57","natural":"peak"}}
{"type":"Feature","geometry":{"type":"Point","coordinates":[40.6282783,36.5392389]},"properties":{"natural":"peak"}}
{"type":"Feature","geometry":{"type":"Point","coordinates":[120.8732491,23.9089905]},"properties":{"ele":"866","name":"蓮花池山西峰","natural":"peak"}}
{"type":"Feature","geometry":{"type":"Point","coordinates":[140.767174,58.3447711]},"properties":{"natural":"peak"}}
{"type":"Feature","geometry":{"type":"Point","coordinates":[82.9305725,29.3374998]},"properties":{"ele":"5450","natural":"peak"}}
{"type":"Feature","geometry":{"type":"Point","coordinates":[120.7480699,29.906519]},"properties":{"ele":"572","name":"诸葛山","natural":"peak"}}
{"type":"Feature","geometry":{"type":"Point","coordinates":[133.9964209,34.7584038]},"properties":{"ele":"262","name":"善応寺山","natural":"peak","source":"GSImaps/std"}}
{"type":"Feature","geometry":{"type":"Point","coordinates":[133.9870285,34.7421904]},"properties":{"ele":"312.3","name":"龍王山","natural":"peak","source":"GSImaps/std;Bing"}}
{"type":"Feature","geometry":{"type":"Point","coordinates":[40.6130594,36.5598036]},"properties":{"natural":"peak"}}
{"type":"Feature","geometry":{"type":"Point","coordinates":[40.6183541,36.5494681]},"properties":{"natural":"peak"}}
{"type":"Feature","geometry":{"type":"Point","coordinates":[40.6154519,36.5552856]},"properties":{"natural":"peak"}}
{"type":"Feature","geometry":{"type":"Point","coordinates":[119.985841,25.9698986]},"properties":{"ele":"63","name":"燈塔山","natural":"peak"}}
{"type":"Feature","geometry":{"type":"Point","coordinates":[40.7203317,36.5786958]},"properties":{"natural":"peak"}}
{"type":"Feature","geometry":{"type":"Point","coordinates":[40.6861737,36.5853533]},"properties":{"natural":"peak"}}
{"type":"Feature","geometry":{"type":"Point","coordinates":[40.6701636,36.5641512]},"properties":{"natural":"peak"}}
{"type":"Feature","geometry":{"type":"Point","coordinates":[83.2329495,29.1428629]},"properties":{"ele":"5155","name":"Pawo Ri","name:ne":"Pawo Drunga","natural":"peak"}}
{"type":"Feature","geometry":{"type":"Point","coordinates":[126.6224961,37.8640002]},"properties":{"ele":"277","name":"군장산","name:en":"Gunjangsan Mountain","name:ko":"군장산","natural":"peak"}}
{"type":"Feature","geometry":{"type":"Point","coordinates":[118.8210749,-8.5412382]},"properties":{"name":"Toro Mangio","natural":"peak"}}
{"type":"Feature","geometry":{"type":"Point","coordinates":[132.9015577,43.2087105]},"properties":{"ele":"420","natural":"peak"}}
{"type":"Feature","geometry":{"type":"Point","coordinates":[132.9258994,43.1915684]},"properties":{"ele":"391","natural":"peak"}}
{"type":"Feature","geometry":{"type":"Point","coordinates":[132.9363942,43.2101044]},"properties":{"ele":"442","natural":"peak"}}
{"type":"Feature","geometry":{"type":"Point","coordinates":[40.6418878,36.6034576]},"properties":{"natural":"peak"}}
{"type":"Feature","geometry":{"type":"Point","coordinates":[120.6578743,22.4261534]},"properties":{"name":"臼卡拉布亞恩山","natural":"peak"}}
{"type":"Feature","geometry":{"type":"Point","coordinates":[40.5987525,36.5798072]},"properties":{"natural":"peak"}}
{"type":"Feature","geometry":{"type":"Point","coordinates":[120.7389471,21.9218898]},"properties":{"name":"望海嶺","natural":"peak"}}
{"type":"Feature","geometry":{"type":"Point","coordinates":[120.7385394,21.9214621]},"properties":{"name":"大貓嶺","natural":"peak"}}
{"type":"Feature","geometry":{"type":"Point","coordinates":[40.8195305,36.7444639]},"properties":{"natural":"peak"}}
{"type":"Feature","geometry":{"type":"Point","coordinates":[40.6965673,36.6924938]},"properties":{"natural":"peak"}}
{"type":"Feature","geometry":{"type":"Point","coordinates":[40.8708841,36.7494329]},"properties":{"natural":"peak"}}
{"type":"Feature","geometry":{"type":"Point","coordinates":[125.2646547,37.7293702]},"properties":{"ele":"155","name":"수오산","name:en":"Suosan","name:ko":"수오산","natural":"peak"}}
{"type":"Feature","geometry":{"type":"Point","coordinates":[125.4752746,37.7427218]},"properties":{"ele":"215","name":"구월봉","name:en":"Guwolbong","name:ko":"구월봉","natural":"peak"}}
{"type":"Feature","geometry":{"type":"Point","coordinates":[125.4540659,37.8048733]},"properties":{"ele":"183","name":"일출봉","name:en":"Sunrise Peak","name:ko":"일출봉","natural":"peak"}}
{"type":"Feature","geometry":{"type":"Point","coordinates":[125.5312534,37.7998582]},"properties":{"ele":"223","name":"관각산","name:en":"Gwanaksan Mountain","name:ko":"관각산","natural":"peak"}}
{"type":"Feature","geometry":{"type":"Point","coordinates":[125.6241178,37.8640895]},"properties":{"ele":"154","name":"식대산","name:en":"Sikdaesan","name:ko":"식대산","natural":"peak"}}
{"type":"Feature","geometry":{"type":"Point","coordinates":[125.515109,37.991065]},"properties":{"ele":"358","name":"까치산","name:ko":"까치산","natural":"peak"}}
{"type":"Feature","geometry":{"type":"Point","coordinates":[118.3991066,34.2309197]},"properties":{"ele":"57","name":"宋山","natural":"peak","summit:cross":"no"}}
{"type":"Feature","geometry":{"type":"Point","coordinates":[101.731647,2.838253]},"properties":{"ele":"186","name":"Peak 527","natural":"peak"}}
{"type":"Feature","geometry":{"type":"Point","coordinates":[40.8325258,36.9000151]},"properties":{"natural":"peak"}}
{"type":"Feature","geometry":{"type":"Point","coordinates":[126.3303276,38.0759233]},"properties":{"ele":"296","name":"광석산","name:en":"Gwangseoksan Mountain","name:ko":"광석산","natural":"peak"}}
{"type":"Feature","geometry":{"type":"Point","coordinates":[126.357596,38.1219142]},"properties":{"ele":"332","name":"도비산","name:en":"Dobisan Mountain","name:ko":"도비산","natural":"peak"}}
{"type":"Feature","geometry":{"type":"Point","coordinates":[126.4264661,38.1031628]},"properties":{"ele":"236","name":"설우산","name:ko":"설우산","natural":"peak"}}
{"type":"Feature","geometry":{"type":"Point","coordinates":[40.8541095,36.8719608]},"properties":{"natural":"peak"}}
{"type":"Feature","geometry":{"type":"Point","coordinates":[121.9752724,25.0005912]},"properties":{"ele":"435","natural":"peak"}}
{"type":"Feature","geometry":{"type":"Point","coordinates":[56.2729853,28.4112301]},"properties":{"name":"براوردی ها","natural":"peak"}}
{"type":"Feature","geometry":{"type":"Point","coordinates":[42.2617346,19.5313323]},"properties":{"name":"جبل الشقراء","natural":"peak"}}
{"type":"Feature","geometry":{"type":"Point","coordinates":[42.2628144,19.522499]},"properties":{"name":"جبل الدجيج","natural":"peak"}}
{"type":"Feature","geometry":{"type":"Point","coordinates":[42.1768473,19.4992237]},"properties":{"name":"حيد البانه","natural":"peak"}}
{"type":"Feature","geometry":{"type":"Point","coordinates":[42.2847411,19.5222512]},"properties":{"name":"جبل القطعاء","natural":"peak"}}
{"type":"Feature","geometry":{"type":"Point","coordinates":[98.1706656,18.9659795]},"properties":{"description":"Doi Pong Sanyan or Pong Sayaen is a high summit on the border of Khun Yuam & Mae Chaem districts which is suitable for hiking or camping on foot only via primarily a 4 km trail from a forest park in ban mai huai wai.\nThe elevation is estimated around 2005","ele":"2005","name":"ดอยโป่งสะแยน","name:en":"Doi Pong Sa Yaen","natural":"peak","source":"https://mapcarta.com/14576762"}}
{"type":"Feature","geometry":{"type":"Point","coordinates":[117.372278,39.2554587]},"properties":{"natural":"peak"}}
{"type":"Feature","geometry":{"type":"Point","coordinates":[130.6975584,42.6105945]},"properties":{"ele":"114","name":"Карьерная","natural":"peak","source":"survey"}}
{"type":"Feature","geometry":{"type":"Point","coordinates":[130.6806296,42.6403242]},"properties":{"ele":"104","name":"Береговая","natural":"peak","source":"survey"}}
{"type":"Feature","geometry":{"type":"Point","coordinates":[130.6461525,42.624281]},"properties":{"ele":"156","name":"г. Утиная","natural":"peak","source":"survey"}}
{"type":"Feature","geometry":{"type":"Point","coordinates":[130.7066819,42.6185059]},"properties":{"ele":"203","name":"Чёртова Горка","natural":"peak","source":"survey"}}
{"type":"Feature","geometry":{"type":"Point","coordinates":[40.8616894,36.8562698]},"properties":{"natural":"peak"}}
{"type":"Feature","geometry":{"type":"Point","coordinates":[40.8972609,36.8134421]},"properties":{"natural":"peak"}}
{"type":"Feature","geometry":{"type":"Point","coordinates":[40.9286132,36.8023996]},"properties":{"natural":"peak"}}
{"type":"Feature","geometry":{"type":"Point","coordinates":[40.9307349,36.7829694]},"properties":{"natural":"peak"}}
{"type":"Feature","geometry":{"type":"Point","coordinates":[40.9296673,36.7814828]},"properties":{"natural":"peak"}}
{"type":"Feature","geometry":{"type":"Point","coordinates":[73.5120107,35.3708173]},"properties":{"natural":"peak"}}
{"type":"Feature","geometry":{"type":"Point","coordinates":[73.8161678,35.0305883]},"properties":{"natural":"peak"}}
{"type":"Feature","geometry":{"type":"Point","coordinates":[73.8324668,35.0300166]},"properties":{"natural":"peak"}}
{"type":"Feature","geometry":{"type":"Point","coordinates":[73.3438213,35.3315875]},"properties":{"natural":"peak"}}
{"type":"Feature","geometry":{"type":"Point","coordinates":[73.357321,35.3275137]},"properties":{"natural":"peak"}}
{"type":"Feature","geometry":{"type":"Point","coordinates":[73.7435364,35.2095165]},"properties":{"natural":"peak"}}
{"type":"Feature","geometry":{"type":"Point","coordinates":[73.7452992,35.2178228]},"properties":{"natural":"peak"}}
{"type":"Feature","geometry":{"type":"Point","coordinates":[73.7460992,35.2282567]},"properties":{"natural":"peak"}}
{"type":"Feature","geometry":{"type":"Point","coordinates":[73.7012692,35.2337178]},"properties":{"natural":"peak"}}
{"type":"Feature","geometry":{"type":"Point","coordinates":[73.7277601,35.2369854]},"properties":{"natural":"peak"}}
{"type":"Feature","geometry":{"type":"Point","coordinates":[73.7358389,35.2365541]},"properties":{"natural":"peak"}}
{"type":"Feature","geometry":{"type":"Point","coordinates":[100.6456366,5.9877496]},"properties":{"ele":"531","natural":"peak"}}
{"type":"Feature","geometry":{"type":"Point","coordinates":[100.6121877,5.9636301]},"properties":{"ele":"502","geonames:id":"1750779","name":"Bukit Perah","natural":"peak","wikidata":"Q31767453"}}
{"type":"Feature","geometry":{"type":"Point","coordinates":[134.7970372,35.6226339]},"properties":{"name":"大師山","name:en":"Mt. Daishi","name:fr":"Mont Daishi","name:ja-Hira":"だいしやま","name:ja-Latn":"Daishi-yama","natural":"peak"}}
{"type":"Feature","geometry":{"type":"Point","coordinates":[127.9451136,38.5880272]},"properties":{"ele":"834(m)","name":"단발령","natural":"peak"}}
{"type":"Feature","geometry":{"type":"Point","coordinates":[41.0403246,36.9632962]},"properties":{"natural":"peak"}}
{"type":"Feature","geometry":{"type":"Point","coordinates":[115.9570568,28.6886145]},"properties":{"natural":"peak"}}
{"type":"Feature","geometry":{"type":"Point","coordinates":[115.9574429,28.6885713]},"properties":{"natural":"peak"}}
{"type":"Feature","geometry":{"type":"Point","coordinates":[103.1647754,28.0260004]},"properties":{"natural":"peak","source":"cyclemap"}}
{"type":"Feature","geometry":{"type":"Point","coordinates":[115.0426062,1.6806827]},"properties":{"natural":"peak"}}
{"type":"Feature","geometry":{"type":"Point","coordinates":[149.0782392,65.2148637]},"properties":{"ele":"2335","natural":"peak"}}
{"type":"Feature","geometry":{"type":"Point","coordinates":[148.8211438,64.9707908]},"properties":{"ele":"1303","natural":"peak"}}
{"type":"Feature","geometry":{"type":"Point","coordinates":[148.401432,64.6533248]},"properties":{"ele":"1246","name":"Горгундя","natural":"peak"}}
{"type":"Feature","geometry":{"type":"Point","coordinates":[103.2398128,27.9216964]},"properties":{"natural":"peak","source":"cyclOSM"}}
{"type":"Feature","geometry":{"type":"Point","coordinates":[103.2272815,27.9635514]},"properties":{"natural":"peak","source":"cyclOSM"}}
{"type":"Feature","geometry":{"type":"Point","coordinates":[126.1516053,37.9171453]},"properties":{"alt_name:ko":"비봉산","ele":"281","name":"북산","name:en":"Bukhansan","name:ko":"북산","natural":"peak"}}
{"type":"Feature","geometry":{"type":"Point","coordinates":[126.1433291,37.8837914]},"properties":{"ele":"150","name":"자봉산","name:en":"Jabongsan Mountain","name:ko":"자봉산","natural":"peak"}}
{"type":"Feature","geometry":{"type":"Point","coordinates":[126.0969458,38.0014289]},"properties":{"ele":"220","name":"해월산","name:ko":"해월산","natural":"peak"}}
{"type":"Feature","geometry":{"type":"Point","coordinates":[97.2123259,3.7922053]},"properties":{"name":"Puncak Bayangan Tanpa Nama","natural":"peak"}}
{"type":"Feature","geometry":{"type":"Point","coordinates":[51.2361123,35.170699]},"properties":{"ele":"1503","name":"کوه مره","name:en":"Mount Merah","natural":"peak"}}
{"type":"Feature","geometry":{"type":"Point","coordinates":[51.889699,34.9127093]},"properties":{"ele":"1350","natural":"peak"}}
{"type":"Feature","geometry":{"type":"Point","coordinates":[120.1102823,29.4834519]},"properties":{"name":"湖山屏","natural":"peak"}}
{"type":"Feature","geometry":{"type":"Point","coordinates":[120.1102823,29.4834519]},"properties":{"name":"湖山屏","natural":"peak"}}
{"type":"Feature","geometry":{"type":"Point","coordinates":[41.1804485,36.8745828]},"properties":{"natural":"peak"}}
{"type":"Feature","geometry":{"type":"Point","coordinates":[41.1776268,36.8763422]},"properties":{"natural":"peak"}}
{"type":"Feature","geometry":{"type":"Point","coordinates":[69.0265807,53.2524579]},"properties":{"ele":"338","natural":"peak"}}
{"type":"Feature","geometry":{"type":"Point","coordinates":[69.0547487,53.2336198]},"properties":{"ele":"365","natural":"peak"}}
{"type":"Feature","geometry":{"type":"Point","coordinates":[69.0889105,53.2569387]},"properties":{"ele":"340","natural":"peak"}}
{"type":"Feature","geometry":{"type":"Point","coordinates":[121.6404855,29.7875931]},"properties":{"name":"平满山","natural":"peak"}}
{"type":"Feature","geometry":{"type":"Point","coordinates":[45.2777392,31.3031215]},"properties":{"name":"مشتل حي الشرطة","natural":"peak"}}
{"type":"Feature","geometry":{"type":"Point","coordinates":[137.8233007,34.9244716]},"properties":{"ele":"399.5","man_made":"survey_point","name":"谷山","name:ja":"谷山","natural":"peak"}}
{"type":"Feature","geometry":{"type":"Point","coordinates":[73.4426901,34.928111]},"properties":{"natural":"peak"}}
{"type":"Feature","geometry":{"type":"Point","coordinates":[103.6260931,2.2317126]},"properties":{"ele":"210","fixme":"Peak have Secondary Triagulation station. To be confirm","geonames:id":"1757348","man_made":"survey_point","name":"Bukit Linchu","natural":"peak","source:ele":"MyCartoGo","wikidata":"Q30650820"}}
{"type":"Feature","geometry":{"type":"Point","coordinates":[103.6614908,2.2339702]},"properties":{"ele":"386","fixme":"Peak have Secondary Triagulation station. To be confirm","geonames:id":"1775042","man_made":"survey_point","name":"Bukit Gantang Ambin","natural":"peak","source:ele":"MyCartoGo","wikidata":"Q30671396"}}
{"type":"Feature","geometry":{"type":"Point","coordinates":[103.6512,2.2163]},"properties":{"ele":"255","fixme":"Peak have Secondary Triagulation station. To be confirm","geonames:id":"1777677","man_made":"survey_point","name":"Bukit Chabang Tiga","natural":"peak","source:ele":"MyCartoGo","wikidata":"Q30686648"}}
{"type":"Feature","geometry":{"type":"Point","coordinates":[51.978671,35.2161004]},"properties":{"ele":"1365","loc_name":"مکرش","name":"مکرش","name:en":"Makrosh","natural":"peak"}}
{"type":"Feature","geometry":{"type":"Point","coordinates":[52.0733313,35.2335233]},"properties":{"ele":"1275","loc_name":"کوه نمک","name":"کوه نمک","name:en":"Kuh-e Namak","natural":"peak"}}
{"type":"Feature","geometry":{"type":"Point","coordinates":[120.0277965,29.7395812]},"properties":{"name":"鸡笼尖","natural":"peak"}}
{"type":"Feature","geometry":{"type":"Point","coordinates":[52.1576076,35.1993124]},"properties":{"ele":"1257","loc_name":"کوه تخت رستم","name":"کوه تخت رستم","name:en":"Takht-e Rostam","natural":"peak"}}
{"type":"Feature","geometry":{"type":"Point","coordinates":[127.129401,35.6716688]},"properties":{"ele":"520","name":"박죽이산","natural":"peak"}}
{"type":"Feature","geometry":{"type":"Point","coordinates":[103.7606978,2.2287075]},"properties":{"ele":"102","fixme":"Peak have Primary Triagulation station. To be confirm","geonames:id":"1776578","man_made":"survey_point","name":"Bukit Damar","natural":"peak","source:ele":"Topografi Map Malaysia","wikidata":"Q30678988"}}
{"type":"Feature","geometry":{"type":"Point","coordinates":[103.7626974,2.209906]},"properties":{"ele":"100","fixme":"Peak have Primary Triagulation station. To be confirm","geonames:id":"1757302","man_made":"survey_point","name":"Bukit Lin Hye","natural":"peak","source:ele":"Topografi Map Malaysia","wikidata":"Q30650725"}}
{"type":"Feature","geometry":{"type":"Point","coordinates":[103.7383602,2.1895229]},"properties":{"ele":"150","fixme":"Peak have Secondary Triagulation station. To be confirm","geonames:id":"1747053","man_made":"survey_point","name":"Bukit Salah","natural":"peak","source:ele":"Topografi Map Malaysia","wikidata":"Q31262714"}}
{"type":"Feature","geometry":{"type":"Point","coordinates":[103.8194971,2.1774134]},"properties":{"fixme":"Peak have Primary Triagulation station. To be confirm","geonames:id":"1776734","man_made":"survey_point","name":"Bukit Churam","natural":"peak","wikidata":"Q30679471"}}
{"type":"Feature","geometry":{"type":"Point","coordinates":[103.7732933,2.1462202]},"properties":{"ele":"166","fixme":"Peak have Secondary Triagulation station. To be confirm","geonames:id":"1780805","man_made":"survey_point","name":"Bukit Batu Hijau","natural":"peak","source:ele":"MyCartoGo","wikidata":"Q30707463"}}
{"type":"Feature","geometry":{"type":"Point","coordinates":[103.7385989,2.1080063]},"properties":{"ele":"286","fixme":"Peak have Secondary Triagulation station. To be confirm","geonames:id":"1773822","man_made":"survey_point","name":"Bukit Harimau","natural":"peak","source:ele":"MyCartoGo","wikidata":"Q30667573"}}
{"type":"Feature","geometry":{"type":"Point","coordinates":[69.1146624,53.2307342]},"properties":{"ele":"374","natural":"peak"}}
{"type":"Feature","geometry":{"type":"Point","coordinates":[103.7194012,2.0929034]},"properties":{"ele":"526","fixme":"Peak have Primary Triagulation station. To be confirm","geonames:id":"1756581","man_made":"survey_point","name":"Bukit Lutong","natural":"peak","wikidata":"Q30649804"}}
{"type":"Feature","geometry":{"type":"Point","coordinates":[41.1923039,36.9587997]},"properties":{"natural":"peak"}}
{"type":"Feature","geometry":{"type":"Point","coordinates":[41.1702427,36.9146914]},"properties":{"natural":"peak"}}
{"type":"Feature","geometry":{"type":"Point","coordinates":[103.7046034,1.8989045]},"properties":{"ele":"326","fixme":"Peak have Primary Triagulation station. To be confirm","geonames:id":"1753054","man_made":"survey_point","name":"Bukit Pachat","natural":"peak","source:ele":"Topografi Map Malaysia","wikidata":"Q30624046"}}
{"type":"Feature","geometry":{"type":"Point","coordinates":[103.666273,2.119315]},"properties":{"ele":"337","fixme":"Peak have Primary Triagulation station. To be confirm","geonames:id":"1778660","man_made":"survey_point","name":"Bukit Buah","natural":"peak","source:ele":"Topografi Map Malaysia","wikidata":"Q30690731"}}
{"type":"Feature","geometry":{"type":"Point","coordinates":[137.805452,34.9755151]},"properties":{"ele":"479","man_made":"survey_point","natural":"peak"}}
{"type":"Feature","geometry":{"type":"Point","coordinates":[137.8025399,34.9823627]},"properties":{"ele":"473.3","man_made":"survey_point","natural":"peak"}}
{"type":"Feature","geometry":{"type":"Point","coordinates":[103.7480592,1.8888235]},"properties":{"ele":"307","fixme":"Peak have Primary Triagulation station. To be confirm","geonames:id":"1740157","man_made":"survey_point","name":"Bukit Tengkil","natural":"peak","source:ele":"Topografi Map Malaysia","wikidata":"Q31261767"}}
{"type":"Feature","geometry":{"type":"Point","coordinates":[73.5000391,35.2796937]},"properties":{"natural":"peak"}}
{"type":"Feature","geometry":{"type":"Point","coordinates":[73.5040332,35.2885924]},"properties":{"natural":"peak"}}
{"type":"Feature","geometry":{"type":"Point","coordinates":[73.4116735,35.2573073]},"properties":{"natural":"peak"}}
{"type":"Feature","geometry":{"type":"Point","coordinates":[73.4107425,35.2488466]},"properties":{"natural":"peak"}}
{"type":"Feature","geometry":{"type":"Point","coordinates":[73.4813294,35.3615574]},"properties":{"natural":"peak"}}
{"type":"Feature","geometry":{"type":"Point","coordinates":[73.5246228,35.4021844]},"properties":{"natural":"peak"}}
{"type":"Feature","geometry":{"type":"Point","coordinates":[73.624192,35.4107869]},"properties":{"natural":"peak"}}
{"type":"Feature","geometry":{"type":"Point","coordinates":[103.6188975,1.9585108]},"properties":{"alt_name":"Bukit Jengeli Timur","ele":"393","fixme":"Peak have Primary Triagulation station. To be confirm","geonames:id":"1772671","man_made":"survey_point","name":"Bukit Jengeli East","natural":"peak","source:ele":"Topografi Map Malaysia","wikidata":"Q30665452"}}
{"type":"Feature","geometry":{"type":"Point","coordinates":[103.6095282,1.9579214]},"properties":{"alt_name":"Bukit Jengeli Barat","ele":"444","fixme":"Peak have Primary Triagulation station. To be confirm","geonames:id":"1772668","man_made":"survey_point","name":"Bukit Jengeli West","natural":"peak","source:ele":"Topografi Map Malaysia","wikidata":"Q30665391"}}
{"type":"Feature","geometry":{"type":"Point","coordinates":[103.7531635,1.9407703]},"properties":{"ele":"460","fixme":"Peak have Primary Triagulation station. To be confirm","geonames:id":"1742179","man_made":"survey_point","name":"Bukit Tajam","natural":"peak","source:ele":"Topografi Map Malaysia","wikidata":"Q31262183"}}
{"type":"Feature","geometry":{"type":"Point","coordinates":[128.7549478,35.1986455]},"properties":{"ele":"724.7","name":"724봉","name:en":"724 BONG","natural":"peak"}}
{"type":"Feature","geometry":{"type":"Point","coordinates":[128.7522748,35.1976854]},"properties":{"ele":"718","name":"718","natural":"peak"}}
{"type":"Feature","geometry":{"type":"Point","coordinates":[128.7518571,35.1961832]},"properties":{"name":"풀무지언덕","name:en":"FOOLMOOJI HILL","natural":"peak"}}
{"type":"Feature","geometry":{"type":"Point","coordinates":[103.7187381,1.9864087]},"properties":{"ele":"465","fixme":"Peak have Primary Triagulation station. To be confirm","man_made":"survey_point","natural":"peak"}}
{"type":"Feature","geometry":{"type":"Point","coordinates":[103.7530857,1.9964308]},"properties":{"ele":"215","fixme":"Peak have Primary Triagulation station. To be confirm","geonames:id":"1752344","man_made":"survey_point","name":"Bukit Panjang","natural":"peak","source:ele":"Topografi Map Malaysia","wikidata":"Q30619946"}}
{"type":"Feature","geometry":{"type":"Point","coordinates":[103.7250995,2.0937088]},"properties":{"ele":"421","geonames:id":"1780224","name":"Bukit Belakang Padang","natural":"peak","wikidata":"Q30702803"}}
{"type":"Feature","geometry":{"type":"Point","coordinates":[103.7538931,2.1480641]},"properties":{"ele":"227","fixme":"Peak have Secondary Triagulation station. To be confirm","geonames:id":"1778482","man_made":"survey_point","name":"Bukit Bujang","natural":"peak","source:ele":"Topografi Map Malaysia","wikidata":"Q30689941"}}
{"type":"Feature","geometry":{"type":"Point","coordinates":[120.7443887,24.284138]},"properties":{"alt_name":"七星山","ele":"382","name":"七星岡","natural":"peak"}}
{"type":"Feature","geometry":{"type":"Point","coordinates":[103.5200071,2.177794]},"properties":{"ele":"269","fixme":"Peak have Primary Triagulation station. To be confirm","geonames:id":"1772897","man_made":"survey_point","name":"Bukit Jelakoi","natural":"peak","source:ele":"Topografi Map Malaysia","wikidata":"Q30666171"}}
{"type":"Feature","geometry":{"type":"Point","coordinates":[73.2965341,35.3137395]},"properties":{"natural":"peak"}}
{"type":"Feature","geometry":{"type":"Point","coordinates":[73.3194509,35.3265554]},"properties":{"natural":"peak"}}
{"type":"Feature","geometry":{"type":"Point","coordinates":[73.3142152,35.3295665]},"properties":{"natural":"peak"}}
{"type":"Feature","geometry":{"type":"Point","coordinates":[73.3292785,35.328131]},"properties":{"natural":"peak"}}
{"type":"Feature","geometry":{"type":"Point","coordinates":[73.3449426,35.3414347]},"properties":{"natural":"peak"}}
{"type":"Feature","geometry":{"type":"Point","coordinates":[73.4088435,35.3654458]},"properties":{"natural":"peak"}}
{"type":"Feature","geometry":{"type":"Point","coordinates":[73.4093585,35.3398243]},"properties":{"natural":"peak"}}
{"type":"Feature","geometry":{"type":"Point","coordinates":[73.4528824,35.256533]},"properties":{"natural":"peak"}}
{"type":"Feature","geometry":{"type":"Point","coordinates":[73.4913317,35.268679]},"properties":{"natural":"peak"}}
{"type":"Feature","geometry":{"type":"Point","coordinates":[73.4873641,35.2677572]},"properties":{"natural":"peak"}}
{"type":"Feature","geometry":{"type":"Point","coordinates":[73.5038795,35.2768691]},"properties":{"natural":"peak"}}
{"type":"Feature","geometry":{"type":"Point","coordinates":[73.4966863,35.2693374]},"properties":{"natural":"peak"}}
{"type":"Feature","geometry":{"type":"Point","coordinates":[73.5032343,35.2608832]},"properties":{"natural":"peak"}}
{"type":"Feature","geometry":{"type":"Point","coordinates":[73.5617155,35.2862959]},"properties":{"natural":"peak"}}
{"type":"Feature","geometry":{"type":"Point","coordinates":[73.5553287,35.2903769]},"properties":{"natural":"peak"}}
{"type":"Feature","geometry":{"type":"Point","coordinates":[73.5602962,35.290298]},"properties":{"natural":"peak"}}
{"type":"Feature","geometry":{"type":"Point","coordinates":[73.5605543,35.2989861]},"properties":{"natural":"peak"}}
{"type":"Feature","geometry":{"type":"Point","coordinates":[73.560522,35.3069888]},"properties":{"natural":"peak"}}
{"type":"Feature","geometry":{"type":"Point","coordinates":[73.5617155,35.3111215]},"properties":{"natural":"peak"}}
{"type":"Feature","geometry":{"type":"Point","coordinates":[73.5638767,35.3138063]},"properties":{"natural":"peak"}}
{"type":"Feature","geometry":{"type":"Point","coordinates":[73.5679411,35.32465]},"properties":{"natural":"peak"}}
{"type":"Feature","geometry":{"type":"Point","coordinates":[73.569941,35.331387]},"properties":{"natural":"peak"}}
{"type":"Feature","geometry":{"type":"Point","coordinates":[73.5772632,35.3363869]},"properties":{"natural":"peak"}}
{"type":"Feature","geometry":{"type":"Point","coordinates":[103.5545995,2.1557191]},"properties":{"ele":"369","fixme":"Peak have Secondary Triagulation station. To be confirm","geonames:id":"1743618","man_made":"survey_point","name":"Bukit Simbang","natural":"peak","source:ele":"Topografi Map Malaysia","wikidata":"Q31262357"}}
{"type":"Feature","geometry":{"type":"Point","coordinates":[103.7317666,2.1673421]},"properties":{"ele":"352","fixme":"Peak have Secondary Triagulation station. To be confirm","man_made":"survey_point","natural":"peak"}}
{"type":"Feature","geometry":{"type":"Point","coordinates":[73.5932625,35.3414653]},"properties":{"natural":"peak"}}
{"type":"Feature","geometry":{"type":"Point","coordinates":[73.6114229,35.3377289]},"properties":{"natural":"peak"}}
{"type":"Feature","geometry":{"type":"Point","coordinates":[73.6188097,35.3335186]},"properties":{"natural":"peak"}}
{"type":"Feature","geometry":{"type":"Point","coordinates":[73.6258739,35.3390971]},"properties":{"natural":"peak"}}
{"type":"Feature","geometry":{"type":"Point","coordinates":[73.6334219,35.334387]},"properties":{"natural":"peak"}}
{"type":"Feature","geometry":{"type":"Point","coordinates":[73.6446472,35.3333081]},"properties":{"natural":"peak"}}
{"type":"Feature","geometry":{"type":"Point","coordinates":[73.6569692,35.3315713]},"properties":{"natural":"peak"}}
{"type":"Feature","geometry":{"type":"Point","coordinates":[73.6634528,35.3322555]},"properties":{"natural":"peak"}}
{"type":"Feature","geometry":{"type":"Point","coordinates":[73.6728395,35.3327291]},"properties":{"natural":"peak"}}
{"type":"Feature","geometry":{"type":"Point","coordinates":[73.7040961,35.3426493]},"properties":{"natural":"peak"}}
{"type":"Feature","geometry":{"type":"Point","coordinates":[73.7991885,35.3424652]},"properties":{"natural":"peak"}}
{"type":"Feature","geometry":{"type":"Point","coordinates":[73.8197682,35.2333284]},"properties":{"natural":"peak"}}
{"type":"Feature","geometry":{"type":"Point","coordinates":[73.8933455,35.2122213]},"properties":{"natural":"peak"}}
{"type":"Feature","geometry":{"type":"Point","coordinates":[73.9415368,35.1887362]},"properties":{"natural":"peak"}}
{"type":"Feature","geometry":{"type":"Point","coordinates":[73.9464076,35.1929013]},"properties":{"natural":"peak"}}
{"type":"Feature","geometry":{"type":"Point","coordinates":[73.9463753,35.1799572]},"properties":{"natural":"peak"}}
{"type":"Feature","geometry":{"type":"Point","coordinates":[73.9390208,35.1594955]},"properties":{"natural":"peak"}}
{"type":"Feature","geometry":{"type":"Point","coordinates":[73.9324405,35.1632138]},"properties":{"natural":"peak"}}
{"type":"Feature","geometry":{"type":"Point","coordinates":[73.9231183,35.1642686]},"properties":{"natural":"peak"}}
{"type":"Feature","geometry":{"type":"Point","coordinates":[73.866536,35.7088016]},"properties":{"natural":"peak"}}
{"type":"Feature","geometry":{"type":"Point","coordinates":[73.7135417,35.7883001]},"properties":{"natural":"peak"}}
{"type":"Feature","geometry":{"type":"Point","coordinates":[73.7260361,35.7816959]},"properties":{"natural":"peak"}}
{"type":"Feature","geometry":{"type":"Point","coordinates":[73.7326507,35.7798384]},"properties":{"natural":"peak"}}
{"type":"Feature","geometry":{"type":"Point","coordinates":[73.7557737,35.7668803]},"properties":{"natural":"peak"}}
{"type":"Feature","geometry":{"type":"Point","coordinates":[73.7617904,35.736711]},"properties":{"natural":"peak"}}
{"type":"Feature","geometry":{"type":"Point","coordinates":[73.7190061,35.723619]},"properties":{"natural":"peak"}}
{"type":"Feature","geometry":{"type":"Point","coordinates":[73.7291646,35.7181107]},"properties":{"natural":"peak"}}
{"type":"Feature","geometry":{"type":"Point","coordinates":[73.7077724,35.7386972]},"properties":{"natural":"peak"}}
{"type":"Feature","geometry":{"type":"Point","coordinates":[73.6921268,35.6910754]},"properties":{"natural":"peak"}}
{"type":"Feature","geometry":{"type":"Point","coordinates":[73.6725513,35.7018545]},"properties":{"natural":"peak"}}
{"type":"Feature","geometry":{"type":"Point","coordinates":[73.6683248,35.7029083]},"properties":{"natural":"peak"}}
{"type":"Feature","geometry":{"type":"Point","coordinates":[73.680782,35.6843001]},"properties":{"natural":"peak"}}
{"type":"Feature","geometry":{"type":"Point","coordinates":[73.7038054,35.6863177]},"properties":{"natural":"peak"}}
{"type":"Feature","geometry":{"type":"Point","coordinates":[73.7197476,35.6843302]},"properties":{"natural":"peak"}}
{"type":"Feature","geometry":{"type":"Point","coordinates":[73.7621241,35.646649]},"properties":{"natural":"peak"}}
{"type":"Feature","geometry":{"type":"Point","coordinates":[73.8045377,35.6469202]},"properties":{"natural":"peak"}}
{"type":"Feature","geometry":{"type":"Point","coordinates":[73.8103214,35.631674]},"properties":{"natural":"peak"}}
{"type":"Feature","geometry":{"type":"Point","coordinates":[73.8390173,35.6514392]},"properties":{"natural":"peak"}}
{"type":"Feature","geometry":{"type":"Point","coordinates":[73.8308608,35.666772]},"properties":{"natural":"peak"}}
{"type":"Feature","geometry":{"type":"Point","coordinates":[74.3362365,35.6354503]},