{"type":"Feature","geometry":{"type":"Point","coordinates":[134.8387727,34.3577491]},"properties":{"alt_name":"淡路富士","alt_name:en":"Awaji Fuji","alt_name:fr":"Fuji d'Awaji","alt_name:ja-Hira":"あわじ ふじ","alt_name:ja-Latn":"Awaji-fuji","contact:instagram":"senzan_senkoji","ele":"448","name":"先山","name:en":"Mt. Sen","name:fr":"Mont Sen","name:ja-Hira":"せんざん","name:ja-Latn":"Sen-zan","natural":"peak","source":"GSImaps/std","wikidata":"Q11388137","wikimedia_commons":"Category:Mount Senzan","wikipedia":"ja:先山"}}
{"type":"Feature","geometry":{"type":"Point","coordinates":[134.8549908,34.4046897]},"properties":{"ele":"266","name":"高倉山","name:ja":"高倉山","natural":"peak","source":"GSImaps/std"}}
{"type":"Feature","geometry":{"type":"Point","coordinates":[134.843937,34.4308873]},"properties":{"ele":"245","name":"城越山","name:ja":"城越山","natural":"peak","source":"GSImaps/std"}}
{"type":"Feature","geometry":{"type":"Point","coordinates":[134.8170688,34.4434015]},"properties":{"ele":"182","name":"山王山","name:ja":"山王山","natural":"peak","source":"GSImaps/std"}}
{"type":"Feature","geometry":{"type":"Point","coordinates":[134.8103094,34.4569651]},"properties":{"ele":"111","name":"熊野山","name:ja":"熊野山","natural":"peak","source":"GSImaps/std"}}
{"type":"Feature","geometry":{"type":"Point","coordinates":[134.899602,34.473518]},"properties":{"ele":"359.4","is_in":"Awaji island;Hyogo;Japan","name":"摩耶山","name:ja":"摩耶山","natural":"peak","source":"GSImaps/std"}}
{"type":"Feature","geometry":{"type":"Point","coordinates":[134.9534582,34.5476246]},"properties":{"ele":"224","name":"大戸山","name:ja":"大戸山","natural":"peak","source":"GSImaps/std"}}
{"type":"Feature","geometry":{"type":"Point","coordinates":[134.9640994,34.5641588]},"properties":{"ele":"294.0","name":"城ノ瀬山","name:ja":"城ノ瀬山","natural":"peak","source":"GSImaps/std"}}
{"type":"Feature","geometry":{"type":"Point","coordinates":[135.0046796,34.5657826]},"properties":{"ele":"243.8","name":"篝場山","name:ja":"篝場山","name:ja-Hira":"かがりばさん","name:ja-Latn":"Kagaribasan","natural":"peak","source":"GSImaps/std"}}
{"type":"Feature","geometry":{"type":"Point","coordinates":[134.9875872,34.5905939]},"properties":{"ele":"305.3","name":"汐鳴山","name:ja":"汐鳴山","natural":"peak","source":"GSImaps/std"}}
{"type":"Feature","geometry":{"type":"Point","coordinates":[117.2111969,36.4881929]},"properties":{"name":"会仙山","natural":"peak"}}
{"type":"Feature","geometry":{"type":"Point","coordinates":[140.3379628,36.4273279]},"properties":{"ele":"201","name":"朝房山","name:en":"Mt. Asabo","name:ja-Latn":"Asabōyama","natural":"peak"}}
{"type":"Feature","geometry":{"type":"Point","coordinates":[46.0694506,38.9169424]},"properties":{"ele":"1627.9","natural":"peak"}}
{"type":"Feature","geometry":{"type":"Point","coordinates":[130.9000611,33.4804938]},"properties":{"ele":"685","name":"上仏来山","name:ja-Hira":"かんぷくやま","natural":"peak"}}
{"type":"Feature","geometry":{"type":"Point","coordinates":[125.3039616,8.156441]},"properties":{"natural":"peak"}}
{"type":"Feature","geometry":{"type":"Point","coordinates":[134.1631666,34.991595]},"properties":{"ele":"312.6","name":"幕谷山","natural":"peak","source":"GSImaps/std"}}
{"type":"Feature","geometry":{"type":"Point","coordinates":[134.147996,34.9211524]},"properties":{"ele":"359","name":"愛宕山","natural":"peak"}}
{"type":"Feature","geometry":{"type":"Point","coordinates":[134.1482696,34.9088489]},"properties":{"ele":"297.2","name":"城山","natural":"peak","source":"GSImaps/std"}}
{"type":"Feature","geometry":{"type":"Point","coordinates":[134.1390643,34.9774647]},"properties":{"ele":"342.3","name":"大山","natural":"peak","source":"GSImaps/std"}}
{"type":"Feature","geometry":{"type":"Point","coordinates":[134.0957261,34.9332451]},"properties":{"name":"鷲山","natural":"peak","source":"GSImaps/std"}}
{"type":"Feature","geometry":{"type":"Point","coordinates":[134.1052533,34.9218626]},"properties":{"name":"西栄山","natural":"peak","source":"GSImaps/std"}}
{"type":"Feature","geometry":{"type":"Point","coordinates":[134.08916,34.9242906]},"properties":{"ele":"174","name":"茶臼山","natural":"peak","source":"GSImaps/std"}}
{"type":"Feature","geometry":{"type":"Point","coordinates":[117.1206321,36.4512581]},"properties":{"name":"香炉子寨","natural":"peak"}}
{"type":"Feature","geometry":{"type":"Point","coordinates":[133.967648,34.9851211]},"properties":{"ele":"216","name":"古森山","natural":"peak","source":"GSImaps/std"}}
{"type":"Feature","geometry":{"type":"Point","coordinates":[47.8967436,41.0809003]},"properties":{"ele":"2812.2","name":"Peyğəmbərbulaq","name:ru":"Пейгамбарбулак","natural":"peak"}}
{"type":"Feature","geometry":{"type":"Point","coordinates":[47.8239815,41.0795664]},"properties":{"ele":"2481","name":"Quzğunqaya","name:ru":"Гузгунгая","natural":"peak"}}
{"type":"Feature","geometry":{"type":"Point","coordinates":[107.0941177,20.9485006]},"properties":{"name":"Hòn Cặp Ré","natural":"peak"}}
{"type":"Feature","geometry":{"type":"Point","coordinates":[138.4246888,36.6982712]},"properties":{"ele":"1504.6","name":"三沢山","natural":"peak"}}
{"type":"Feature","geometry":{"type":"Point","coordinates":[138.2358485,36.7989512]},"properties":{"ele":"819","name":"薬師岳","natural":"peak"}}
{"type":"Feature","geometry":{"type":"Point","coordinates":[138.2420681,36.8094419]},"properties":{"ele":"770","name":"城山","natural":"peak"}}
{"type":"Feature","geometry":{"type":"Point","coordinates":[138.2196369,36.7843474]},"properties":{"ele":"743.6","name":"鍋山","natural":"peak"}}
{"type":"Feature","geometry":{"type":"Point","coordinates":[138.2492064,36.7761074]},"properties":{"ele":"722.6","name":"鼻見城山","natural":"peak"}}
{"type":"Feature","geometry":{"type":"Point","coordinates":[138.2334518,36.7495538]},"properties":{"ele":"562","name":"矢筒山","natural":"peak"}}
{"type":"Feature","geometry":{"type":"Point","coordinates":[138.1580351,36.5576469]},"properties":{"ele":"437.6","name":"薬師山","natural":"peak"}}
{"type":"Feature","geometry":{"type":"Point","coordinates":[138.1380778,36.5261699]},"properties":{"ele":"651.7","name":"有明山","natural":"peak","wikidata":"Q55524006","wikipedia":"ja:有明山 (千曲市)"}}
{"type":"Feature","geometry":{"type":"Point","coordinates":[138.1308562,36.5329052]},"properties":{"ele":"457","name":"一重山","natural":"peak"}}
{"type":"Feature","geometry":{"type":"Point","coordinates":[45.9209918,39.2583689]},"properties":{"ele":"2446","natural":"peak"}}
{"type":"Feature","geometry":{"type":"Point","coordinates":[122.7721488,50.2797284]},"properties":{"gns:dsg":"MT: mountain","name":"诺敏大山","name:en":"Nuomindashan","name:zh":"诺敏大山","natural":"peak","source:name":"GNS"}}
{"type":"Feature","geometry":{"type":"Point","coordinates":[138.1758081,36.4863425]},"properties":{"ele":"1094.4","name":"五里ヶ峯","natural":"peak"}}
{"type":"Feature","geometry":{"type":"Point","coordinates":[138.1539985,36.4529781]},"properties":{"ele":"793.1","loc_name":"自在山","name":"岩井堂山","natural":"peak"}}
{"type":"Feature","geometry":{"type":"Point","coordinates":[117.1347958,36.4445798]},"properties":{"name":"金牛山","natural":"peak"}}
{"type":"Feature","geometry":{"type":"Point","coordinates":[35.2808313,31.7919378]},"properties":{"ele":"595","name":"E1 תצפית","name:ar":"مراقبة E1","name:en":"E1 observation","name:he":"E1 תצפית","natural":"peak"}}
{"type":"Feature","geometry":{"type":"Point","coordinates":[128.6884783,35.7404863]},"properties":{"communication:amateur_radio:sota":"HL/DG-004","ele":"673","name":"상원산","name:ko":"상원산","natural":"peak","wikidata":"Q27290104"}}
{"type":"Feature","geometry":{"type":"Point","coordinates":[128.4837341,35.8676529]},"properties":{"communication:amateur_radio:sota":"HL/DG-019","ele":"251","name":"궁산","name:ko":"궁산","natural":"peak","wikidata":"Q27295453"}}
{"type":"Feature","geometry":{"type":"Point","coordinates":[128.5107855,35.8688853]},"properties":{"communication:amateur_radio:sota":"HL/DG-015","ele":"300","name":"와룡산","name:ko":"와룡산","natural":"peak","wikidata":"Q12608332"}}
{"type":"Feature","geometry":{"type":"Point","coordinates":[158.7155878,52.8962894]},"properties":{"name":"35-ка","natural":"peak"}}
{"type":"Feature","geometry":{"type":"Point","coordinates":[128.6691199,35.9439469]},"properties":{"communication:amateur_radio:sota":"HL/DG-012","ele":"431","name":"문암산","natural":"peak","wikidata":"Q27295466"}}
{"type":"Feature","geometry":{"type":"Point","coordinates":[128.6386929,35.9713396]},"properties":{"communication:amateur_radio:sota":"HL/DG-009","ele":"509","name":"응해산","name:ko":"응해산","natural":"peak"}}
{"type":"Feature","geometry":{"type":"Point","coordinates":[128.6491227,35.9630374]},"properties":{"communication:amateur_radio:sota":"HL/DG-011","ele":"450","name":"응봉","name:ko":"응봉","natural":"peak","wikidata":"Q27266945"}}
{"type":"Feature","geometry":{"type":"Point","coordinates":[128.4611602,35.8996622]},"properties":{"communication:amateur_radio:sota":"HL/DG-017","ele":"274","name":"마천산","name:ko":"마천산","natural":"peak","wikidata":"Q27295802"}}
{"type":"Feature","geometry":{"type":"Point","coordinates":[136.0563266,35.0496429]},"properties":{"ele":"303.2","name":"天山","natural":"peak","wikidata":"Q86731364","wikipedia":"ja:天山 (滋賀県)"}}
{"type":"Feature","geometry":{"type":"Point","coordinates":[128.5194503,35.9900239]},"properties":{"communication:amateur_radio:sota":"HL/GB-295","ele":"522","name":"건령산","name:ko":"건령산","natural":"peak","wikidata":"Q27280360"}}
{"type":"Feature","geometry":{"type":"Point","coordinates":[128.6275023,36.0690865]},"properties":{"communication:amateur_radio:sota":"HL/GB-204","ele":"655","name":"준산","name:ko":"준산","natural":"peak","noname":"yes"}}
{"type":"Feature","geometry":{"type":"Point","coordinates":[128.4344551,36.0798454]},"properties":{"communication:amateur_radio:sota":"HL/GB-354","ele":"427","name":"봉두암산","name:ko":"봉두암산","natural":"peak"}}
{"type":"Feature","geometry":{"type":"Point","coordinates":[128.4572802,36.1089658]},"properties":{"communication:amateur_radio:sota":"HL/GB-361","ele":"427","name":"천생산","name:ko":"천생산","natural":"peak"}}
{"type":"Feature","geometry":{"type":"Point","coordinates":[128.5866507,36.002315]},"properties":{"communication:amateur_radio:sota":"HL/GB-325","ele":"480","natural":"peak","noname":"yes"}}
{"type":"Feature","geometry":{"type":"Point","coordinates":[127.9620504,36.1728661]},"properties":{"communication:amateur_radio:sota":"HL/CB-118","ele":"590","name":"개춘산","name:ko":"개춘산","natural":"peak"}}
{"type":"Feature","geometry":{"type":"Point","coordinates":[134.0093863,34.9644803]},"properties":{"ele":"242.3","name":"愛宕山","natural":"peak","source":"GSImaps/std"}}
{"type":"Feature","geometry":{"type":"Point","coordinates":[133.9955193,34.9339564]},"properties":{"ele":"427.6","name":"五本地蔵山","natural":"peak","source":"GSImaps/std"}}
{"type":"Feature","geometry":{"type":"Point","coordinates":[136.0400212,35.0563437]},"properties":{"name":"東光寺岩梨山","natural":"peak"}}
{"type":"Feature","geometry":{"type":"Point","coordinates":[136.0400601,35.0608292]},"properties":{"ele":"260","name":"東光寺不動山","natural":"peak"}}
{"type":"Feature","geometry":{"type":"Point","coordinates":[136.0436395,35.0672003]},"properties":{"ele":"283","name":"旗振山","natural":"peak"}}
{"type":"Feature","geometry":{"type":"Point","coordinates":[136.0446607,35.0666866]},"properties":{"ele":"292","name":"田中山","natural":"peak"}}
{"type":"Feature","geometry":{"type":"Point","coordinates":[134.0424987,34.9936403]},"properties":{"ele":"190.4","name":"日ヶ暮山","natural":"peak","source":"GSImaps/std"}}
{"type":"Feature","geometry":{"type":"Point","coordinates":[134.2789837,35.0010982]},"properties":{"ele":"379.7","name":"庄ノ上山","natural":"peak","source":"GSImaps/std"}}
{"type":"Feature","geometry":{"type":"Point","coordinates":[124.4681877,9.9416309]},"properties":{"ele":"371","name":"Labawan Peak","natural":"peak"}}
{"type":"Feature","geometry":{"type":"Point","coordinates":[114.3645049,22.4401374]},"properties":{"ele":"203","landform":"peak","natural":"peak"}}
{"type":"Feature","geometry":{"type":"Point","coordinates":[139.1461372,37.4465331]},"properties":{"ele":"933.3","name":"番屋山","natural":"peak"}}
{"type":"Feature","geometry":{"type":"Point","coordinates":[140.0532174,40.5636663]},"properties":{"ele":"799","name":"一ツ森","name:en":"Mt. Hitotsumori","name:ja":"一ツ森","natural":"peak"}}
{"type":"Feature","geometry":{"type":"Point","coordinates":[76.5475716,27.8058444]},"properties":{"ele":"495","natural":"peak"}}
{"type":"Feature","geometry":{"type":"Point","coordinates":[76.5423023,27.8344452]},"properties":{"ele":"475","natural":"peak"}}
{"type":"Feature","geometry":{"type":"Point","coordinates":[76.5254152,27.8567743]},"properties":{"ele":"534","natural":"peak"}}
{"type":"Feature","geometry":{"type":"Point","coordinates":[103.7154163,51.1194784]},"properties":{"name":"Тритранс","natural":"peak"}}
{"type":"Feature","geometry":{"type":"Point","coordinates":[103.8461644,51.1515932]},"properties":{"name":"Голец Ягельный (2204)","natural":"peak"}}
{"type":"Feature","geometry":{"type":"Point","coordinates":[114.2626414,22.4936524]},"properties":{"alt_name":"下塘峒","alt_name:zh":"下塘峒","ele":"309","name":"三台頂 Sam Toi Teng","name:en":"Sam Toi Teng","name:zh":"三台頂","natural":"peak"}}
{"type":"Feature","geometry":{"type":"Point","coordinates":[158.8823551,53.1642923]},"properties":{"ele":"488","name":"Ольховая","natural":"peak"}}
{"type":"Feature","geometry":{"type":"Point","coordinates":[114.2240692,22.5243741]},"properties":{"ele":"108","loc_name":"黃竹峒 Wong Chuk Tung","loc_name:en":"Wong Chuk Tung","loc_name:zh":"黃竹峒","name":"雞谷崗 Kai Kuk Kong","name:en":"Kai Kuk Kong","name:zh":"雞谷崗","natural":"peak"}}
{"type":"Feature","geometry":{"type":"Point","coordinates":[114.2407054,22.5154507]},"properties":{"ele":"300","loc_name":"減龍頭 Kam Lung Tau","loc_name:en":"Kam Lung Tau","loc_name:zh":"減龍山","loc_name:zh-Latn-pinyin":"減龍頭","name":"桅尾嶺 Wai Mei Leng","name:en":"Wai Mei Leng","name:zh":"桅尾嶺","natural":"peak"}}
{"type":"Feature","geometry":{"type":"Point","coordinates":[114.2325991,22.5198073]},"properties":{"alt_name":"減龍尾 Kam Lung Mei","alt_name:en":"Kam Lung Mei","alt_name:zh":"減龍尾","ele":"225","loc_name":"黃竹峒 Wong Chuk Tung","loc_name:en":"Wong Chuk Tung","loc_name:zh":"黃竹峒","name":"五肚嶺 Ng To Leng","name:en":"Ng To Leng","name:zh":"五肚嶺","natural":"peak"}}
{"type":"Feature","geometry":{"type":"Point","coordinates":[114.2369603,22.517233]},"properties":{"ele":"259","loc_name":"減龍腰 Kam Lung Yiu","loc_name:en":"Kam Lung Yiu","loc_name:zh":"減龍腰","name":"減龍嶺 Kam Lung Leng","name:en":"Kam Lung Leng","name:zh":"減龍嶺","natural":"peak"}}
{"type":"Feature","geometry":{"type":"Point","coordinates":[124.2299106,49.6007197]},"properties":{"natural":"peak","source":"cyclemap"}}
{"type":"Feature","geometry":{"type":"Point","coordinates":[76.4911749,35.8490731]},"properties":{"ele":"6802","name":"Angelus","natural":"peak"}}
{"type":"Feature","geometry":{"type":"Point","coordinates":[76.1809199,35.7782051]},"properties":{"ele":"6327","name":"Trango II","natural":"peak"}}
{"type":"Feature","geometry":{"type":"Point","coordinates":[139.3152338,36.4149693]},"properties":{"ele":"160","name":"富士山","name:en":"Fujiyama","natural":"peak","wikidata":"Q55521778","wikipedia":"ja:富士山 (桐生市)"}}
{"type":"Feature","geometry":{"type":"Point","coordinates":[114.2774422,22.5180411]},"properties":{"ele":"102","name":"橫排 Wang Pai","name:en":"Wang Pai","name:zh":"橫排","natural":"peak"}}
{"type":"Feature","geometry":{"type":"Point","coordinates":[114.3117074,22.4951251]},"properties":{"ele":"136","name":"鳳凰尾 Fung Wong Mei","name:en":"Fung Wong Mei","name:zh":"鳳凰尾","natural":"peak"}}
{"type":"Feature","geometry":{"type":"Point","coordinates":[114.3032022,22.4897491]},"properties":{"ele":"238","name":"鳳凰頭 Fung Wong Tau","name:en":"Fung Wong Tau","name:zh":"鳳凰頭","natural":"peak"}}
{"type":"Feature","geometry":{"type":"Point","coordinates":[114.2727665,22.4729768]},"properties":{"ele":"81","name":"砵樹環山 Pui Shue Wan Shan","name:en":"Pui Shue Wan Shan","name:zh":"砵樹環山","natural":"peak"}}
{"type":"Feature","geometry":{"type":"Point","coordinates":[122.8024974,49.1580436]},"properties":{"gns:dsg":"MT: mountain","int_name":"Chaohan Shan","name:en":"Chaohan Mountain","natural":"peak","source:name":"GNS"}}
{"type":"Feature","geometry":{"type":"Point","coordinates":[133.9057684,34.6765486]},"properties":{"ele":"80","name":"京山","natural":"peak"}}
{"type":"Feature","geometry":{"type":"Point","coordinates":[117.2419496,36.624408]},"properties":{"name":"风梅岭","natural":"peak"}}
{"type":"Feature","geometry":{"type":"Point","coordinates":[117.2951283,36.6553299]},"properties":{"name":"围子山","natural":"peak"}}
{"type":"Feature","geometry":{"type":"Point","coordinates":[125.2378951,51.0498794]},"properties":{"ele":"830","gns:dsg":"MT: mountain","int_name":"Shitou Shan","name":"石头山","name:en":"Mount Shitou","name:zh":"石头山","natural":"peak","source:name":"GNS"}}
{"type":"Feature","geometry":{"type":"Point","coordinates":[118.7430769,32.0873451]},"properties":{"name":"八字山","natural":"peak"}}
{"type":"Feature","geometry":{"type":"Point","coordinates":[118.7462634,32.080182]},"properties":{"name":"丁山","natural":"peak"}}
{"type":"Feature","geometry":{"type":"Point","coordinates":[76.9365545,9.8600296]},"properties":{"name":"micro view point","natural":"peak"}}
{"type":"Feature","geometry":{"type":"Point","coordinates":[134.4769342,35.1202014]},"properties":{"name":"一ヶ乢","natural":"peak"}}
{"type":"Feature","geometry":{"type":"Point","coordinates":[125.2608186,50.6896981]},"properties":{"name:ru":"Гора Дацзяньшань","natural":"peak","source":"cyclemap"}}
{"type":"Feature","geometry":{"type":"Point","coordinates":[106.3411561,39.099122]},"properties":{"name":"白石尖","natural":"peak"}}
{"type":"Feature","geometry":{"type":"Point","coordinates":[134.4261283,34.9988603]},"properties":{"ele":"350.5","name":"御殿山","natural":"peak","source":"GSImaps/std"}}
{"type":"Feature","geometry":{"type":"Point","coordinates":[134.430098,34.988612]},"properties":{"ele":"186","name":"三方里山","natural":"peak","source":"GSImaps/std"}}
{"type":"Feature","geometry":{"type":"Point","coordinates":[134.4609112,35.0223402]},"properties":{"ele":"535.8","name":"高丸山","natural":"peak","source":"GSImaps/std"}}
{"type":"Feature","geometry":{"type":"Point","coordinates":[45.6251505,39.6724084]},"properties":{"ele":"2180","man_made":"survey_point","natural":"peak"}}
{"type":"Feature","geometry":{"type":"Point","coordinates":[45.6515086,39.660557]},"properties":{"ele":"2358","natural":"peak"}}
{"type":"Feature","geometry":{"type":"Point","coordinates":[45.6456801,39.6512418]},"properties":{"ele":"2337","natural":"peak"}}
{"type":"Feature","geometry":{"type":"Point","coordinates":[134.2882325,34.8283747]},"properties":{"ele":"328","name":"船坂山","natural":"peak","source":"GSImaps/std"}}
{"type":"Feature","geometry":{"type":"Point","coordinates":[134.2792202,34.8282162]},"properties":{"ele":"421.7","name":"石堂丸山","natural":"peak","source":"GSImaps/std"}}
{"type":"Feature","geometry":{"type":"Point","coordinates":[134.2955887,34.8066602]},"properties":{"ele":"316.3","man_made":"survey_point","name":"高尾山","name:en":"Mount Takao","name:ja":"高尾山","natural":"peak","source":"GSImaps/std","survey_point:purpose":"horizontal","survey_point:structure":"block"}}
{"type":"Feature","geometry":{"type":"Point","coordinates":[134.2706586,34.8075525]},"properties":{"ele":"297","name":"城山","natural":"peak","source":"GSImaps/std"}}
{"type":"Feature","geometry":{"type":"Point","coordinates":[134.2436434,34.7991481]},"properties":{"ele":"341","name":"明神山","natural":"peak","source":"GSImaps/std"}}
{"type":"Feature","geometry":{"type":"Point","coordinates":[134.2409183,34.8134192]},"properties":{"name":"愛宕山","natural":"peak","source":"GSImaps/std"}}
{"type":"Feature","geometry":{"type":"Point","coordinates":[45.6641418,39.6706328]},"properties":{"ele":"2566","name":"Աշորա","name:en":"Ashora","natural":"peak","wikidata":"Q16369199"}}
{"type":"Feature","geometry":{"type":"Point","coordinates":[134.3259236,34.9287372]},"properties":{"ele":"507.2","name":"船岩","natural":"peak","source":"GSImaps/std"}}
{"type":"Feature","geometry":{"type":"Point","coordinates":[45.5988514,39.6507502]},"properties":{"ele":"2154","fixme":"exact point needs ground truthing","natural":"peak"}}
{"type":"Feature","geometry":{"type":"Point","coordinates":[45.6048274,39.6585871]},"properties":{"ele":"1930","natural":"peak"}}
{"type":"Feature","geometry":{"type":"Point","coordinates":[45.5782628,39.6450502]},"properties":{"ele":"2066","fixme":"exact point needs ground truthing","natural":"peak"}}
{"type":"Feature","geometry":{"type":"Point","coordinates":[45.6060398,39.6358888]},"properties":{"ele":"2520","name":"Աբասածմակ ժայռ","name:en":"Abasatsmak Crag","natural":"peak"}}
{"type":"Feature","geometry":{"type":"Point","coordinates":[116.1414757,40.2590012]},"properties":{"alt_name_1":"马鞍山","name":"玉屏山","name:en":"Yuping Shan","name:zh":"玉屏山","name:zh-Hans":"玉屏山","name:zh-Hant":"玉屏山","natural":"peak"}}
{"type":"Feature","geometry":{"type":"Point","coordinates":[125.7507469,50.8793537]},"properties":{"ele":"538","natural":"peak","source":"cyclemap"}}
{"type":"Feature","geometry":{"type":"Point","coordinates":[125.1295308,51.2741726]},"properties":{"ele":"708","gns:dsg":"MT: mountain","natural":"peak"}}
{"type":"Feature","geometry":{"type":"Point","coordinates":[117.3068311,36.6088733]},"properties":{"name":"大龙堂南山","natural":"peak"}}
{"type":"Feature","geometry":{"type":"Point","coordinates":[41.1551285,57.305247]},"properties":{"description":"Волотова гора Михайловский курган памятник археологии 9-11 вв.","ele":"102","name":"Волотова гора","natural":"peak"}}
{"type":"Feature","geometry":{"type":"Point","coordinates":[77.2152829,27.6480088]},"properties":{"ele":"302","natural":"peak"}}
{"type":"Feature","geometry":{"type":"Point","coordinates":[107.092739,20.9511549]},"properties":{"natural":"peak"}}
{"type":"Feature","geometry":{"type":"Point","coordinates":[107.0953341,20.9522897]},"properties":{"natural":"peak"}}
{"type":"Feature","geometry":{"type":"Point","coordinates":[107.0946139,20.951701]},"properties":{"natural":"peak"}}
{"type":"Feature","geometry":{"type":"Point","coordinates":[57.7612229,56.4595803]},"properties":{"name":"Брат 2 ( палец)","natural":"peak"}}
{"type":"Feature","geometry":{"type":"Point","coordinates":[57.7609964,56.4593495]},"properties":{"name":"Брат 1","natural":"peak"}}
{"type":"Feature","geometry":{"type":"Point","coordinates":[45.7438268,40.6595941]},"properties":{"ele":"2126.5","natural":"peak"}}
{"type":"Feature","geometry":{"type":"Point","coordinates":[45.7679565,40.6635714]},"properties":{"ele":"1817.9","natural":"peak"}}
{"type":"Feature","geometry":{"type":"Point","coordinates":[75.2170104,33.1557821]},"properties":{"name":"Sankhpal","natural":"peak"}}
{"type":"Feature","geometry":{"type":"Point","coordinates":[74.8974466,33.1083711]},"properties":{"name":"Kandwar","natural":"peak"}}
{"type":"Feature","geometry":{"type":"Point","coordinates":[74.9407455,33.114637]},"properties":{"natural":"peak"}}
{"type":"Feature","geometry":{"type":"Point","coordinates":[74.982124,33.1121343]},"properties":{"natural":"peak"}}
{"type":"Feature","geometry":{"type":"Point","coordinates":[75.0428599,33.0780981]},"properties":{"natural":"peak"}}
{"type":"Feature","geometry":{"type":"Point","coordinates":[75.0514859,33.0434438]},"properties":{"name":"Siroli","natural":"peak"}}
{"type":"Feature","geometry":{"type":"Point","coordinates":[74.9752951,33.0151479]},"properties":{"natural":"peak"}}
{"type":"Feature","geometry":{"type":"Point","coordinates":[74.9631125,33.027326]},"properties":{"name":"Suaj Kund","natural":"peak"}}
{"type":"Feature","geometry":{"type":"Point","coordinates":[74.918384,33.0515556]},"properties":{"natural":"peak"}}
{"type":"Feature","geometry":{"type":"Point","coordinates":[74.9514905,33.0451526]},"properties":{"natural":"peak"}}
{"type":"Feature","geometry":{"type":"Point","coordinates":[121.8622982,53.3687432]},"properties":{"natural":"peak","source":"cyclemap"}}
{"type":"Feature","geometry":{"type":"Point","coordinates":[75.044657,33.3752924]},"properties":{"name":"Sarkanth Mal","natural":"peak"}}
{"type":"Feature","geometry":{"type":"Point","coordinates":[74.9531963,33.3497541]},"properties":{"natural":"peak"}}
{"type":"Feature","geometry":{"type":"Point","coordinates":[75.0076586,33.3507221]},"properties":{"name":"Mundli","natural":"peak"}}
{"type":"Feature","geometry":{"type":"Point","coordinates":[74.9771512,33.3482574]},"properties":{"natural":"peak"}}
{"type":"Feature","geometry":{"type":"Point","coordinates":[76.2078136,35.7452747]},"properties":{"ele":"5753","name":"Trango Castle","natural":"peak"}}
{"type":"Feature","geometry":{"type":"Point","coordinates":[76.2019771,35.759084]},"properties":{"ele":"6231","name":"Great Trango Tower NE","natural":"peak"}}
{"type":"Feature","geometry":{"type":"Point","coordinates":[76.205346,35.7565069]},"properties":{"ele":"6050","name":"Trango Pulpit","natural":"peak"}}
{"type":"Feature","geometry":{"type":"Point","coordinates":[76.1758631,35.7845196]},"properties":{"ele":"6363","name":"Trango Ri","natural":"peak"}}
{"type":"Feature","geometry":{"type":"Point","coordinates":[76.1710702,35.8205316]},"properties":{"ele":"6572","name":"克鲁克苏姆北峰","name:en":"Kruksum North","name:zh-Hans":"克鲁克苏姆北峰","name:zh-Hant":"克魯克蘇姆北峰","natural":"peak"}}
{"type":"Feature","geometry":{"type":"Point","coordinates":[76.1933001,35.8232382]},"properties":{"ele":"6544","name":"克鲁克苏姆东峰","name:en":"Kruksum East","name:zh":"克鲁克苏姆东峰","natural":"peak"}}
{"type":"Feature","geometry":{"type":"Point","coordinates":[76.1479328,35.7405648]},"properties":{"ele":"6109","name":"Uli Biaho Tower","natural":"peak","prominence":"700","source:prominence":"6109-5400 (col at the W)"}}
{"type":"Feature","geometry":{"type":"Point","coordinates":[114.1501778,30.5169877]},"properties":{"name":"未名山","natural":"peak"}}
{"type":"Feature","geometry":{"type":"Point","coordinates":[158.6696161,53.1163605]},"properties":{"ele":"389.6","name":"Лагерная","natural":"peak"}}
{"type":"Feature","geometry":{"type":"Point","coordinates":[158.6818137,53.1283416]},"properties":{"ele":"360","name":"Кедровая","natural":"peak"}}
{"type":"Feature","geometry":{"type":"Point","coordinates":[124.4500156,6.6885259]},"properties":{"alt_name":"Knife Edge","ele":"930","name":"Ugis Peak","natural":"peak"}}
{"type":"Feature","geometry":{"type":"Point","coordinates":[128.2527609,35.8770642]},"properties":{"ele":"566.2","name":"죽전상봉","name:ko":"죽전상봉","natural":"peak"}}
{"type":"Feature","geometry":{"type":"Point","coordinates":[132.013682,43.1897948]},"properties":{"ele":"341","name":"Тригопункт","natural":"peak"}}
{"type":"Feature","geometry":{"type":"Point","coordinates":[128.2196149,35.8608203]},"properties":{"ele":"576","name":"HL/GB-260","natural":"peak"}}
{"type":"Feature","geometry":{"type":"Point","coordinates":[128.1215213,35.8581675]},"properties":{"ele":"693","name":"아박산","natural":"peak","wikidata":"Q27325045"}}
{"type":"Feature","geometry":{"type":"Point","coordinates":[134.3406759,35.3895421]},"properties":{"ele":"659.5","name":"六郎谷","natural":"peak","source":"GSImaps/std"}}
{"type":"Feature","geometry":{"type":"Point","coordinates":[134.3756305,35.3983406]},"properties":{"ele":"817.9","name":"獄山","natural":"peak","source":"GSImaps/std"}}
{"type":"Feature","geometry":{"type":"Point","coordinates":[134.2383443,35.4699348]},"properties":{"ele":"105.1","name":"大路山","natural":"peak","source":"GSImaps/std"}}
{"type":"Feature","geometry":{"type":"Point","coordinates":[134.2492019,35.475387]},"properties":{"ele":"100","name":"面影山","natural":"peak","source":"GSImaps/std"}}
{"type":"Feature","geometry":{"type":"Point","coordinates":[134.3292387,35.4570098]},"properties":{"ele":"461.2","name":"手放山","natural":"peak","source":"GSImaps/std"}}
{"type":"Feature","geometry":{"type":"Point","coordinates":[134.1999504,35.4832033]},"properties":{"ele":"104.7","name":"釣山","natural":"peak"}}
{"type":"Feature","geometry":{"type":"Point","coordinates":[134.1845224,35.5100718]},"properties":{"name":"足山","natural":"peak","source":"GSImaps/std"}}
{"type":"Feature","geometry":{"type":"Point","coordinates":[125.1444496,8.1551494]},"properties":{"ele":"740","name":"Two Trees","natural":"peak"}}
{"type":"Feature","geometry":{"type":"Point","coordinates":[134.0165088,35.483116]},"properties":{"ele":"185.3","name":"舟山","natural":"peak","source":"GSImaps/std"}}
{"type":"Feature","geometry":{"type":"Point","coordinates":[133.9457628,35.5170233]},"properties":{"ele":"87","name":"甲亀山","name:en":"Mt. Koki","name:ja":"甲亀山","name:ja-Hira":"こうきやま","natural":"peak","source":"GSImaps/std"}}
{"type":"Feature","geometry":{"type":"Point","coordinates":[133.9818761,35.486558]},"properties":{"name":"木尾山","natural":"peak","source":"GSImaps/std"}}
{"type":"Feature","geometry":{"type":"Point","coordinates":[133.9585516,35.4314676]},"properties":{"ele":"646","name":"飯盛山","name:en":"Mt. Iimori","name:ja":"飯盛山","name:ja-Hira":"いいもりさん","natural":"peak","source":"GSImaps/std"}}
{"type":"Feature","geometry":{"type":"Point","coordinates":[133.9727137,35.4223055]},"properties":{"ele":"768.7","name":"小富士山","name:en":"Mt. Kofuji","name:ja":"小富士山","name:ja-Hira":"こふじさん","natural":"peak","source":"GSImaps/std"}}
{"type":"Feature","geometry":{"type":"Point","coordinates":[133.9959523,35.4661133]},"properties":{"ele":"387.1","name":"大石山","name:ja":"大石山","natural":"peak","source":"GSImaps/std"}}
{"type":"Feature","geometry":{"type":"Point","coordinates":[134.2835364,35.4934552]},"properties":{"ele":"249","name":"稲葉山","natural":"peak","source":"GSImaps/std"}}
{"type":"Feature","geometry":{"type":"Point","coordinates":[134.2347226,35.5139256]},"properties":{"ele":"140","name":"雁金山","natural":"peak","source":"GSImaps/std"}}
{"type":"Feature","geometry":{"type":"Point","coordinates":[134.2700822,35.5325352]},"properties":{"ele":"357","name":"摩尼山","natural":"peak","source":"GSImaps/std"}}
{"type":"Feature","geometry":{"type":"Point","coordinates":[134.2563702,35.5121827]},"properties":{"ele":"251","name":"本陣山","natural":"peak","source":"GSImaps/std"}}
{"type":"Feature","geometry":{"type":"Point","coordinates":[134.4799055,35.5360556]},"properties":{"name":"草太山","natural":"peak","source":"GSImaps/std"}}
{"type":"Feature","geometry":{"type":"Point","coordinates":[134.4938745,35.5133704]},"properties":{"ele":"584.8","name":"愛宕山","natural":"peak","source":"GSImaps/std"}}
{"type":"Feature","geometry":{"type":"Point","coordinates":[134.6742638,35.6425876]},"properties":{"ele":"365.2","name":"神ノ浦山","natural":"peak","source":"GSImaps/std"}}
{"type":"Feature","geometry":{"type":"Point","coordinates":[123.4970183,52.5897643]},"properties":{"gns:dsg":"MTS: mountains","int_name":"Emur Shan","natural":"peak","source":"GNS"}}
{"type":"Feature","geometry":{"type":"Point","coordinates":[123.4494723,51.8836443]},"properties":{"gns:dsg":"MT: mountain","int_name":"Buluji Shan","name:en":"Mount Buluji","natural":"peak","source:name":"GNS"}}
{"type":"Feature","geometry":{"type":"Point","coordinates":[110.3082307,25.272791]},"properties":{"name":"骆驼山","name:en":"Camel Hill","name:zh":"骆驼山","natural":"peak"}}
{"type":"Feature","geometry":{"type":"Point","coordinates":[110.3073327,25.2757586]},"properties":{"name":"普陀山","name:en":"Putuo Hill","natural":"peak"}}
{"type":"Feature","geometry":{"type":"Point","coordinates":[158.7792602,53.2234854]},"properties":{"ele":"1535","name":"Крайняя","natural":"peak"}}
{"type":"Feature","geometry":{"type":"Point","coordinates":[158.8022545,53.1911022]},"properties":{"ele":"918","name":"Авачинская (Булка)","natural":"peak"}}
{"type":"Feature","geometry":{"type":"Point","coordinates":[158.7582343,53.1669703]},"properties":{"ele":"480","name":"Вершина","natural":"peak"}}
{"type":"Feature","geometry":{"type":"Point","coordinates":[128.3303148,35.7898243]},"properties":{"communication:amateur_radio:sota":"HL/GB-277","ele":"551","name":"의봉산","name:ko":"의봉산","natural":"peak","wikidata":"Q27290106"}}
{"type":"Feature","geometry":{"type":"Point","coordinates":[128.2913254,35.7315561]},"properties":{"communication:amateur_radio:sota":"HL/GB-417","ele":"286.5","name":"금산","name:ko":"금산","natural":"peak"}}
{"type":"Feature","geometry":{"type":"Point","coordinates":[128.3650142,35.7296536]},"properties":{"communication:amateur_radio:sota":"HL/GB-373","ele":"385.2","name":"제석산","name:ko":"제석산","natural":"peak"}}
{"type":"Feature","geometry":{"type":"Point","coordinates":[128.1933331,35.7382906]},"properties":{"communication:amateur_radio:sota":"HL/GB-147","ele":"743","name":"미숭산","name:ko":"미숭산","natural":"peak","wikidata":"Q27275609"}}
{"type":"Feature","geometry":{"type":"Point","coordinates":[77.1721047,27.4379409]},"properties":{"ele":"321","natural":"peak"}}
{"type":"Feature","geometry":{"type":"Point","coordinates":[134.7048353,35.4452387]},"properties":{"ele":"416","name":"鶴ヶ嶺","natural":"peak","source":"GSImaps/std"}}
{"type":"Feature","geometry":{"type":"Point","coordinates":[134.6750527,35.5070819]},"properties":{"ele":"469","name":"神鍋山","name:en":"Mt. Kannabe","name:ja":"神鍋山","natural":"peak","source":"GSImaps/std"}}
{"type":"Feature","geometry":{"type":"Point","coordinates":[134.6733354,35.5134902]},"properties":{"name":"大机山","natural":"peak","note":"スコリア丘","source":"GSImaps/std"}}
{"type":"Feature","geometry":{"type":"Point","coordinates":[110.2917237,25.2912039]},"properties":{"name":"宝积山","name:en":"Baoji Hill","natural":"peak"}}
{"type":"Feature","geometry":{"type":"Point","coordinates":[134.8483051,35.5070623]},"properties":{"ele":"49","name":"上鉢山","natural":"peak"}}
{"type":"Feature","geometry":{"type":"Point","coordinates":[134.8504723,35.5217162]},"properties":{"ele":"201.5","name":"三開山","natural":"peak","source":"GSImaps/std"}}
{"type":"Feature","geometry":{"type":"Point","coordinates":[134.9269152,35.5125247]},"properties":{"ele":"643.4","name":"法沢山","name:en":"Mt. Hotaku","name:ja":"法沢山","name:ja-Hira":"ほうたくさん","natural":"peak","source":"GSImaps/std"}}
{"type":"Feature","geometry":{"type":"Point","coordinates":[135.050168,35.492104]},"properties":{"ele":"526.5","name":"権現山","name:en":"Mt. Gongen","name:ja":"権現山","name:ja-Hira":"ごんげんやま","natural":"peak","source":"GSImaps/std"}}
{"type":"Feature","geometry":{"type":"Point","coordinates":[135.0854444,35.4443947]},"properties":{"ele":"736.1","name":"赤石ヶ岳","name:en":"Mt. Akaishigatake","name:ja":"赤石ヶ岳","name:ja-Hira":"あかいしがたけ","natural":"peak","source":"GSImaps/std"}}
{"type":"Feature","geometry":{"type":"Point","coordinates":[135.0499749,35.4510722]},"properties":{"ele":"727.5","name":"江笠山","name:en":"Mt. Egasa","name:ja":"江笠山","name:ja-Hira":"えがさやま","natural":"peak","source":"GSImaps/std","wikidata":"Q31705471"}}
{"type":"Feature","geometry":{"type":"Point","coordinates":[135.0073278,35.4518588]},"properties":{"ele":"619.7","name":"郷路岳","natural":"peak","source":"GSImaps/std"}}
{"type":"Feature","geometry":{"type":"Point","coordinates":[134.7867675,35.4476008]},"properties":{"ele":"360.5","name":"進美寺山","natural":"peak","source":"GSImaps/std"}}
{"type":"Feature","geometry":{"type":"Point","coordinates":[134.7723694,35.3646835]},"properties":{"ele":"392","name":"城山","natural":"peak","source":"GSImaps/std"}}
{"type":"Feature","geometry":{"type":"Point","coordinates":[76.7379033,27.5660937]},"properties":{"ele":"370","natural":"peak"}}
{"type":"Feature","geometry":{"type":"Point","coordinates":[76.6881242,27.5694106]},"properties":{"ele":"400","natural":"peak"}}
{"type":"Feature","geometry":{"type":"Point","coordinates":[134.647108,35.1782538]},"properties":{"ele":"844.7","name":"高峰","natural":"peak","source":"GSImaps/std"}}
{"type":"Feature","geometry":{"type":"Point","coordinates":[76.8084092,36.386651]},"properties":{"ele":"4190","natural":"peak","prominence":"360","source":"OpenTopoMap (contours, so to nearest 10 m (lower for peak, higher for col)"}}
{"type":"Feature","geometry":{"type":"Point","coordinates":[134.9145935,35.0921704]},"properties":{"ele":"692.4","name":"妙見山","natural":"peak","source":"GSImaps/std","wikidata":"Q108883972"}}
{"type":"Feature","geometry":{"type":"Point","coordinates":[135.0056169,35.0702033]},"properties":{"ele":"273.6","name":"イタリ山","natural":"peak","source":"GSImaps/std"}}
{"type":"Feature","geometry":{"type":"Point","coordinates":[76.8598349,36.4792745]},"properties":{"ele":"6280","name:en":"Mazar","natural":"peak","prominence":"1410","source":"Open Topo Map (contours","source:prominence":"6280-4870 (Col at the E)"}}
{"type":"Feature","geometry":{"type":"Point","coordinates":[99.2065495,54.4942948]},"properties":{"ele":"700","name":"Богатырь","natural":"peak"}}
{"type":"Feature","geometry":{"type":"Point","coordinates":[77.0101008,32.5395557]},"properties":{"name":"Drilbu Ri","natural":"peak"}}
{"type":"Feature","geometry":{"type":"Point","coordinates":[81.0103941,7.0355129]},"properties":{"alt_name":"Nawarangala","ele":"1527","name":"Narangala","name:si":"නවරංගල","natural":"peak"}}
{"type":"Feature","geometry":{"type":"Point","coordinates":[131.9512796,34.584813]},"properties":{"ele":"724.8","name":"野間山","natural":"peak","source":"GSImaps/std"}}
{"type":"Feature","geometry":{"type":"Point","coordinates":[131.913557,34.6116254]},"properties":{"ele":"554","name":"平野山","natural":"peak","source":"GSImaps/std"}}
{"type":"Feature","geometry":{"type":"Point","coordinates":[131.9420773,34.6537321]},"properties":{"ele":"477.2","name":"飯盛山","natural":"peak","source":"GSImaps/std"}}
{"type":"Feature","geometry":{"type":"Point","coordinates":[117.3040302,36.5462931]},"properties":{"name":"空心山","natural":"peak"}}
{"type":"Feature","geometry":{"type":"Point","coordinates":[117.2818234,36.5594101]},"properties":{"name":"镜子山","natural":"peak"}}
{"type":"Feature","geometry":{"type":"Point","coordinates":[117.2707901,36.5543387]},"properties":{"name":"劈山","natural":"peak"}}
{"type":"Feature","geometry":{"type":"Point","coordinates":[117.2777233,36.5858497]},"properties":{"name":"围子山","natural":"peak"}}
{"type":"Feature","geometry":{"type":"Point","coordinates":[117.2635398,36.5786301]},"properties":{"name":"双石屋子山","natural":"peak"}}
{"type":"Feature","geometry":{"type":"Point","coordinates":[117.2626171,36.5910356]},"properties":{"name":"南山顶","natural":"peak"}}
{"type":"Feature","geometry":{"type":"Point","coordinates":[117.2425609,36.5506995]},"properties":{"name":"双头山","natural":"peak"}}
{"type":"Feature","geometry":{"type":"Point","coordinates":[132.8543676,35.110275]},"properties":{"ele":"916.2","name":"等検境","name:en":"Mt. Tokenkyo","name:ja":"等検境","name:ja-Hira":"とうけんきょう","natural":"peak","source":"GSImaps/std"}}
{"type":"Feature","geometry":{"type":"Point","coordinates":[132.7983631,35.1475981]},"properties":{"ele":"669.4","name":"八重山","natural":"peak","source":"GSImaps/std"}}
{"type":"Feature","geometry":{"type":"Point","coordinates":[132.3684091,35.007574]},"properties":{"ele":"593.2","name":"西山","natural":"peak","source":"GSImaps/std"}}
{"type":"Feature","geometry":{"type":"Point","coordinates":[132.360341,35.0088043]},"properties":{"name":"国時山","natural":"peak","source":"GSImaps/std"}}
{"type":"Feature","geometry":{"type":"Point","coordinates":[132.331931,35.0483213]},"properties":{"ele":"186.7","name":"龍頭山","natural":"peak","source":"GSImaps/std"}}
{"type":"Feature","geometry":{"type":"Point","coordinates":[132.3039931,35.0210708]},"properties":{"ele":"274.3","name":"高畑城山","natural":"peak","source":"GSImaps/std"}}
{"type":"Feature","geometry":{"type":"Point","coordinates":[132.3157305,34.9962898]},"properties":{"ele":"411","name":"永井山","natural":"peak","source":"GSImaps/std"}}
{"type":"Feature","geometry":{"type":"Point","coordinates":[132.5899131,35.0342969]},"properties":{"ele":"494.7","name":"青杉ヶ城山","natural":"peak","source":"GSImaps/std"}}
{"type":"Feature","geometry":{"type":"Point","coordinates":[59.3588573,53.0646563]},"properties":{"ele":"411.2","name":"Воровская","natural":"peak"}}
{"type":"Feature","geometry":{"type":"Point","coordinates":[132.6163048,34.9727977]},"properties":{"ele":"381.8","name":"一本杉山","natural":"peak","source":"GSImaps/std"}}
{"type":"Feature","geometry":{"type":"Point","coordinates":[132.586071,34.9406674]},"properties":{"name":"火下山","natural":"peak","source":"GSImaps/std"}}
{"type":"Feature","geometry":{"type":"Point","coordinates":[132.5662441,34.9438863]},"properties":{"ele":"545.6","name":"高野山","natural":"peak","source":"GSImaps/std"}}
{"type":"Feature","geometry":{"type":"Point","coordinates":[132.5137157,34.9905897]},"properties":{"ele":"390.5","name":"城山","natural":"peak","source":"GSImaps/std"}}
{"type":"Feature","geometry":{"type":"Point","coordinates":[132.4906916,34.9993085]},"properties":{"ele":"294","name":"仙岩寺山","natural":"peak","source":"GSImaps/std"}}
{"type":"Feature","geometry":{"type":"Point","coordinates":[132.477066,34.955846]},"properties":{"ele":"446.5","name":"尾部志山","natural":"peak","source":"GSImaps/std"}}
{"type":"Feature","geometry":{"type":"Point","coordinates":[132.4338288,34.9479317]},"properties":{"ele":"428.9","name":"タカハチ","natural":"peak","source":"GSImaps/std"}}
{"type":"Feature","geometry":{"type":"Point","coordinates":[132.4163623,34.9646213]},"properties":{"ele":"522.3","name":"甘南備寺山","natural":"peak","source":"GSImaps/std"}}
{"type":"Feature","geometry":{"type":"Point","coordinates":[132.4058051,34.9623176]},"properties":{"ele":"492","name":"岩城山","natural":"peak","source":"GSImaps/std"}}
{"type":"Feature","geometry":{"type":"Point","coordinates":[132.4067707,34.9432531]},"properties":{"ele":"352.3","name":"鍋山","natural":"peak","source":"GSImaps/std"}}
{"type":"Feature","geometry":{"type":"Point","coordinates":[132.4118561,34.9333673]},"properties":{"ele":"493.3","name":"羽佛沢山","natural":"peak","source":"GSImaps/std"}}
{"type":"Feature","geometry":{"type":"Point","coordinates":[132.3575253,34.9529266]},"properties":{"ele":"436","name":"小屋尻山","natural":"peak","source":"GSImaps/std"}}
{"type":"Feature","geometry":{"type":"Point","coordinates":[132.3072715,34.9679799]},"properties":{"ele":"386.1","name":"地吉山","natural":"peak","source":"GSImaps/std"}}
{"type":"Feature","geometry":{"type":"Point","coordinates":[132.2924227,34.9633552]},"properties":{"ele":"497.6","name":"細滝山","natural":"peak","source":"GSImaps/std"}}
{"type":"Feature","geometry":{"type":"Point","coordinates":[132.2855992,34.9511679]},"properties":{"ele":"501.6","name":"田平山","natural":"peak","source":"GSImaps/std"}}
{"type":"Feature","geometry":{"type":"Point","coordinates":[132.2771878,34.9601722]},"properties":{"ele":"505.3","name":"空城","natural":"peak","source":"GSImaps/std"}}
{"type":"Feature","geometry":{"type":"Point","coordinates":[132.2769518,34.9547029]},"properties":{"ele":"441","name":"井ノ木山","natural":"peak","source":"GSImaps/std"}}
{"type":"Feature","geometry":{"type":"Point","coordinates":[132.2587342,34.9636014]},"properties":{"ele":"408.1","name":"大久保山","natural":"peak","source":"GSImaps/std"}}
{"type":"Feature","geometry":{"type":"Point","coordinates":[132.2874231,34.982503]},"properties":{"ele":"353","name":"高丸山","natural":"peak","source":"GSImaps/std"}}
{"type":"Feature","geometry":{"type":"Point","coordinates":[132.2624679,34.9962588]},"properties":{"ele":"327.2","name":"大野山","name:en":"Mt. Ono","name:ja":"大野山","name:ja-Hira":"おおのやま","natural":"peak","source":"GSImaps/std"}}
{"type":"Feature","geometry":{"type":"Point","coordinates":[138.7587686,35.9018545]},"properties":{"ele":"2317.8","name":"破風山","name:en":"Mt. Happu-san","name:ja":"破風山","natural":"peak"}}
{"type":"Feature","geometry":{"type":"Point","coordinates":[75.0174808,33.3370539]},"properties":{"natural":"peak"}}
{"type":"Feature","geometry":{"type":"Point","coordinates":[75.1270007,33.3480245]},"properties":{"natural":"peak"}}
{"type":"Feature","geometry":{"type":"Point","coordinates":[75.0882053,33.3480962]},"properties":{"name":"Shainsh Talao","natural":"peak"}}
{"type":"Feature","geometry":{"type":"Point","coordinates":[75.098977,33.3289147]},"properties":{"name":"Gehru","natural":"peak"}}
{"type":"Feature","geometry":{"type":"Point","coordinates":[75.0356769,33.4391771]},"properties":{"natural":"peak"}}
{"type":"Feature","geometry":{"type":"Point","coordinates":[74.9882983,33.4819972]},"properties":{"name":"Gagar Mandu","natural":"peak"}}
{"type":"Feature","geometry":{"type":"Point","coordinates":[74.9606608,33.496242]},"properties":{"natural":"peak"}}
{"type":"Feature","geometry":{"type":"Point","coordinates":[74.8340606,33.4661032]},"properties":{"natural":"peak"}}
{"type":"Feature","geometry":{"type":"Point","coordinates":[74.8950004,33.4838942]},"properties":{"natural":"peak"}}
{"type":"Feature","geometry":{"type":"Point","coordinates":[74.8476218,33.4763416]},"properties":{"natural":"peak"}}
{"type":"Feature","geometry":{"type":"Point","coordinates":[74.8646163,33.48393]},"properties":{"natural":"peak"}}
{"type":"Feature","geometry":{"type":"Point","coordinates":[74.9410915,33.4928779]},"properties":{"name":"Nikkan","natural":"peak"}}
{"type":"Feature","geometry":{"type":"Point","coordinates":[75.0244331,33.3992737]},"properties":{"name":"Muni Mal","natural":"peak"}}
{"type":"Feature","geometry":{"type":"Point","coordinates":[75.0125026,33.4131023]},"properties":{"name":"Muni Mal","natural":"peak"}}
{"type":"Feature","geometry":{"type":"Point","coordinates":[75.0186824,33.4773439]},"properties":{"name":"Didam","natural":"peak"}}
{"type":"Feature","geometry":{"type":"Point","coordinates":[75.0826263,33.494381]},"properties":{"natural":"peak"}}
{"type":"Feature","geometry":{"type":"Point","coordinates":[75.1161002,33.4716163]},"properties":{"natural":"peak"}}
{"type":"Feature","geometry":{"type":"Point","coordinates":[75.1315337,33.4760663]},"properties":{"natural":"peak"}}
{"type":"Feature","geometry":{"type":"Point","coordinates":[74.8603248,33.2203797]},"properties":{"natural":"peak"}}
{"type":"Feature","geometry":{"type":"Point","coordinates":[74.8774909,33.2356724]},"properties":{"natural":"peak"}}
{"type":"Feature","geometry":{"type":"Point","coordinates":[74.9021244,33.2321187]},"properties":{"natural":"peak"}}
{"type":"Feature","geometry":{"type":"Point","coordinates":[74.8968028,33.2424205]},"properties":{"name":"Kopra","natural":"peak"}}
{"type":"Feature","geometry":{"type":"Point","coordinates":[74.9311351,33.2037915]},"properties":{"natural":"peak"}}
{"type":"Feature","geometry":{"type":"Point","coordinates":[74.8853873,33.1796577]},"properties":{"natural":"peak"}}
{"type":"Feature","geometry":{"type":"Point","coordinates":[74.9735355,33.3236436]},"properties":{"natural":"peak"}}
{"type":"Feature","geometry":{"type":"Point","coordinates":[74.9573135,33.2919383]},"properties":{"natural":"peak"}}
{"type":"Feature","geometry":{"type":"Point","coordinates":[74.9640082,33.2788798]},"properties":{"natural":"peak"}}
{"type":"Feature","geometry":{"type":"Point","coordinates":[74.9695014,33.246225]},"properties":{"natural":"peak"}}
{"type":"Feature","geometry":{"type":"Point","coordinates":[74.9734282,33.2096803]},"properties":{"natural":"peak"}}
{"type":"Feature","geometry":{"type":"Point","coordinates":[75.0594949,33.1780772]},"properties":{"natural":"peak"}}
{"type":"Feature","geometry":{"type":"Point","coordinates":[75.0453329,33.1860509]},"properties":{"natural":"peak"}}
{"type":"Feature","geometry":{"type":"Point","coordinates":[75.0346469,33.1890678]},"properties":{"natural":"peak"}}
{"type":"Feature","geometry":{"type":"Point","coordinates":[75.0142944,33.1956309]},"properties":{"natural":"peak"}}
{"type":"Feature","geometry":{"type":"Point","coordinates":[112.7533708,24.3224323]},"properties":{"name":"靘雾山","natural":"peak"}}
{"type":"Feature","geometry":{"type":"Point","coordinates":[44.5195404,41.7706944]},"properties":{"ele":"1447","natural":"peak"}}
{"type":"Feature","geometry":{"type":"Point","coordinates":[44.5232397,41.761243]},"properties":{"ele":"1556.8","natural":"peak"}}
{"type":"Feature","geometry":{"type":"Point","coordinates":[44.5404685,41.7472948]},"properties":{"ele":"1550","natural":"peak"}}
{"type":"Feature","geometry":{"type":"Point","coordinates":[44.5438443,41.7515023]},"properties":{"ele":"1592.3","natural":"peak"}}
{"type":"Feature","geometry":{"type":"Point","coordinates":[44.5500732,41.7556225]},"properties":{"ele":"1525","natural":"peak"}}
{"type":"Feature","geometry":{"type":"Point","coordinates":[44.5411471,41.7684576]},"properties":{"ele":"1412","natural":"peak"}}
{"type":"Feature","geometry":{"type":"Point","coordinates":[44.5528047,41.7731124]},"properties":{"ele":"1451","natural":"peak"}}
{"type":"Feature","geometry":{"type":"Point","coordinates":[44.5544438,41.7881222]},"properties":{"ele":"1452","natural":"peak"}}
{"type":"Feature","geometry":{"type":"Point","coordinates":[44.5625772,41.7823935]},"properties":{"ele":"1466.1","name":"ტაბარუკის საგრილე","name:en":"Tabarukis Sagrile","name:ru":"Табарукис Сагриле","natural":"peak"}}
{"type":"Feature","geometry":{"type":"Point","coordinates":[44.5663139,41.7910883]},"properties":{"ele":"1463.3","name":"დავითის მთა","name:en":"Davitis Mta","name:ka":"დავითის მთა","name:ru":"Давитис-Мта","natural":"peak"}}
{"type":"Feature","geometry":{"type":"Point","coordinates":[44.580444,41.7864337]},"properties":{"ele":"1402","name":"თათრის მთა","name:en":"Tetris Mta","name:ka":"თათრის მთა","name:ru":"Татрис-Мта","natural":"peak"}}
{"type":"Feature","geometry":{"type":"Point","coordinates":[44.5826549,41.7934219]},"properties":{"ele":"1357.6","natural":"peak"}}
{"type":"Feature","geometry":{"type":"Point","coordinates":[44.597608,41.7943297]},"properties":{"ele":"1345.6","natural":"peak"}}
{"type":"Feature","geometry":{"type":"Point","coordinates":[44.6048637,41.7989467]},"properties":{"ele":"1381","natural":"peak"}}
{"type":"Feature","geometry":{"type":"Point","coordinates":[44.6199798,41.7942884]},"properties":{"ele":"1186","natural":"peak"}}
{"type":"Feature","geometry":{"type":"Point","coordinates":[44.6398933,41.7965558]},"properties":{"ele":"1188.3","natural":"peak"}}
{"type":"Feature","geometry":{"type":"Point","coordinates":[44.6629221,41.8133359]},"properties":{"ele":"1172","natural":"peak"}}
{"type":"Feature","geometry":{"type":"Point","coordinates":[44.6753025,41.8139683]},"properties":{"ele":"1200.1","natural":"peak"}}
{"type":"Feature","geometry":{"type":"Point","coordinates":[44.7002479,41.8177897]},"properties":{"ele":"1040.2","natural":"peak"}}
{"type":"Feature","geometry":{"type":"Point","coordinates":[158.753945,53.2157379]},"properties":{"ele":"1079.7","name":"Монах","natural":"peak"}}
{"type":"Feature","geometry":{"type":"Point","coordinates":[158.1209421,52.4867918]},"properties":{"name":"г. Тарбаганья","natural":"peak"}}
{"type":"Feature","geometry":{"type":"Point","coordinates":[158.8434756,53.0311392]},"properties":{"natural":"peak"}}
{"type":"Feature","geometry":{"type":"Point","coordinates":[43.5944689,43.4373828]},"properties":{"ele":"849","name":"Большая Кизиловка","natural":"peak"}}
{"type":"Feature","geometry":{"type":"Point","coordinates":[101.5909992,3.8020464]},"properties":{"ele":"1933","name":"Gunung Liang West","name:en":"Liang West Mountain","name:ms":"Gunung Liang Barat","natural":"peak"}}
{"type":"Feature","geometry":{"type":"Point","coordinates":[74.9248695,33.4973872]},"properties":{"natural":"peak"}}
{"type":"Feature","geometry":{"type":"Point","coordinates":[74.7115802,33.5514096]},"properties":{"name":"Prishi","natural":"peak"}}
{"type":"Feature","geometry":{"type":"Point","coordinates":[74.8030757,33.5063336]},"properties":{"natural":"peak"}}
{"type":"Feature","geometry":{"type":"Point","coordinates":[74.8121738,33.4951684]},"properties":{"natural":"peak"}}
{"type":"Feature","geometry":{"type":"Point","coordinates":[74.8249625,33.4886546]},"properties":{"natural":"peak"}}
{"type":"Feature","geometry":{"type":"Point","coordinates":[74.8368072,33.481854]},"properties":{"name":"Baram Sakli","natural":"peak"}}
{"type":"Feature","geometry":{"type":"Point","coordinates":[74.7963809,33.4679648]},"properties":{"natural":"peak"}}
{"type":"Feature","geometry":{"type":"Point","coordinates":[74.7930335,33.5208607]},"properties":{"natural":"peak"}}
{"type":"Feature","geometry":{"type":"Point","coordinates":[74.7042846,33.5248677]},"properties":{"description":"peak","ele":"4560","name":"parāsing peak","natural":"peak"}}
{"type":"Feature","geometry":{"type":"Point","coordinates":[75.3415774,33.4371]},"properties":{"natural":"peak"}}
{"type":"Feature","geometry":{"type":"Point","coordinates":[75.4255199,33.4032864]},"properties":{"name":"Sundar Kanth","natural":"peak"}}
{"type":"Feature","geometry":{"type":"Point","coordinates":[75.4234599,33.3812862]},"properties":{"natural":"peak"}}
{"type":"Feature","geometry":{"type":"Point","coordinates":[75.3810917,33.363725]},"properties":{"name":"Kaukut","natural":"peak"}}
{"type":"Feature","geometry":{"type":"Point","coordinates":[75.3303336,33.3982706]},"properties":{"name":"Hansraj","natural":"peak"}}
{"type":"Feature","geometry":{"type":"Point","coordinates":[75.2712821,33.4211978]},"properties":{"natural":"peak"}}
{"type":"Feature","geometry":{"type":"Point","coordinates":[75.2887916,33.4376013]},"properties":{"name":"Shafawoin Bal","natural":"peak"}}
{"type":"Feature","geometry":{"type":"Point","coordinates":[75.2452325,33.4827488]},"properties":{"natural":"peak"}}
{"type":"Feature","geometry":{"type":"Point","coordinates":[75.1416778,33.5247962]},"properties":{"natural":"peak"}}
{"type":"Feature","geometry":{"type":"Point","coordinates":[75.1854514,33.5173544]},"properties":{"natural":"peak"}}
{"type":"Feature","geometry":{"type":"Point","coordinates":[75.0473498,33.5023973]},"properties":{"natural":"peak"}}
{"type":"Feature","geometry":{"type":"Point","coordinates":[75.09799,33.5053317]},"properties":{"name":"Sundartop","natural":"peak"}}
{"type":"Feature","geometry":{"type":"Point","coordinates":[45.6607514,39.6385007]},"properties":{"ele":"2662","natural":"peak"}}
{"type":"Feature","geometry":{"type":"Point","coordinates":[74.6543632,33.2822882]},"properties":{"name":"Chorusira","natural":"peak"}}
{"type":"Feature","geometry":{"type":"Point","coordinates":[117.2422887,36.6194574]},"properties":{"name":"黑峪山","natural":"peak"}}
{"type":"Feature","geometry":{"type":"Point","coordinates":[117.2423591,36.5905535]},"properties":{"name":"瓦屋脊","natural":"peak"}}
{"type":"Feature","geometry":{"type":"Point","coordinates":[117.2343826,36.525791]},"properties":{"name":"马鞍山","natural":"peak"}}
{"type":"Feature","geometry":{"type":"Point","coordinates":[111.0882997,56.1608831]},"properties":{"ele":"2567.7","natural":"peak"}}
{"type":"Feature","geometry":{"type":"Point","coordinates":[111.0394621,56.1707278]},"properties":{"ele":"2439.8","natural":"peak"}}
{"type":"Feature","geometry":{"type":"Point","coordinates":[110.9565938,56.1806747]},"properties":{"ele":"2294.4","natural":"peak"}}
{"type":"Feature","geometry":{"type":"Point","coordinates":[110.9634697,56.1426148]},"properties":{"ele":"2172.1","natural":"peak"}}
{"type":"Feature","geometry":{"type":"Point","coordinates":[110.9252858,56.1409351]},"properties":{"ele":"2449.4","natural":"peak"}}
{"type":"Feature","geometry":{"type":"Point","coordinates":[110.9079909,56.1239789]},"properties":{"ele":"2360.8","natural":"peak"}}
{"type":"Feature","geometry":{"type":"Point","coordinates":[110.8981418,56.1499961]},"properties":{"ele":"2250.4","natural":"peak"}}
{"type":"Feature","geometry":{"type":"Point","coordinates":[110.8946442,56.1654712]},"properties":{"ele":"2263","natural":"peak"}}
{"type":"Feature","geometry":{"type":"Point","coordinates":[142.953413,63.8603038]},"properties":{"ele":"1955","name":"Курдат","natural":"peak"}}
{"type":"Feature","geometry":{"type":"Point","coordinates":[143.5232326,63.7168133]},"properties":{"ele":"1797","name":"Эргелях","natural":"peak"}}
{"type":"Feature","geometry":{"type":"Point","coordinates":[105.4105402,23.1360873]},"properties":{"ele":"1890","name":"Núi Mèo Vạc","natural":"peak"}}
{"type":"Feature","geometry":{"type":"Point","coordinates":[125.9874664,8.4778346]},"properties":{"ele":"560","name":"Mount Magdiwata","natural":"peak"}}
{"type":"Feature","geometry":{"type":"Point","coordinates":[119.4079678,28.9142694]},"properties":{"name":"石佛尖","natural":"peak"}}
{"type":"Feature","geometry":{"type":"Point","coordinates":[128.0516165,35.9383271]},"properties":{"communication:amateur_radio:sota":"HL/GB-106","ele":"820","name":"천상봉","natural":"peak"}}
{"type":"Feature","geometry":{"type":"Point","coordinates":[128.1187747,35.9595889]},"properties":{"communication:amateur_radio:sota":"HL/GB-082","ele":"872.5","name":"염속산","name:ko":"염속산","natural":"peak"}}
{"type":"Feature","geometry":{"type":"Point","coordinates":[128.1701959,35.9933711]},"properties":{"communication:amateur_radio:sota":"HL/GB-132","ele":"768","name":"빌무산","name:ko":"빌무산","natural":"peak"}}
{"type":"Feature","geometry":{"type":"Point","coordinates":[128.4116614,36.0125055]},"properties":{"communication:amateur_radio:sota":"HL/GB-411","ele":"300","name":"작오산","name:ko":"작오산","natural":"peak"}}
{"type":"Feature","geometry":{"type":"Point","coordinates":[145.9000847,64.1029113]},"properties":{"ele":"2077","name":"Хуламрин","natural":"peak"}}
{"type":"Feature","geometry":{"type":"Point","coordinates":[133.9072323,35.4903182]},"properties":{"ele":"186.4","name":"御冠山","name:en":"Mt. Mikanmuri","name:ja":"御冠山","name:ja-Hira":"みかんむりやま","natural":"peak","source":"GSImaps/std","wikidata":"Q31695861"}}
{"type":"Feature","geometry":{"type":"Point","coordinates":[133.8831139,35.5016562]},"properties":{"ele":"106.9","name":"馬ノ山","name:en":"Mt. Umanoyama","name:ja":"馬ノ山","natural":"peak","source":"GSImaps/std","wikidata":"Q21652544","wikipedia":"ja:馬ノ山"}}
{"type":"Feature","geometry":{"type":"Point","coordinates":[117.1993417,36.387393]},"properties":{"name":"天马顶","natural":"peak"}}
{"type":"Feature","geometry":{"type":"Point","coordinates":[133.7882066,35.4476599]},"properties":{"ele":"171.4","name":"四王寺山","natural":"peak","source":"GSImaps/std"}}
{"type":"Feature","geometry":{"type":"Point","coordinates":[117.235549,36.3368186]},"properties":{"name":"炉山","natural":"peak"}}
{"type":"Feature","geometry":{"type":"Point","coordinates":[117.2542398,36.3532337]},"properties":{"name":"老獾堂","natural":"peak"}}
{"type":"Feature","geometry":{"type":"Point","coordinates":[117.2673462,36.3789509]},"properties":{"name":"姚峪北顶","natural":"peak"}}
{"type":"Feature","geometry":{"type":"Point","coordinates":[114.113262,22.2261467]},"properties":{"ele":"30","name":"榕樹嶺 Yung Shue Ling","name:en":"Yung Shue Ling","name:zh":"榕樹嶺","natural":"peak"}}
{"type":"Feature","geometry":{"type":"Point","coordinates":[133.7455474,35.4157753]},"properties":{"name":"高城山","natural":"peak","source":"GSImaps/std","wikidata":"Q31688121"}}
{"type":"Feature","geometry":{"type":"Point","coordinates":[133.7281237,35.3548264]},"properties":{"ele":"400","name":"要害山","natural":"peak","source":"GSImaps/std"}}
{"type":"Feature","geometry":{"type":"Point","coordinates":[133.3602428,35.3637738]},"properties":{"ele":"192.7","name":"峰山","natural":"peak","source":"GSImaps/std"}}
{"type":"Feature","geometry":{"type":"Point","coordinates":[133.373847,35.3209433]},"properties":{"ele":"361","name":"金花山","natural":"peak","source":"GSImaps/std"}}
{"type":"Feature","geometry":{"type":"Point","coordinates":[133.323028,35.4007957]},"properties":{"ele":"161.5","name":"ドウド山","natural":"peak","source":"GSImaps/std"}}
{"type":"Feature","geometry":{"type":"Point","coordinates":[133.3012056,35.3997637]},"properties":{"name":"目廻山","natural":"peak","source":"GSImaps/std"}}
{"type":"Feature","geometry":{"type":"Point","coordinates":[133.3170413,35.3936942]},"properties":{"ele":"165","name":"大曽根山","natural":"peak","source":"GSImaps/std"}}
{"type":"Feature","geometry":{"type":"Point","coordinates":[133.3193588,35.3822011]},"properties":{"ele":"281.2","name":"要害山","natural":"peak","source":"GSImaps/std"}}
{"type":"Feature","geometry":{"type":"Point","coordinates":[133.3245944,35.3747655]},"properties":{"name":"母塚山","natural":"peak","source":"GSImaps/std"}}
{"type":"Feature","geometry":{"type":"Point","coordinates":[133.3048319,35.3602074]},"properties":{"ele":"229","name":"メイゲ平山","natural":"peak","source":"GSImaps/std"}}
{"type":"Feature","geometry":{"type":"Point","coordinates":[133.2829022,35.3456466]},"properties":{"ele":"124","name":"青垣山","natural":"peak","source":"GSImaps/std"}}
{"type":"Feature","geometry":{"type":"Point","coordinates":[133.4193951,35.4441758]},"properties":{"ele":"113.7","name":"壺瓶山","natural":"peak","source":"GSImaps/std"}}
{"type":"Feature","geometry":{"type":"Point","coordinates":[133.5104018,35.4274791]},"properties":{"name":"鈑戸山","natural":"peak","source":"GSImaps/std"}}
{"type":"Feature","geometry":{"type":"Point","coordinates":[107.0841907,20.9396053]},"properties":{"natural":"peak"}}
{"type":"Feature","geometry":{"type":"Point","coordinates":[107.0802596,20.9362358]},"properties":{"natural":"peak"}}
{"type":"Feature","geometry":{"type":"Point","coordinates":[107.0793735,20.9408855]},"properties":{"natural":"peak"}}
{"type":"Feature","geometry":{"type":"Point","coordinates":[133.4446916,35.3489572]},"properties":{"ele":"329.9","name":"鬼住山","natural":"peak","source":"GSImaps/std"}}
{"type":"Feature","geometry":{"type":"Point","coordinates":[133.4068352,35.3207112]},"properties":{"ele":"354.3","name":"粟津山","natural":"peak","source":"GSImaps/std"}}
{"type":"Feature","geometry":{"type":"Point","coordinates":[133.4196553,35.3404483]},"properties":{"ele":"301.1","name":"高塚山","natural":"peak"}}
{"type":"Feature","geometry":{"type":"Point","coordinates":[121.8603499,25.1119905]},"properties":{"name":"金瓜石砲台(雲長山)","name:en":"Jinguashi Fort","natural":"peak"}}
{"type":"Feature","geometry":{"type":"Point","coordinates":[114.9950323,-3.5352341]},"properties":{"ele":"250","name":"Bukit Sinyal","natural":"peak"}}
{"type":"Feature","geometry":{"type":"Point","coordinates":[114.9972242,-3.5363892]},"properties":{"ele":"200","name":"Bukit Guling","natural":"peak"}}
{"type":"Feature","geometry":{"type":"Point","coordinates":[117.2203738,36.4612283]},"properties":{"name":"磨峪顶","natural":"peak"}}
{"type":"Feature","geometry":{"type":"Point","coordinates":[116.9810808,36.2512832]},"properties":{"name":"米面山","natural":"peak"}}
{"type":"Feature","geometry":{"type":"Point","coordinates":[91.916453,36.238739]},"properties":{"natural":"peak"}}
{"type":"Feature","geometry":{"type":"Point","coordinates":[91.5164476,35.5919705]},"properties":{"natural":"peak"}}
{"type":"Feature","geometry":{"type":"Point","coordinates":[91.9442278,35.8406148]},"properties":{"natural":"peak"}}
{"type":"Feature","geometry":{"type":"Point","coordinates":[91.4100176,35.8862453]},"properties":{"natural":"peak"}}
{"type":"Feature","geometry":{"type":"Point","coordinates":[91.5878588,36.1594753]},"properties":{"natural":"peak"}}
{"type":"Feature","geometry":{"type":"Point","coordinates":[92.1673876,35.4365937]},"properties":{"natural":"peak"}}
{"type":"Feature","geometry":{"type":"Point","coordinates":[92.1371752,35.607045]},"properties":{"natural":"peak"}}
{"type":"Feature","geometry":{"type":"Point","coordinates":[58.3449324,38.1247987]},"properties":{"ele":"169","name":"Owadan Depe","name:en":"Ovadan Depe","name:tk":"Owadan Depe","natural":"peak","note":"\"Owadan Depe\" means \"Beautiful Hill\" in the Turkmen language.  Elevation from Soviet military map "}}
{"type":"Feature","geometry":{"type":"Point","coordinates":[110.2879106,25.2917893]},"properties":{"name":"老人山","name:en":"Laoren Hill","name:zh":"老人山","natural":"peak"}}
{"type":"Feature","geometry":{"type":"Point","coordinates":[110.2813126,25.2880753]},"properties":{"name":"骝马山","name:en":"Liuma Hill","name:zh":"骝马山","natural":"peak"}}
{"type":"Feature","geometry":{"type":"Point","coordinates":[158.4005785,53.2883337]},"properties":{"natural":"peak"}}
{"type":"Feature","geometry":{"type":"Point","coordinates":[158.4105777,53.3144675]},"properties":{"name":"Соп. Горелая","natural":"peak"}}
{"type":"Feature","geometry":{"type":"Point","coordinates":[121.8683844,25.1016266]},"properties":{"alt_name":"半平山","ele":"705","name":"半屏山","name:en":"Banpingshan","name:zh":"半屏山","name:zh-Bopo":"ㄅㄢˋㄆㄧㄥˊㄕㄢ","name:zh-Hans":"半屏山","name:zh-Hant":"半屏山","name:zh-Latn-pinyin":"bànpíngshān","natural":"peak","wikidata":"Q31599232"}}
{"type":"Feature","geometry":{"type":"Point","coordinates":[133.2103679,35.5528103]},"properties":{"ele":"293.7","name":"白髪山","name:en":"Mt. Shiraga","name:ja":"白髪山","name:ja-Hira":"しらがやま","natural":"peak","source":"GSImaps/std"}}
{"type":"Feature","geometry":{"type":"Point","coordinates":[133.2397652,35.5600345]},"properties":{"ele":"328.4","name":"高尾山","name:en":"Mt. Takao","name:ja":"高尾山","name:ja-Hira":"たかおやま","natural":"peak","source":"GSImaps/std","wikidata":"Q31688241"}}
{"type":"Feature","geometry":{"type":"Point","coordinates":[133.2598171,35.561914]},"properties":{"ele":"253.5","name":"稲荷山","name:en":"Mt. Inari","name:ja":"稲荷山","name:ja-Hira":"いなりやま","natural":"peak","source":"GSImaps/std"}}
{"type":"Feature","geometry":{"type":"Point","coordinates":[133.2699851,35.5704927]},"properties":{"ele":"203","name":"馬見山","name:en":"Mt. Umami","name:ja":"馬見山","name:ja-Hira":"うまみやま","natural":"peak","source":"GSImaps/std"}}
{"type":"Feature","geometry":{"type":"Point","coordinates":[133.2910692,35.5681182]},"properties":{"ele":"201","name":"寺尾山","name:en":"Mt. Terao","name:ja":"寺尾山","name:ja-Hira":"てらおやま","natural":"peak","source":"GSImaps/std"}}
{"type":"Feature","geometry":{"type":"Point","coordinates":[133.3077053,35.5735865]},"properties":{"ele":"110.5","name":"腕山","name:en":"Mt. Udeyama","name:ja":"腕山","name:ja-Hira":"うでやま","natural":"peak","source":"GSImaps/std"}}
{"type":"Feature","geometry":{"type":"Point","coordinates":[133.3101354,35.5674235]},"properties":{"ele":"210","name":"馬着山","name:en":"Mt. Battchaku","name:ja":"馬着山","name:ja-Hira":"ばっちゃくさん","natural":"peak","source":"GSImaps/std"}}
{"type":"Feature","geometry":{"type":"Point","coordinates":[133.2506922,35.5742061]},"properties":{"ele":"114.9","name":"釣鉾山","name:en":"Mt. Tsurihoko","name:ja":"釣鉾山","name:ja-Hira":"つりほこやま","natural":"peak","source":"GSImaps/std"}}
{"type":"Feature","geometry":{"type":"Point","coordinates":[133.1034128,35.5931368]},"properties":{"ele":"177.5","name":"平田山","natural":"peak"}}
{"type":"Feature","geometry":{"type":"Point","coordinates":[133.1946818,35.5543618]},"properties":{"ele":"257","name":"宮ノ尾山","name:en":"Mt. Miyanoo","name:ja":"宮ノ尾山","name:ja-Hira":"みやのおさん","natural":"peak","source":"GSImaps/std"}}
{"type":"Feature","geometry":{"type":"Point","coordinates":[133.1476743,35.5513991]},"properties":{"ele":"290.5","name":"忠山","name:en":"Mt. Chuyama","name:ja":"忠山","name:ja-Hira":"ちゅうやま","natural":"peak","source":"GSImaps/std"}}
{"type":"Feature","geometry":{"type":"Point","coordinates":[133.103131,35.5414934]},"properties":{"ele":"535.8","name":"三坂山","name:en":"Mt. Misaka","name:ja":"三坂山","name:ja-Hira":"みさかやま","natural":"peak","source":"GSImaps/std"}}
{"type":"Feature","geometry":{"type":"Point","coordinates":[133.1221879,35.5400403]},"properties":{"ele":"453","name":"枕木山","name:en":"Mt. Makuragi","name:ja":"枕木山","name:ja-Hira":"まくらぎさん","natural":"peak","source":"GSImaps/std"}}
{"type":"Feature","geometry":{"type":"Point","coordinates":[133.1367246,35.5346951]},"properties":{"ele":"194","name":"苧山","name:en":"Mt. Uyama","name:ja":"苧山","name:ja-Hira":"うやま","natural":"peak","source":"GSImaps/std"}}
{"type":"Feature","geometry":{"type":"Point","coordinates":[133.0729425,35.478338]},"properties":{"ele":"42","name":"楽山","natural":"peak","source":"GSImaps/std"}}
{"type":"Feature","geometry":{"type":"Point","coordinates":[133.0543709,35.5086929]},"properties":{"ele":"256.2","name":"真山","natural":"peak","source":"GSImaps/std"}}
{"type":"Feature","geometry":{"type":"Point","coordinates":[133.0536413,35.4994523]},"properties":{"ele":"150","name":"白鹿山","natural":"peak","source":"GSImaps/std"}}
{"type":"Feature","geometry":{"type":"Point","coordinates":[35.4303283,31.874574]},"properties":{"ele":"90~","image":"https://upload.wikimedia.org/wikipedia/commons/3/39/IHM_מבצר_דוק_4.jpeg","image1":"https://upload.wikimedia.org/wikipedia/commons/a/aa/IHM_קרנטל.jpeg","image2":"https://upload.wikimedia.org/wikipedia/commons/2/27/IHM_קרנטל_1.jpeg","image3":"https://upload.wikimedia.org/wikipedia/commons/2/29/IHM_קרנטל_2.jpeg","name":"جبل الأربعين","name:ar":"جبل الأربعين","name:de":"Berg der Versuchung","name:en":"Mount of Temptation","name:es":"Monte de la Tentación","name:he":"קרנטל","natural":"peak","wikidata":"Q10742877","wikipedia":"he:קרנטל"}}
{"type":"Feature","geometry":{"type":"Point","coordinates":[133.0946152,35.5613641]},"properties":{"ele":"451.9","name":"高渋山","natural":"peak","source":"GSImaps/std"}}
{"type":"Feature","geometry":{"type":"Point","coordinates":[133.0789004,35.5717762]},"properties":{"ele":"294.5","name":"詰坂山","name:en":"Mt. Tsumezaka","name:ja":"詰坂山","name:ja-Hira":"つめざかやま","natural":"peak","source":"GSImaps/std"}}
{"type":"Feature","geometry":{"type":"Point","coordinates":[133.0712369,35.533483]},"properties":{"ele":"502.8","name":"大平山","name:en":"Mt. Ohira","name:ja":"大平山","name:ja-Hira":"おおひらやま","natural":"peak","source":"GSImaps/std"}}
{"type":"Feature","geometry":{"type":"Point","coordinates":[133.0466708,35.5372684]},"properties":{"ele":"332.1","name":"御的山","name:en":"Mt. Omato","name:ja":"御的山","name:ja-Hira":"おまとやま","natural":"peak","source":"GSImaps/std"}}
{"type":"Feature","geometry":{"type":"Point","coordinates":[133.0687587,35.5148662]},"properties":{"ele":"294.8","name":"御岳山","natural":"peak","source":"GSImaps/std"}}
{"type":"Feature","geometry":{"type":"Point","coordinates":[133.0941883,35.5309661]},"properties":{"name":"澄水山","name:en":"Mt. Shinji","name:ja":"澄水山","name:ja-Hira":"しんじさん","natural":"peak","source":"GSImaps/std"}}
{"type":"Feature","geometry":{"type":"Point","coordinates":[133.0841199,35.536699]},"properties":{"ele":"475","name":"滝空山","name:en":"Mt. Takizora","name:ja":"滝空山","name:ja-Hira":"たきぞらやま","natural":"peak","source":"GSImaps/std"}}
{"type":"Feature","geometry":{"type":"Point","coordinates":[133.0508416,35.5138881]},"properties":{"ele":"252","name":"鳥ノ子山","natural":"peak","source":"GSImaps/std"}}
{"type":"Feature","geometry":{"type":"Point","coordinates":[133.0503695,35.5228826]},"properties":{"ele":"195","name":"殿山","natural":"peak","source":"GSImaps/std"}}
{"type":"Feature","geometry":{"type":"Point","coordinates":[136.0729587,35.0629216]},"properties":{"ele":"324","name":"奥鳴谷山","natural":"peak"}}
{"type":"Feature","geometry":{"type":"Point","coordinates":[132.718329,35.4274725]},"properties":{"ele":"343.2","name":"青木平","natural":"peak","source":"GSImaps/std"}}
{"type":"Feature","geometry":{"type":"Point","coordinates":[132.6944466,35.4328226]},"properties":{"name":"竜山","natural":"peak","source":"GSImaps/std"}}
{"type":"Feature","geometry":{"type":"Point","coordinates":[132.6760574,35.4378578]},"properties":{"name":"鷹取山","natural":"peak","source":"GSImaps/std"}}
{"type":"Feature","geometry":{"type":"Point","coordinates":[132.6773663,35.4292209]},"properties":{"name":"太々山","natural":"peak","source":"GSImaps/std"}}
{"type":"Feature","geometry":{"type":"Point","coordinates":[132.6549001,35.4258114]},"properties":{"ele":"357.8","name":"高尾山","natural":"peak","source":"GSImaps/std"}}
{"type":"Feature","geometry":{"type":"Point","coordinates":[132.6304813,35.4213526]},"properties":{"ele":"164.7","name":"高見平山","natural":"peak","source":"GSImaps/std"}}
{"type":"Feature","geometry":{"type":"Point","coordinates":[132.6753278,35.4135184]},"properties":{"ele":"371","name":"坪背山","natural":"peak","source":"GSImaps/std"}}
{"type":"Feature","geometry":{"type":"Point","coordinates":[132.6861854,35.4064006]},"properties":{"ele":"176","name":"八雲山","natural":"peak","source":"GSImaps/std"}}
{"type":"Feature","geometry":{"type":"Point","coordinates":[132.7192517,35.4085517]},"properties":{"ele":"476","name":"極楽山","natural":"peak","source":"GSImaps/std"}}
{"type":"Feature","geometry":{"type":"Point","coordinates":[132.7034803,35.4045467]},"properties":{"ele":"506","name":"弥山","natural":"peak","source":"GSImaps/std"}}
{"type":"Feature","geometry":{"type":"Point","coordinates":[132.7301522,35.4073974]},"properties":{"ele":"488","name":"万ケ丸山","natural":"peak","source":"GSImaps/std"}}
{"type":"Feature","geometry":{"type":"Point","coordinates":[132.7166339,35.4132561]},"properties":{"ele":"490","name":"天台ケ峰","natural":"peak","source":"GSImaps/std"}}
{"type":"Feature","geometry":{"type":"Point","coordinates":[132.7390142,35.4064705]},"properties":{"ele":"443","name":"大黒山","natural":"peak","source":"GSImaps/std"}}
{"type":"Feature","geometry":{"type":"Point","coordinates":[132.7419754,35.4090414]},"properties":{"ele":"458","name":"天ケ峰","natural":"peak","source":"GSImaps/std"}}
{"type":"Feature","geometry":{"type":"Point","coordinates":[132.7535625,35.4082019]},"properties":{"ele":"380","name":"高鍔山","natural":"peak","source":"GSImaps/std"}}
{"type":"Feature","geometry":{"type":"Point","coordinates":[132.777166,35.4224717]},"properties":{"ele":"456.4","name":"旅伏山","natural":"peak","source":"GSImaps/std"}}
{"type":"Feature","geometry":{"type":"Point","coordinates":[132.7671881,35.4205832]},"properties":{"name":"鶏ケ烏帽子","natural":"peak","source":"GSImaps/std"}}
{"type":"Feature","geometry":{"type":"Point","coordinates":[132.7737756,35.409706]},"properties":{"ele":"281.3","name":"鳶が巣山","natural":"peak","source":"GSImaps/std"}}
{"type":"Feature","geometry":{"type":"Point","coordinates":[132.7875729,35.4720638]},"properties":{"ele":"415.2","name":"摺木山","natural":"peak","source":"GSImaps/std"}}
{"type":"Feature","geometry":{"type":"Point","coordinates":[132.8351768,35.4849681]},"properties":{"name":"檜ケ仙","natural":"peak","source":"GSImaps/std"}}
{"type":"Feature","geometry":{"type":"Point","coordinates":[132.856377,35.4845488]},"properties":{"ele":"358","name":"鍋池山","natural":"peak","source":"GSImaps/std"}}
{"type":"Feature","geometry":{"type":"Point","coordinates":[132.8535016,35.4797263]},"properties":{"ele":"327.2","name":"大船山","natural":"peak","source":"GSImaps/std"}}
{"type":"Feature","geometry":{"type":"Point","coordinates":[132.8648313,35.4948044]},"properties":{"ele":"306","name":"焼山","natural":"peak","source":"GSImaps/std"}}
{"type":"Feature","geometry":{"type":"Point","coordinates":[132.888778,35.5053382]},"properties":{"ele":"253.6","name":"城山","natural":"peak","source":"GSImaps/std"}}
{"type":"Feature","geometry":{"type":"Point","coordinates":[132.8885205,35.5003248]},"properties":{"ele":"243","name":"秋葉山","natural":"peak","source":"GSImaps/std"}}
{"type":"Feature","geometry":{"type":"Point","coordinates":[132.905794,35.4881131]},"properties":{"ele":"193.5","name":"十膳山","natural":"peak","source":"GSImaps/std"}}
{"type":"Feature","geometry":{"type":"Point","coordinates":[132.9337748,35.4925508]},"properties":{"ele":"278.8","name":"本宮山","natural":"peak","source":"GSImaps/std"}}
{"type":"Feature","geometry":{"type":"Point","coordinates":[136.0673851,35.0624067]},"properties":{"ele":"282","name":"立石山","natural":"peak"}}
{"type":"Feature","geometry":{"type":"Point","coordinates":[136.071222,35.0498938]},"properties":{"ele":"251","name":"笹尾ヶ岳","natural":"peak"}}
{"type":"Feature","geometry":{"type":"Point","coordinates":[134.7210779,35.0129968]},"properties":{"ele":"577.3","name":"七種槍","natural":"peak"}}
{"type":"Feature","geometry":{"type":"Point","coordinates":[134.4010272,34.7665207]},"properties":{"ele":"253","name":"雄鷹台山","name:en":"Mt. Otakadai","name:ja":"雄鷹台山","name:ja-Hira":"おたかだいやま","natural":"peak","wikidata":"Q11659255","wikipedia":"ja:雄鷹台山 (赤穂市)"}}
{"type":"Feature","geometry":{"type":"Point","coordinates":[134.6167216,34.8174196]},"properties":{"ele":"215.9","name":"京見山","natural":"peak"}}
{"type":"Feature","geometry":{"type":"Point","coordinates":[110.2864819,25.2619971]},"properties":{"name":"雉山","natural":"peak"}}
{"type":"Feature","geometry":{"type":"Point","coordinates":[135.451979,35.0010568]},"properties":{"name":"七面山","name:ja_kana":"しちめんざん","name:ja_rm":"Shichimen-Zan","natural":"peak"}}
{"type":"Feature","geometry":{"type":"Point","coordinates":[147.2216045,63.1756688]},"properties":{"ele":"1499","name":"Черный Голец","natural":"peak"}}
{"type":"Feature","geometry":{"type":"Point","coordinates":[132.6763186,35.4016235]},"properties":{"ele":"73","name":"奉納山","natural":"peak"}}
{"type":"Feature","geometry":{"type":"Point","coordinates":[158.7721397,53.0330676]},"properties":{"ele":"243","name":"Заозёрная","natural":"peak"}}
{"type":"Feature","geometry":{"type":"Point","coordinates":[128.3606885,36.4884367]},"properties":{"communication:amateur_radio:sota":"HL/GB-253","ele":"579","name":"비봉산","name:ko":"비봉산","natural":"peak","wikidata":"Q27322307"}}
{"type":"Feature","geometry":{"type":"Point","coordinates":[138.5143005,35.2621425]},"properties":{"ele":"811.6","name":"白水山","natural":"peak"}}
{"type":"Feature","geometry":{"type":"Point","coordinates":[107.2095691,10.938578]},"properties":{"ele":"265","name":"Núi Thị","natural":"peak"}}
{"type":"Feature","geometry":{"type":"Point","coordinates":[107.136214,10.9964643]},"properties":{"ele":"418","name":"Núi Sóc Lu","natural":"peak"}}
{"type":"Feature","geometry":{"type":"Point","coordinates":[107.1861962,10.9635187]},"properties":{"name":"Núi Mã","natural":"peak"}}
{"type":"Feature","geometry":{"type":"Point","coordinates":[107.1868735,10.5995626]},"properties":{"ele":"203","name":"Núi Nghé","name:en":"Mount Nghe","name:zh":"艺山","natural":"peak"}}
{"type":"Feature","geometry":{"type":"Point","coordinates":[107.156543,10.9797008]},"properties":{"name":"Đồi Móng Ngựa","natural":"peak"}}
{"type":"Feature","geometry":{"type":"Point","coordinates":[113.7018012,21.9469206]},"properties":{"name":"蝴蝶山","name:zh":"蝴蝶山","natural":"peak"}}
{"type":"Feature","geometry":{"type":"Point","coordinates":[113.8065182,22.167641]},"properties":{"name":"东山","name:zh":"东山","natural":"peak"}}
{"type":"Feature","geometry":{"type":"Point","coordinates":[113.8004512,22.1755246]},"properties":{"name":"石龙山","name:zh":"石龙山","natural":"peak"}}
{"type":"Feature","geometry":{"type":"Point","coordinates":[132.5710833,35.0219115]},"properties":{"name":"矢飼ヶ城山","natural":"peak","source":"GSImaps/std"}}
{"type":"Feature","geometry":{"type":"Point","coordinates":[128.9321198,35.5630579]},"properties":{"communication:amateur_radio:sota":"HL/GN-039","ele":"891","name":"구천산 HL/GN-039 SOTA","name:ko":"구천산","natural":"peak"}}
{"type":"Feature","geometry":{"type":"Point","coordinates":[129.0341305,35.6760888]},"properties":{"communication:amateur_radio:sota":"HL/GB-033","ele":"1014","name":"문복산","name:en":"MOONBOKSAN","natural":"peak"}}
{"type":"Feature","geometry":{"type":"Point","coordinates":[129.0727202,35.6772835]},"properties":{"communication:amateur_radio:sota":"HL/US-007","ele":"740","name":"불송골봉","name:ko":"불송골봉","natural":"peak"}}
{"type":"Feature","geometry":{"type":"Point","coordinates":[79.7141575,29.2546907]},"properties":{"ele":"2124","natural":"peak"}}
{"type":"Feature","geometry":{"type":"Point","coordinates":[79.7383296,29.4597635]},"properties":{"ele":"2297","name":"Gajar","natural":"peak"}}
{"type":"Feature","geometry":{"type":"Point","coordinates":[79.6504241,29.27194]},"properties":{"name":"Chhota Kailash","name:hi":"छोटा कैलाश","natural":"peak"}}
{"type":"Feature","geometry":{"type":"Point","coordinates":[79.5068979,29.2807094]},"properties":{"ele":"1472","natural":"peak"}}
{"type":"Feature","geometry":{"type":"Point","coordinates":[45.6742429,50.5939717]},"properties":{"name":"гора Дурман","natural":"peak"}}
{"type":"Feature","geometry":{"type":"Point","coordinates":[132.8150969,35.4898716]},"properties":{"ele":"315.5","name":"矢代岳","natural":"peak","source":"GSImaps/std"}}
{"type":"Feature","geometry":{"type":"Point","coordinates":[132.9605852,35.5113453]},"properties":{"ele":"316","name":"経塚山","natural":"peak","source":"GSImaps/std"}}
{"type":"Feature","geometry":{"type":"Point","coordinates":[132.9809486,35.5098431]},"properties":{"ele":"341.8","name":"朝日山","natural":"peak","source":"GSImaps/std"}}
{"type":"Feature","geometry":{"type":"Point","coordinates":[132.9480869,35.4896075]},"properties":{"ele":"127.3","name":"秋葉山","natural":"peak","source":"GSImaps/std"}}
{"type":"Feature","geometry":{"type":"Point","coordinates":[132.977655,35.5386089]},"properties":{"ele":"125","name":"神堀山","natural":"peak","source":"GSImaps/std"}}
{"type":"Feature","geometry":{"type":"Point","coordinates":[131.0896967,33.4919072]},"properties":{"ele":"735","name":"檜原山","natural":"peak"}}
{"type":"Feature","geometry":{"type":"Point","coordinates":[131.0545642,33.460213]},"properties":{"ele":"877","name":"樋桶山","natural":"peak"}}
{"type":"Feature","geometry":{"type":"Point","coordinates":[133.0770745,35.449036]},"properties":{"name":"切剥山","natural":"peak"}}
{"type":"Feature","geometry":{"type":"Point","coordinates":[120.1015355,30.1389328]},"properties":{"name":"Floating mountain","name:en":"Floating mountain","name:fr":"Montagne flottante","name:zh":"浮山","natural":"peak"}}
{"type":"Feature","geometry":{"type":"Point","coordinates":[85.2054264,27.666021]},"properties":{"ele":"2551","name":"चन्द्रागिरि हिल्स","name:en":"Chandragiri Hill","name:ne":"चन्द्रागिरि हिल्स","natural":"peak"}}
{"type":"Feature","geometry":{"type":"Point","coordinates":[114.8365636,39.6573091]},"properties":{"natural":"peak"}}
{"type":"Feature","geometry":{"type":"Point","coordinates":[116.609167,40.3025088]},"properties":{"name":"石塘山","natural":"peak"}}
{"type":"Feature","geometry":{"type":"Point","coordinates":[116.6050855,40.3019533]},"properties":{"name":"凤山","natural":"peak"}}
{"type":"Feature","geometry":{"type":"Point","coordinates":[142.8324812,65.5034104]},"properties":{"ele":"2394","name":"Охогос","natural":"peak"}}
{"type":"Feature","geometry":{"type":"Point","coordinates":[128.5739789,47.2346791]},"properties":{"gns:dsg":"MT: mountain","name":"火烧山","name:en":"Huoshao Shan","name:zh":"火烧山","natural":"peak","source:name":"GNS"}}
{"type":"Feature","geometry":{"type":"Point","coordinates":[128.3318766,47.3253911]},"properties":{"gns:dsg":"MT: mountain","name":"尖山","name:en":"Jian Shan","name:zh":"尖山","natural":"peak","source:name":"GNS","wikidata":"Q28961628"}}
{"type":"Feature","geometry":{"type":"Point","coordinates":[127.8880793,47.4915866]},"properties":{"gns:dsg":"MT: mountain","name":"青水山","name:en":"Qingshui Shan","name:zh":"青水山","natural":"peak","source:name":"GNS"}}
{"type":"Feature","geometry":{"type":"Point","coordinates":[127.9318359,47.0864007]},"properties":{"gns:dsg":"MT: mountain","name":"望山","name:en":"Wang Shan","name:zh":"望山","natural":"peak","source:name":"GNS","wikidata":"Q28827080"}}
{"type":"Feature","geometry":{"type":"Point","coordinates":[49.4183515,53.4141507]},"properties":{"natural":"peak"}}
{"type":"Feature","geometry":{"type":"Point","coordinates":[133.0941574,35.4364012]},"properties":{"ele":"171.4","name":"茶臼山","natural":"peak"}}
{"type":"Feature","geometry":{"type":"Point","coordinates":[133.0630229,35.3575385]},"properties":{"ele":"281","name":"要害山","natural":"peak"}}
{"type":"Feature","geometry":{"type":"Point","coordinates":[133.0500839,35.3642232]},"properties":{"ele":"424.1","name":"八雲山","natural":"peak"}}
{"type":"Feature","geometry":{"type":"Point","coordinates":[85.2763537,27.7183013]},"properties":{"ele":"1497","name":"Halchok Danda","natural":"peak"}}
{"type":"Feature","geometry":{"type":"Point","coordinates":[85.2233689,27.7178413]},"properties":{"ele":"1874","name":"Dahachok Danda","natural":"peak"}}
{"type":"Feature","geometry":{"type":"Point","coordinates":[110.2952273,25.2549618]},"properties":{"ele":"194","name":"塔山","name:en":"Pagoda Hill","name:zh":"塔山","natural":"peak"}}
{"type":"Feature","geometry":{"type":"Point","coordinates":[110.2875099,25.2489969]},"properties":{"name":"斗鸡山","name:en":"Douji Hill","name:zh":"斗鸡山","natural":"peak"}}
{"type":"Feature","geometry":{"type":"Point","coordinates":[110.3004767,25.2412016]},"properties":{"name":"净瓶山","name:en":"Jingping Hill","name:zh":"净瓶山","natural":"peak"}}
{"type":"Feature","geometry":{"type":"Point","coordinates":[131.3481183,33.2273279]},"properties":{"ele":"787","name":"高尾山","natural":"peak"}}
{"type":"Feature","geometry":{"type":"Point","coordinates":[131.3697691,33.2097357]},"properties":{"ele":"710","name":"尾子岳","natural":"peak"}}
{"type":"Feature","geometry":{"type":"Point","coordinates":[131.3775582,33.2085329]},"properties":{"ele":"729.2","name":"星岳","natural":"peak"}}
{"type":"Feature","geometry":{"type":"Point","coordinates":[64.7433858,41.8985059]},"properties":{"man_made":"survey_point","name":"Дарбаза","natural":"peak"}}
{"type":"Feature","geometry":{"type":"Point","coordinates":[65.3670272,41.1544308]},"properties":{"ele":"402","natural":"peak"}}
{"type":"Feature","geometry":{"type":"Point","coordinates":[65.2478036,41.2749429]},"properties":{"ele":"435","natural":"peak"}}
{"type":"Feature","geometry":{"type":"Point","coordinates":[65.2058654,41.3268246]},"properties":{"ele":"149","natural":"peak"}}
{"type":"Feature","geometry":{"type":"Point","coordinates":[135.5717504,33.671381]},"properties":{"name":"金剛ノ峯","natural":"peak"}}
{"type":"Feature","geometry":{"type":"Point","coordinates":[121.0737949,22.8726991]},"properties":{"ele":"948.2","name":"大派蘭山","natural":"peak","source":"NLSC"}}
{"type":"Feature","geometry":{"type":"Point","coordinates":[75.3004485,40.7377565]},"properties":{"ele":"4080","name":"Пик Потому что","name:en":"Peak Patamushta","natural":"peak"}}
{"type":"Feature","geometry":{"type":"Point","coordinates":[133.1767941,34.3204016]},"properties":{"ele":"290.3","name":"天狗山","natural":"peak"}}
{"type":"Feature","geometry":{"type":"Point","coordinates":[133.1393956,34.3457925]},"properties":{"ele":"95.7","name":"馬神山","natural":"peak"}}
{"type":"Feature","geometry":{"type":"Point","coordinates":[110.6810759,55.9906046]},"properties":{"ele":"1955","name":"Кирон","natural":"peak"}}
{"type":"Feature","geometry":{"type":"Point","coordinates":[53.9106556,43.5716683]},"properties":{"ele":"224","name":"гора Акпан","natural":"peak"}}
{"type":"Feature","geometry":{"type":"Point","coordinates":[53.7990908,43.422832]},"properties":{"ele":"165","name":"Бокты","natural":"peak"}}
{"type":"Feature","geometry":{"type":"Point","coordinates":[125.0164946,10.0455377]},"properties":{"name":"Anas Peak","natural":"peak"}}
{"type":"Feature","geometry":{"type":"Point","coordinates":[121.653631,24.9507991]},"properties":{"alt_name":"橫坪山","ele":"686.5","name":"粗坑崙山","name:en":"Cukenglunshan","name:zh":"粗坑崙山","name:zh-Bopo":"ㄘㄨㄎㄥㄌㄨㄣˊㄕㄢ","name:zh-Hans":"粗坑仑山","name:zh-Hant":"粗坑崙山","name:zh-Latn-pinyin":"cūkēnglúnshān","natural":"peak","source":"NLSC"}}
{"type":"Feature","geometry":{"type":"Point","coordinates":[114.9975697,-3.5686179]},"properties":{"ele":"239","name":"Bukit Susu","natural":"peak"}}
{"type":"Feature","geometry":{"type":"Point","coordinates":[114.9833926,-3.5869504]},"properties":{"ele":"456","name":"Bukit Melati","natural":"peak"}}
{"type":"Feature","geometry":{"type":"Point","coordinates":[126.1080422,34.7073949]},"properties":{"ele":"177.9","name":"어깨산","name:ko":"어깨산","natural":"peak"}}
{"type":"Feature","geometry":{"type":"Point","coordinates":[133.5606704,34.4936526]},"properties":{"name":"茶臼山","natural":"peak"}}
{"type":"Feature","geometry":{"type":"Point","coordinates":[76.7994761,27.4103667]},"properties":{"ele":"400","natural":"peak"}}
{"type":"Feature","geometry":{"type":"Point","coordinates":[76.8881339,27.3069937]},"properties":{"ele":"415","natural":"peak"}}
{"type":"Feature","geometry":{"type":"Point","coordinates":[76.7762053,27.2266663]},"properties":{"ele":"398","natural":"peak"}}
{"type":"Feature","geometry":{"type":"Point","coordinates":[76.1047701,11.4097141]},"properties":{"ele":"1750","name":"Kodikkal kunnu","name:ml":"കൊടിക്കൽ കുന്ന്","natural":"peak"}}
{"type":"Feature","geometry":{"type":"Point","coordinates":[76.8431425,27.1668098]},"properties":{"ele":"410","natural":"peak"}}
{"type":"Feature","geometry":{"type":"Point","coordinates":[125.2248592,7.4989911]},"properties":{"ele":"1210","name":"Sumalili Peak","natural":"peak"}}
{"type":"Feature","geometry":{"type":"Point","coordinates":[125.2251291,7.4952176]},"properties":{"ele":"1200","fixme":"confirm spelling","name":"Mount Boldong","natural":"peak"}}
{"type":"Feature","geometry":{"type":"Point","coordinates":[133.7467183,34.6381455]},"properties":{"ele":"244","name":"軽部山","natural":"peak","source":"GSImaps/std"}}
{"type":"Feature","geometry":{"type":"Point","coordinates":[133.8017523,34.6610904]},"properties":{"ele":"227","name":"江田山","natural":"peak"}}
{"type":"Feature","geometry":{"type":"Point","coordinates":[133.8078248,34.6589548]},"properties":{"ele":"172","name":"日差山","natural":"peak"}}
{"type":"Feature","geometry":{"type":"Point","coordinates":[133.8009155,34.6564838]},"properties":{"ele":"223.7","name":"仕手倉山","natural":"peak"}}
{"type":"Feature","geometry":{"type":"Point","coordinates":[133.8045483,34.6859342]},"properties":{"name":"庚申山","natural":"peak","source":"GSImaps/std"}}
{"type":"Feature","geometry":{"type":"Point","coordinates":[133.816114,34.7319201]},"properties":{"ele":"265","name":"龍王山","natural":"peak","source":"GSImaps/std"}}
{"type":"Feature","geometry":{"type":"Point","coordinates":[133.7631136,34.7267707]},"properties":{"ele":"397","name":"鬼城山","natural":"peak","source":"GSImaps/std"}}
{"type":"Feature","geometry":{"type":"Point","coordinates":[133.7574273,34.7297158]},"properties":{"ele":"443.3","name":"犬墓山","natural":"peak","source":"GSImaps/std"}}
{"type":"Feature","geometry":{"type":"Point","coordinates":[133.7560755,34.7439107]},"properties":{"ele":"461.4","name":"登龍山","natural":"peak"}}
{"type":"Feature","geometry":{"type":"Point","coordinates":[133.7533074,34.7421475]},"properties":{"ele":"471","name":"実僧坊山","natural":"peak","source":"GSImaps/std"}}
{"type":"Feature","geometry":{"type":"Point","coordinates":[133.8457119,34.7047066]},"properties":{"ele":"183.7","name":"三光山","natural":"peak"}}
{"type":"Feature","geometry":{"type":"Point","coordinates":[133.8235891,34.712468]},"properties":{"ele":"202","name":"三上山","natural":"peak","source":"GSImaps/std"}}
{"type":"Feature","geometry":{"type":"Point","coordinates":[133.8340175,34.7186765]},"properties":{"name":"龍王山","natural":"peak"}}
{"type":"Feature","geometry":{"type":"Point","coordinates":[133.8597023,34.7032424]},"properties":{"ele":"113.3","name":"飯盛山","natural":"peak","source":"GSImaps/std"}}
{"type":"Feature","geometry":{"type":"Point","coordinates":[133.8452398,34.6916341]},"properties":{"ele":"191.4","name":"大平山","natural":"peak"}}
{"type":"Feature","geometry":{"type":"Point","coordinates":[133.8457119,34.6795874]},"properties":{"ele":"144","name":"名越山","natural":"peak","source":"GSImaps/std"}}
{"type":"Feature","geometry":{"type":"Point","coordinates":[133.5827704,35.1139326]},"properties":{"ele":"854.3","name":"京見山","natural":"peak"}}
{"type":"Feature","geometry":{"type":"Point","coordinates":[133.5462494,35.0570423]},"properties":{"ele":"610","name":"赤石山","natural":"peak"}}
{"type":"Feature","geometry":{"type":"Point","coordinates":[133.5072823,35.0240138]},"properties":{"ele":"593","name":"塩城山","natural":"peak"}}
{"type":"Feature","geometry":{"type":"Point","coordinates":[122.9044159,47.3035092]},"properties":{"natural":"peak","source":"cyclemap"}}
{"type":"Feature","geometry":{"type":"Point","coordinates":[122.8467238,47.3639861]},"properties":{"natural":"peak","source":"cyclemap"}}
{"type":"Feature","geometry":{"type":"Point","coordinates":[114.9927606,-3.5714268]},"properties":{"ele":"268","name":"Bukit Borneo","natural":"peak"}}
{"type":"Feature","geometry":{"type":"Point","coordinates":[64.7696467,41.2581833]},"properties":{"ele":"540","natural":"peak"}}
{"type":"Feature","geometry":{"type":"Point","coordinates":[65.2838287,41.2929887]},"properties":{"ele":"322","natural":"peak"}}
{"type":"Feature","geometry":{"type":"Point","coordinates":[64.7033019,41.218062]},"properties":{"ele":"472","natural":"peak"}}
{"type":"Feature","geometry":{"type":"Point","coordinates":[64.7374939,41.2583062]},"properties":{"ele":"501","natural":"peak"}}
{"type":"Feature","geometry":{"type":"Point","coordinates":[65.3042735,41.2637942]},"properties":{"ele":"324","natural":"peak"}}
{"type":"Feature","geometry":{"type":"Point","coordinates":[64.7416676,41.2281625]},"properties":{"ele":"408","natural":"peak"}}
{"type":"Feature","geometry":{"type":"Point","coordinates":[136.0601592,35.0651499]},"properties":{"ele":"259","name":"古城山","natural":"peak"}}
{"type":"Feature","geometry":{"type":"Point","coordinates":[136.057017,35.0647558]},"properties":{"ele":"286","name":"城山","natural":"peak"}}
{"type":"Feature","geometry":{"type":"Point","coordinates":[47.2618532,41.3480452]},"properties":{"ele":"3688","name":"Суйтюрт","name:az":"Seidyurd","name:ru":"Суйтюрт","natural":"peak"}}
{"type":"Feature","geometry":{"type":"Point","coordinates":[46.8545007,41.7259582]},"properties":{"ele":"3197","natural":"peak"}}
{"type":"Feature","geometry":{"type":"Point","coordinates":[72.1280878,32.529974]},"properties":{"direction":"0-360","name":"سکیسری","name:ar":"سكيسري","name:en":"Sakesri","name:ur":"سکیسری","natural":"peak","tourism":"viewpoint"}}
{"type":"Feature","geometry":{"type":"Point","coordinates":[77.1927094,27.4653417]},"properties":{"ele":"270","natural":"peak"}}
{"type":"Feature","geometry":{"type":"Point","coordinates":[76.411106,32.2104989]},"properties":{"name":"Chatkar","name:en":"Rising Star","name:hi":"चट्कर","natural":"peak"}}
{"type":"Feature","geometry":{"type":"Point","coordinates":[94.45748,25.1068648]},"properties":{"ele":"2568","name":"Shirui Kashung","natural":"peak"}}
{"type":"Feature","geometry":{"type":"Point","coordinates":[114.3866223,22.3845607]},"properties":{"ele":"233","name":"睇魚岩頂 Tai Yue Ngam Teng","name:en":"Tai Yue Ngam Teng","name:zh":"睇魚岩頂","natural":"peak","old_name:zh":"大魚山"}}
{"type":"Feature","geometry":{"type":"Point","coordinates":[114.1692921,22.5200677]},"properties":{"ele":"93","loc_name":"彀帷嶺","name":"大砍篤 Tai Hom Tuk","name:en":"Tai Hom Tuk","name:zh":"大砍篤","natural":"peak","old_name:en":"Puppy Hill","wikidata":"Q25265806"}}
{"type":"Feature","geometry":{"type":"Point","coordinates":[114.0916652,22.5089099]},"properties":{"ele":"104","name":"柯克帕特里克山","name:en":"Mount Kirkpatrick","name:zh":"柯克帕特里克山","natural":"peak"}}
{"type":"Feature","geometry":{"type":"Point","coordinates":[114.2055294,22.5610708]},"properties":{"ele":"340","name":"大同顶","natural":"peak"}}
{"type":"Feature","geometry":{"type":"Point","coordinates":[114.1990454,22.5727879]},"properties":{"ele":"682","name":"豆腐头","natural":"peak"}}
{"type":"Feature","geometry":{"type":"Point","coordinates":[114.1889398,22.5711756]},"properties":{"ele":"649","loc_name":"小梧桐","name":"小梧桐","natural":"peak"}}
{"type":"Feature","geometry":{"type":"Point","coordinates":[114.1867164,22.5783613]},"properties":{"ele":"550","loc_name":"犁壁仔","name":"犁头尖","natural":"peak"}}
{"type":"Feature","geometry":{"type":"Point","coordinates":[114.1215636,22.5860735]},"properties":{"ele":"157","name":"围岭","natural":"peak"}}
{"type":"Feature","geometry":{"type":"Point","coordinates":[114.1093132,22.5781235]},"properties":{"name":"琵琶岭","natural":"peak"}}
{"type":"Feature","geometry":{"type":"Point","coordinates":[114.2696354,22.6180777]},"properties":{"ele":"753","name":"梅沙尖","natural":"peak"}}
{"type":"Feature","geometry":{"type":"Point","coordinates":[113.9598481,22.5793525]},"properties":{"ele":"210","name":"红花岭","natural":"peak"}}
{"type":"Feature","geometry":{"type":"Point","coordinates":[113.9270818,22.5769873]},"properties":{"name":"鸡公山","natural":"peak","source":"https://cgj.sz.gov.cn/xsmh/gysz/csgy/content/post_10774688.html"}}
{"type":"Feature","geometry":{"type":"Point","coordinates":[114.2273218,22.6102492]},"properties":{"ele":"381","name":"大山","natural":"peak"}}
{"type":"Feature","geometry":{"type":"Point","coordinates":[114.3629483,22.6350541]},"properties":{"ele":"265","name":"上洞","natural":"peak"}}
{"type":"Feature","geometry":{"type":"Point","coordinates":[114.3707855,22.6346341]},"properties":{"name":"下洞","natural":"peak"}}
{"type":"Feature","geometry":{"type":"Point","coordinates":[114.39021,22.6326214]},"properties":{"ele":"452","name":"犁壁山","natural":"peak"}}
{"type":"Feature","geometry":{"type":"Point","coordinates":[114.3716599,22.6468705]},"properties":{"ele":"415","name":"赤澳岭","natural":"peak"}}
{"type":"Feature","geometry":{"type":"Point","coordinates":[114.345503,22.6488211]},"properties":{"ele":"340","name":"红花岭","natural":"peak"}}
{"type":"Feature","geometry":{"type":"Point","coordinates":[113.8546593,22.5985674]},"properties":{"ele":"203","name":"大山","natural":"peak"}}
{"type":"Feature","geometry":{"type":"Point","coordinates":[113.8620323,22.5917111]},"properties":{"ele":"112","name":"尖岗","name:zh":"尖岗","name:zh-Hans":"尖岗","name:zh-Hant":"尖崗","natural":"peak"}}
{"type":"Feature","geometry":{"type":"Point","coordinates":[113.8732537,22.6061092]},"properties":{"name":"凤凰岗山","natural":"peak"}}
{"type":"Feature","geometry":{"type":"Point","coordinates":[113.9113719,22.5962051]},"properties":{"name":"大岗","natural":"peak"}}
{"type":"Feature","geometry":{"type":"Point","coordinates":[113.9076383,22.5901627]},"properties":{"name":"塘尾","natural":"peak"}}
{"type":"Feature","geometry":{"type":"Point","coordinates":[113.9244825,22.5946004]},"properties":{"name":"塘岭山","natural":"peak"}}
{"type":"Feature","geometry":{"type":"Point","coordinates":[113.8478143,22.670212]},"properties":{"ele":"376","name":"大茅山","natural":"peak"}}
{"type":"Feature","geometry":{"type":"Point","coordinates":[113.9762815,22.6549451]},"properties":{"alt_name":"羊台山尾;小羊台山","ele":"465","name":"小阳台","natural":"peak"}}
{"type":"Feature","geometry":{"type":"Point","coordinates":[113.9438697,22.6577334]},"properties":{"name":"赤顶山","natural":"peak"}}
{"type":"Feature","geometry":{"type":"Point","coordinates":[113.9658316,22.6586975]},"properties":{"name":"大板峒","name:en":"Dabantong","name:zh":"大板峒","name:zh-Hans":"大板峒","natural":"peak"}}
{"type":"Feature","geometry":{"type":"Point","coordinates":[113.978084,22.6592519]},"properties":{"name":"七娘峒","natural":"peak"}}
{"type":"Feature","geometry":{"type":"Point","coordinates":[113.9622295,22.6534397]},"properties":{"name":"茑歌山","natural":"peak"}}
{"type":"Feature","geometry":{"type":"Point","coordinates":[114.2887263,22.5963689]},"properties":{"ele":"350","name":"菠萝山","natural":"peak"}}
{"type":"Feature","geometry":{"type":"Point","coordinates":[114.254079,22.6368971]},"properties":{"ele":"619","name":"鹅公髻","natural":"peak"}}
{"type":"Feature","geometry":{"type":"Point","coordinates":[119.3455079,28.4108917]},"properties":{"ele":"1225","name":"麻字尖","natural":"peak"}}
{"type":"Feature","geometry":{"type":"Point","coordinates":[119.3574658,28.418747]},"properties":{"ele":"1065","name":"笔架山","natural":"peak"}}
{"type":"Feature","geometry":{"type":"Point","coordinates":[119.3583162,28.4016509]},"properties":{"name":"岱头茶叶山","natural":"peak"}}
{"type":"Feature","geometry":{"type":"Point","coordinates":[77.1705544,26.9612266]},"properties":{"ele":"405","natural":"peak"}}
{"type":"Feature","geometry":{"type":"Point","coordinates":[135.9812231,34.565777]},"properties":{"ele":"737.4","name":"戒場山","name:en":"Mt. kaibayama","natural":"peak"}}
{"type":"Feature","geometry":{"type":"Point","coordinates":[114.2658062,22.6562608]},"properties":{"ele":"515","name":"打鼓嶂","natural":"peak"}}
{"type":"Feature","geometry":{"type":"Point","coordinates":[114.3416007,22.6046488]},"properties":{"name":"涯角岭","natural":"peak"}}
{"type":"Feature","geometry":{"type":"Point","coordinates":[114.2332615,22.335981]},